stop_name,stop_lat,location_type,parent_station,stop_id,stop_lon
C.M.C,9.0210263001,0,,way/604046026,38.8504558
C.M.C,9.0209365501,0,,way/604046027,38.85044875
Meri,9.0206309001,0,,way/604046028,38.86039005
Meri,9.0205342501,0,,way/604046029,38.86039745
Ayat,9.0212283001,0,,way/604046052,38.8717948
Ayat,9.0211369001,0,,way/604046053,38.87179745
St. Michael,9.0213594001,0,,way/758915882,38.8426211
St. Michael,9.0214511001,0,,way/758915883,38.8426345
Management Institute,9.0208269001,0,,way/758919087,38.8284090499
Management Institute,9.0209051001,0,,way/758919088,38.8283603999
Civil Service College,9.0216842501,0,,way/758919089,38.83479945
Civil Service College,9.0217686501,0,,way/758919090,38.83479775
Bambis,9.0104366001,0,,way/758922739,38.76879995
Bambis,9.0103406001,0,,way/758922740,38.76877485
St. Urael,9.01099095,0,,way/758922741,38.77470515
Hayahulet 2,9.0148321501,0,,way/758922742,38.7832101499
Hayahulet 2,9.0149132501,0,,way/758922743,38.7832128499
Hayahulet 1,9.0161997001,0,,way/758922744,38.7893457
Hayahulet 1,9.0162805001,0,,way/758922745,38.7893058
Lem Hotel,9.0178812001,0,,way/758922746,38.7959009999
Lem Hotel,9.0179702501,0,,way/758922747,38.7958714999
Megenagna,9.0196319001,0,,way/758922751,38.8026662
Gurd Sholla 2,9.0201812501,0,,way/758922752,38.81016615
Gurd Sholla 2,9.0202704501,0,,way/758922753,38.8101826
Gurd Sholla 1,9.0190550501,0,,way/758922754,38.8199118
Gurd Sholla 1,9.0191373501,0,,way/758922755,38.8199363
Tor Hailoch,9.0114466001,0,,way/758926923,38.7228792001
Tor Hailoch,9.0113509001,0,,way/758926924,38.7228400001
Cocacola,9.0120903001,0,,way/758926925,38.72925215
Cocacola,9.0120082001,0,,way/758926926,38.72924475
St. Lideta,9.0113260501,0,,way/758926927,38.7358812
St. Lideta,9.0114191001,0,,way/758926928,38.735902
Tegbared,9.0104883001,0,,way/758926929,38.74251165
Tegbared,9.0105720501,0,,way/758926930,38.74252605
Mexico,9.0110042001,0,,way/758926931,38.7486780499
Mexico,9.0111035001,0,,way/758926932,38.7486304499
Leghar,9.0118976001,0,,way/758926933,38.75364485
Leghar,9.0118055501,0,,way/758926934,38.7536616
Stadium,9.0119426001,0,,way/758926935,38.75765945
Stadium,9.0120396501,0,,way/758926936,38.75768125
St. Estifanos,9.0110094501,0,,way/758926937,38.7633933
St. Estifanos,9.0110866501,0,,way/758926938,38.7634148
Gojam Berenda,9.0341520001,0,,way/759354435,38.7383589
Gojam Berenda,9.0342421001,0,,way/759354436,38.73838775
Atikilt Tera,9.0345698501,0,,way/759354437,38.7469346
Atikilt Tera,9.0346634001,0,,way/759354438,38.7469217
Kality,8.938011,0,,way/759359409,38.7631070001
Kality,8.93795435,0,,way/759359410,38.7630034001
Abo Junction,8.94501825,0,,way/759359411,38.7663008501
Abo Junction,8.9449765,0,,way/759359412,38.7662190501
Saris,8.9519971333,0,,way/759359413,38.7634466333
Saris,8.9519912333,0,,way/759359414,38.7633591333
Adey Abeba,8.9567954,0,,way/759359415,38.76388145
Adey Abeba,8.9568021,0,,way/759359416,38.76379965
Lancha,8.9903485,0,,way/759359417,38.75926535
Lancha,8.9903366,0,,way/759359418,38.75916345
Temenja Yazh,8.9952452,0,,way/759359419,38.7598284334
Temenja Yazh,8.9952399,0,,way/759359420,38.7597271667
Riche,9.0005732,0,,way/759359421,38.7587088
Riche,9.00058575,0,,way/759359422,38.7586096
Meshwalekya,9.00485825,0,,way/759359423,38.7588805
Meshwalekya,9.00486215,0,,way/759359424,38.7587524
Darmar,9.0154149,0,,way/759359425,38.73475
Darmar,9.01542485,0,,way/759359426,38.73466315
Abnet,9.0212786,0,,way/759359427,38.73335125
Abnet,9.0212687,0,,way/759359428,38.73341865
Sebategna,9.0283819,0,,way/759359429,38.73298775
Sebategna,9.0284011,0,,way/759359430,38.7330763
Autobus Tera,9.0340910501,0,,way/759359431,38.7329878
Autobus Tera,9.0340079501,0,,way/759359432,38.7329908
Nifas Silk 2,8.9731988,0,,way/759365358,38.7607979501
Nifas Silk 2,8.97316965,0,,way/759365359,38.7606849501
Nifas Silk 1,8.9657149,0,,way/759365360,38.7629963
Nifas Silk 1,8.96571355,0,,way/759365361,38.7628904
Beherawi Theatre,9.0165395,0,,node/847244293,38.7525538
Black Lion,9.0209237,0,,node/847244423,38.7521415
4 Kilo,9.0344007,0,,node/4832025024,38.7632408
Lamberet Terminal (Bus),9.0223057,0,,node/4884374622,38.8158571
Sar Bet (Roundabout),8.9929728,0,,node/5248250425,38.738182
Ambassador,9.0164409,0,,node/5330678521,38.7553162
Stadium,9.0120214,0,,node/5736089088,38.7570258
Mebrathail,9.0295451,0,,node/6251054285,38.7146778
Asko,9.0654733,0,,node/6307600909,38.6928185
Bole Printing Press,8.9976331,0,,node/6373574986,38.7718334
Arada,9.0331479,0,,node/6728583386,38.7516761
Mexico,9.0094665,0,,node/6814022390,38.7444332
Mebrat Condominium,8.9644773,0,,node/6967142984,38.7438796
Mebrat,8.9673396,0,,node/6967165728,38.7486643
Gofa Gebriel,8.9771232,0,,node/6967179322,38.7491221
Kera (Gofa Road),8.9825519,0,,node/6967179323,38.7498599
Tewodros Square,9.0277111,0,,node/6967225474,38.7516602
German Square,8.9655968,0,,node/6967234177,38.732897
Friendship Building,8.9899905,0,,node/6967281153,38.7859995
Piassa (Downtown Cafe),9.0319356,0,,node/6967281241,38.7512565
Piassa Arada (2),9.0330123,0,,node/6967281242,38.7526242
Gojo,9.0418236,0,,node/6967318740,38.6217166
Megenagna Terminal,9.0203188,0,,node/7022361366,38.8026673
Bole Millenium,8.9885373,0,,node/7022397409,38.7897496
Bole Millenium,8.9887535,0,,node/7022397410,38.789886
Goro School,8.9937973,0,,node/7022397411,38.8267584
Summit Condominiums,8.9842788,0,,node/7022397413,38.8569434
Summit Condominiums,8.9842364,0,,node/7022397414,38.857122
Bole Arabsa,8.9720161,0,,node/7022397416,38.8906061
Bole Arabsa,8.9732168,0,,node/7022397417,38.8903477
Aba Kiros Roundabout,9.0561038,0,,node/7022397418,38.8785675
Yeka Abado,9.0689298,0,,node/7022397420,38.875565
Yeka Abado,9.0688377,0,,node/7022397421,38.8756232
Gurara,9.0626109,0,,node/7037142410,38.7894476
Abuare Roundabout,9.026427,0,,node/7037142414,38.7757967
Abuare Roundabout,9.026504,0,,node/7037142415,38.7759255
Marathon Motor (Megenagna),9.0224201,0,,node/7037142417,38.8000289
Yeha,9.060739,0,,node/7037142419,38.7836264
Tena Tabya,9.0608445,0,,node/7037142420,38.7839285
Biret Dildiy (Bono Wuha),9.0598571,0,,node/7037142421,38.7811505
Bret Dildy (Bono Wuha),9.0599927,0,,node/7037142422,38.7810894
Atlas,9.0042786,0,,node/7037142423,38.7797667
Bole Medhanialem,8.9983386,0,,node/7037142424,38.7860596
Bole Medhanialem,8.9984556,0,,node/7037142426,38.7862428
24,9.0098865,0,,node/7037142427,38.800549
Dinberwa Hospital,9.0221273,0,,node/7037142428,38.7866932
Kokebe Tsebah School,9.0345238,0,,node/7037142430,38.7802113
Kokebe Tsebah School,9.034441,0,,node/7037142431,38.7799476
Belgium Embassy,9.031876,0,,node/7037142433,38.7839469
British Embassy,9.0311083,0,,node/7037142434,38.784892
British Embassy,9.0309087,0,,node/7037142435,38.7855544
Abebe Sook,9.0287538,0,,node/7037142436,38.7887162
Shola Gebeya,9.0250779,0,,node/7037142438,38.7952986
Yeka Michael,9.0244101,0,,node/7037142439,38.7961373
Megenagna,9.0180934,0,,node/7037142441,38.8021491
Megenagna,9.0182711,0,,node/7037142442,38.8017521
Derartu,8.8869301,0,,node/7037142443,38.7818835
Gelan Condominium,8.8857405,0,,node/7037142444,38.7838224
08 Adarash,8.8844269,0,,node/7037142445,38.785591
Meshuwalekia Akaki,8.8768791,0,,node/7037142446,38.7865961
Akaki Beretaberet,8.8738843,0,,node/7037142448,38.7887478
G7 (Tulu Dimtu),8.870907,0,,node/7037142450,38.8207065
Tulu Dimtu,8.8552763,0,,node/7037142454,38.8042339
Tulu Dimtu,8.8556159,0,,node/7037142455,38.8041524
Akaki Korkoro,8.8597556,0,,node/7037142456,38.7961539
Belay Ab Moters (Alem Bank),8.8668237,0,,node/7037142458,38.7987744
Tulu Dimtu (Taf Gas Station),8.8688691,0,,node/7037142459,38.8051915
Arsema,8.8722685,0,,node/7037142460,38.8136608
Selam Sefer (Tapela Gar),8.8722281,0,,node/7037142461,38.8140262
Tulu Dimtu Adebabay,8.8747821,0,,node/7037142462,38.8201689
Project 12 Akababi,8.8658608,0,,node/7037142464,38.8218482
Mahiber Betoch,8.8592154,0,,node/7037142465,38.8148895
Bole Dildiy,8.9869933,0,,node/7037142466,38.7912061
Megenagna / Zefmesh,9.02034,0,,node/7037142467,38.8000136
Megenagna,9.0213214,0,,node/7037142469,38.8010735
Megenagna,9.0217137,0,,node/7037142470,38.8015921
Abysinia Cafe Area,9.0215363,0,,node/7037142471,38.8100422
Abysinia Cafe Area,9.0213396,0,,node/7037142472,38.810853
Century Mall,9.0196778,0,,node/7037142474,38.8132781
Gurd-shola,9.0187352,0,,node/7037142475,38.8215105
Menaheria,9.0239816,0,,node/7037142476,38.8192066
Menaheria,9.0238758,0,,node/7037142477,38.8192354
Gerji Mebrat Haile,9.003632,0,,node/7037142479,38.814876
Gerji Mebrat Haile,9.0037638,0,,node/7037142483,38.8132574
Lamberet,9.0253421,0,,node/7037142484,38.8251916
Lamberet Area,9.0258842,0,,node/7037183485,38.8271787
Lamberet Area,9.0260507,0,,node/7037183486,38.8273076
Lamberet Area,9.0259969,0,,node/7037183487,38.8271189
Yerer Goro,8.9913503,0,,node/7037183490,38.8294063
Yerer Goro,8.9913192,0,,node/7037183491,38.8292171
Se'alite Mihret Church,9.020263,0,,node/7037183492,38.8265756
Management Institute,9.0203852,0,,node/7037183493,38.82686
Sealite Mihret,9.0203048,0,,node/7037183494,38.8273219
Civil Service College,9.0216167,0,,node/7037183495,38.8342032
St. Michael,9.021312,0,,node/7037183496,38.8414217
St. Micheal Church,9.0215489,0,,node/7037183497,38.8425033
Salite Mihret,9.0283709,0,,node/7037183498,38.8331954
Hillside (Ethio-China Mebrathaile),9.0285264,0,,node/7037183499,38.8333256
Wessen Michael,9.030459,0,,node/7037183501,38.838592
Wessen,9.0330948,0,,node/7037183504,38.8442968
Wessen,9.033228,0,,node/7037183505,38.8445812
Wessen (Mariam),9.0330982,0,,node/7037183507,38.8446898
Kotebe Teachers College,9.0342084,0,,node/7037183508,38.8466963
Yabem Hotel,9.0357649,0,,node/7037183509,38.8533863
Kotebe Gebriel,9.036101,0,,node/7037183510,38.8545188
Yetebaberut,9.0207031,0,,node/7037183515,38.8539074
Meri,9.0207092,0,,node/7037183516,38.8603565
Meri (Yetebaberut),9.0205124,0,,node/7037183518,38.8610727
Ayat,9.0208331,0,,node/7037183519,38.8686047
Ayat Zone 2,9.0210633,0,,node/7037183520,38.8678248
Kara (Turn),9.0379427,0,,node/7037183521,38.8606002
Medhanalem Church,9.0401552,0,,node/7037183523,38.8640163
Safari,9.0106828,0,,node/7037183525,38.852259
Summit (MOHA),9.0043876,0,,node/7037183527,38.8520658
Tena Tabeya,8.9941038,0,,node/7037183529,38.860685
Gate 2,8.9894728,0,,node/7037183532,38.8582866
Ayat Train Station,9.0213287,0,,node/7037183535,38.8719812
CMC,9.0211208,0,,node/7037183536,38.872594
Ayat Square,9.0212396,0,,node/7037183537,38.8767684
Feres Bet,9.0216916,0,,node/7037183538,38.8862575
Police Tabia,9.0170704,0,,node/7037183539,38.8946069
Tsebel,9.0222555,0,,node/7037183540,38.891209
Bono Meskid,9.0219034,0,,node/7037183541,38.8902931
Ayat Chefe Condominium,9.0113906,0,,node/7037183542,38.8946677
Ayat Chefe Condominium,9.0109368,0,,node/7037183543,38.8944878
Nebu Mikael,9.0023517,0,,node/7037183545,38.8767662
Ayat Adebabay Hulet (2),8.9965746,0,,node/7037183546,38.8851706
Bole Arabsa (3),8.9963324,0,,node/7037183547,38.8855436
Bole Arabsa (2),8.9841602,0,,node/7037183548,38.8851362
Bole Arabsa,8.9733148,0,,node/7037183550,38.8902717
St. Gebereal,8.9654075,0,,node/7037183551,38.8849449
Yeka Condominium 1,9.0354891,0,,node/7037183552,38.877919
Tafo Gebrael,9.0381306,0,,node/7037183554,38.8777819
Tafo Condominium 1,9.0505157,0,,node/7037183555,38.8779667
Tafo Mebrathail,9.0425957,0,,node/7037183557,38.8773973
Tafo Mebrathail,9.0427743,0,,node/7037183558,38.877866
Tafo Condominium 2,9.0465834,0,,node/7037183559,38.8779122
Kara Condominium,9.0501511,0,,node/7037183562,38.8705589
Yeka Abado,9.0666282,0,,node/7037183563,38.8647703
Sara Ampol (Gedera),9.0571811,0,,node/7037183565,38.8737753
Sara Ampol,9.0580264,0,,node/7037183567,38.8742538
Aba Kiros,9.0606875,0,,node/7037183569,38.8812971
Makefafeya,9.0630654,0,,node/7037183570,38.8841651
Gari Tera,9.0670494,0,,node/7037183571,38.8892044
CCD,9.0707009,0,,node/7037183572,38.8938058
140,9.0718221,0,,node/7037183573,38.8952147
Legedadi Mission,9.0818058,0,,node/7037183574,38.9074861
Legedadi Mission,9.0821737,0,,node/7037183575,38.90832
Selam Building,8.8832064,0,,node/7041052894,38.7771628
Gojo Hotel,8.8910809,0,,node/7041052895,38.7768265
Kality Meneharia,8.8958596,0,,node/7041052896,38.7717913
Cheralia Factory,8.9029458,0,,node/7041052897,38.7668359
Cheralia Factory,8.9029223,0,,node/7041052898,38.7667452
Kality Gebriel,8.9113422,0,,node/7041052900,38.7638335
Kality Prison,8.9124672,0,,node/7041052901,38.7633323
Hana Maryam,8.928137,0,,node/7041052912,38.7416641
Tabelew,8.9274906,0,,node/7041052914,38.6590102
Alem Gena,8.9230001,0,,node/7041052916,38.6526472
Alem Gena,8.9229882,0,,node/7041052917,38.652656
Mekanisa (Old Revenues Office),8.9683942,0,,node/7041052927,38.73129
German Square,8.9656974,0,,node/7041052928,38.7327236
Gebriel Bridge,8.9556239,0,,node/7041052932,38.7324437
Gebriel Bridge,8.955596,0,,node/7041052934,38.7327233
Mebrathile (EEPCo),8.9469471,0,,node/7041052935,38.7339608
Mekanisa School,8.9790248,0,,node/7041052936,38.7341955
Abo,8.9785916,0,,node/7041052937,38.7339384
Sheged Hotel,8.973373,0,,node/7041052938,38.7246092
Jemo Michael,8.9673959,0,,node/7041052939,38.720836
Jemo Michael,8.966996,0,,node/7041052940,38.7209392
Jemo YBP (All Mart),8.9614893,0,,node/7041052942,38.7152564
Jemo 1,8.9606358,0,,node/7041052944,38.7123763
Jemo 1,8.9604074,0,,node/7041052945,38.7124284
Mestawet Fabrica,8.9595125,0,,node/7041052946,38.7084697
Mestawet Fabrica,8.958513,0,,node/7041052948,38.7059934
Jemo 3,8.9564,0,,node/7041052949,38.6992718
Jemo 3,8.9556244,0,,node/7041052950,38.6985348
Zenebework,8.9866742,0,,node/7041052951,38.7077567
Welete Maryam,8.9611777,0,,node/7041052952,38.6713097
Mickael Bridge,8.9657858,0,,node/7041052953,38.7272059
Gerar,8.9813447,0,,node/7041052954,38.689429
Repi (Gerar),8.9793804,0,,node/7041052955,38.6852022
Gebre Kirstos,8.9773403,0,,node/7041052957,38.7220154
Bisrate Gebrael,8.9884304,0,,node/7041052958,38.7228933
Gofa Gebriel (2),8.9753751,0,,node/7041052959,38.7488548
MOHA (Pepsi Factory),8.9822682,0,,node/7041052965,38.7560783
Addis Sefer (Gebriel),8.9555778,0,,node/7041052966,38.7743852
Addis Sefer (Gebriel),8.9555403,0,,node/7041052967,38.77441
Gotera (Oilibiya),8.9762662,0,,node/7041052969,38.7600125
Gotera (Oilibiya),8.976182,0,,node/7041052970,38.7598239
St. Joseph Church,8.9697308,0,,node/7041052975,38.7620577
kadisco Building,8.9659447,0,,node/7041052977,38.7627885
kadisco Building,8.965927,0,,node/7041052978,38.762999
Kadisco,8.9637596,0,,node/7041052979,38.7630788
Adey Abeba,8.9583017,0,,node/7041052980,38.7640609
Adey Abeba,8.9582595,0,,node/7041052982,38.7638459
Saris (CBE),8.9528662,0,,node/7041071286,38.7635583
Saris (CBE/Shoa Bakery),8.9527596,0,,node/7041071287,38.7633266
Abo Junction,8.9450003,0,,node/7041071289,38.7661044
Abo Junction,8.9450733,0,,node/7041071290,38.7663069
Customs (Train Station),8.9380959,0,,node/7041071291,38.763132
Kality Maseltegna,8.9323275,0,,node/7041071295,38.766627
Wehalemat,8.9298185,0,,node/7041071296,38.7681616
Werku Sefer,8.9331651,0,,node/7041071297,38.775077
Bulgaria Mazoria,8.9950292,0,,node/7041071342,38.7478244
Begtera,8.9971703,0,,node/7041071344,38.7475059
AU (Mikael) Rounrdabout,8.9990638,0,,node/7041071347,38.7394459
AU (Mikael) Rounrdabout,8.9990569,0,,node/7041071348,38.7395945
Bulgaria,8.9937942,0,,node/7041071350,38.7478465
Global Hotel,8.9941475,0,,node/7041071352,38.7595772
Global Hotel,8.9941836,0,,node/7041071353,38.7598183
Beklo Bet (Global),8.9953383,0,,node/7041071354,38.7596352
Tele Garage,9.000141,0,,node/7041071355,38.7584812
Riche,9.0043253,0,,node/7041071356,38.7586986
6th (Raddison Blu),9.0166957,0,,node/7041071359,38.7669535
Filweha (Hotsprings),9.017718,0,,node/7041071360,38.7572645
Filweha (Hotsprings),9.0175554,0,,node/7041071362,38.7570579
Ghion Hotel (Enterance),9.0138328,0,,node/7041071364,38.7576145
St. Joseph School,9.0098008,0,,node/7041071367,38.7591876
St. Joseph School,9.0104995,0,,node/7041071370,38.7592761
Admas University College,9.0105316,0,,node/7041071371,38.7590434
Lalibela Hotel,9.0118612,0,,node/7041071372,38.7570112
Stadium,9.0121294,0,,node/7041071374,38.7560438
Legehar,9.011849,0,,node/7041071376,38.7545386
Legehar,9.0117857,0,,node/7041071377,38.7539285
Legehar (Old Train Station),9.0109604,0,,node/7041071378,38.7533069
Legehar (Old Train Station),9.0105723,0,,node/7041071379,38.7529712
Mexico,9.0097755,0,,node/7041071380,38.7461963
African Union,9.0031416,0,,node/7041071382,38.7414166
Popolare,9.0053059,0,,node/7041071383,38.7423863
Guenet Hotel,9.0046908,0,,node/7041071384,38.7466748
Guenet Hotel,9.0032786,0,,node/7041071385,38.74694
Tikur Anbessa Hospital,9.0210743,0,,node/7041071386,38.7488977
Goma Quteba,9.0175858,0,,node/7041071387,38.7464317
Abenet,9.0214263,0,,node/7041071388,38.7334947
Lideta Condominium,9.0132791,0,,node/7041071389,38.7345522
Darmar,9.0157856,0,,node/7041071390,38.7348248
Austria Embassy,8.9939406,0,,node/7041071392,38.7278809
Mechare Meda,8.9936591,0,,node/7041071393,38.727499
3 Kutir Mazoriya (Total),8.9925902,0,,node/7041071395,38.7152417
Minaye Building,8.995414,0,,node/7041071397,38.7184074
Old Airport (Mobil),8.9998642,0,,node/7041071399,38.7191221
Tor Hailoch,9.0099949,0,,node/7041071400,38.7206897
Keranio Mewcha,9.0133411,0,,node/7041071401,38.7100309
Holand,9.0213057,0,,node/7041071402,38.7159484
Meseret Edget,9.0245409,0,,node/7041071403,38.714954
Teklehaymanot,9.0278226,0,,node/7041071404,38.7440603
Kebele 11,9.0247481,0,,node/7041071405,38.7458014
Tewodros Square,9.0262634,0,,node/7041071406,38.75166
Tewodros Square,9.0263826,0,,node/7041071407,38.7517909
Black Lion,9.0218352,0,,node/7041071411,38.7521859
National Theatre,9.0158768,0,,node/7041071414,38.751592
National Theatre,9.0156938,0,,node/7041071415,38.7513097
A.A. Commercial College,9.0139102,0,,node/7041071416,38.7494881
A.A. Commercial College,9.0138228,0,,node/7041071418,38.7495568
Buna Ena Shay,9.0114261,0,,node/7041071419,38.7490599
Buna Ena Shay,9.0105922,0,,node/7041071420,38.7479733
Mexico Shebelle Hotel,9.0119916,0,,node/7041071423,38.7468862
TVET College (Tegbare'd),9.0105894,0,,node/7041071425,38.7429038
Federal Police (Tegbare'd),9.0103865,0,,node/7041071429,38.7426638
Lideta (Balcha Hospital),9.0109303,0,,node/7041071430,38.738603
Lideta (Balcha Hospital),9.0111161,0,,node/7041071431,38.7385604
Lideta Condominium,9.011233,0,,node/7041071432,38.7377815
Lideta Tsebel,9.0041706,0,,node/7041071433,38.733822
Dessie Hotel,9.0093091,0,,node/7041071434,38.7338119
High Court,9.0108572,0,,node/7041071435,38.7342297
Lideta High Court,9.0115829,0,,node/7041071437,38.733431
Hintsa College,9.0121559,0,,node/7041071439,38.7293132
Coca Cafe,9.0119411,0,,node/7041071441,38.7292339
Mekonenoch (Golf) Club,9.011282,0,,node/7041071444,38.7265458
Tor Hailoch Junction,9.0115616,0,,node/7041071446,38.7220202
Torhailoch,9.0119442,0,,node/7041071447,38.7216866
Tor Hailoch,9.0139112,0,,node/7041071448,38.7206478
Tor Hailoch,9.013939,0,,node/7041071449,38.7209168
Keranio Bridge,9.0194506,0,,node/7041071450,38.7089411
Medhanialem,9.0175679,0,,node/7041071451,38.7049748
Keranio Adebabay,9.0176634,0,,node/7041071452,38.7006446
Kokebe,9.0180779,0,,node/7041071453,38.6994971
Yeshi Debele,9.0195382,0,,node/7041071454,38.6954056
Yeshi Debele,9.0190748,0,,node/7041071455,38.6957701
Mariam,9.0231539,0,,node/7041071456,38.6884518
Anfo Meda,9.021983,0,,node/7041071458,38.6742682
St. Urael Church,9.0110433,0,,node/7041071459,38.7752596
Salcost Apartments (NOC),9.0104908,0,,node/7041071461,38.766397
St. Estifanos Church,9.0118738,0,,node/7041071462,38.7626376
St. Gebriel,9.0199107,0,,node/7041071464,38.7675809
Zenebewerk Hotel,9.0193852,0,,node/7041071465,38.7680315
Meles Zenawi Foundation,9.0206693,0,,node/7041071466,38.7715231
Azmari Bet (Traditional Music Club),9.0194316,0,,node/7041071468,38.770643
Kazanchis (6th),9.0166401,0,,node/7041071469,38.7702335
Hilton Hotel (Apartments),9.0196382,0,,node/7041071471,38.7638714
Women Square,9.0233468,0,,node/7041071473,38.7772342
Women Square,9.0234508,0,,node/7041071474,38.7771738
Aware Bridge,9.0244322,0,,node/7041071475,38.7765755
Arat Kilo,9.0319312,0,,node/7041071479,38.7633615
Arat Kilo,9.0321438,0,,node/7041071480,38.7652099
Bel Air,9.032458,0,,node/7041071481,38.7728461
Addis View Hotel,9.0324918,0,,node/7041071482,38.7730493
Menlik II Hospital,9.0385863,0,,node/7041071483,38.7730546
Menlik Hospital,9.0388201,0,,node/7041071484,38.7719268
Piassa Arada,9.0365854,0,,node/7041071579,38.7522655
Piassa Arada,9.0363921,0,,node/7041071580,38.7524177
Piassa Arada,9.0354406,0,,node/7041071592,38.7523243
Habtegiorgis Bridge,9.0352553,0,,node/7041071594,38.7491242
Kurtu Building,9.0343899,0,,node/7041071595,38.7438917
Kurtu Building,9.0341887,0,,node/7041071596,38.7437548
Pharmacy,9.0343321,0,,node/7041071597,38.7434135
Gojam Berenda,9.0343947,0,,node/7041071598,38.737968
Autobis Tera (3),9.0342308,0,,node/7041071599,38.7337775
Autobus Tera,9.03371,0,,node/7041071600,38.7298446
Darsema Grosery,9.0338533,0,,node/7041071601,38.7294433
Millenium School,9.0408355,0,,node/7041071602,38.7101875
Girum Hospital,9.04636,0,,node/7041071604,38.7200106
Woreda 7 TVET,9.0407262,0,,node/7041071605,38.7212396
Sefere Salam,9.0366318,0,,node/7041071606,38.7219216
Kolfe,9.037044,0,,node/7041071607,38.7173824
Abysinia Coffee,9.0373422,0,,node/7041071608,38.7164487
Degu Hotel,9.0338162,0,,node/7041071609,38.7151531
18 Mazoria,9.0335338,0,,node/7041071610,38.7130781
18 Mazoria,9.0335825,0,,node/7041071612,38.7135105
Luwkanda,9.0333303,0,,node/7041071614,38.7093322
Comprensive,9.0340139,0,,node/7041071615,38.704541
Realstate,9.0327975,0,,node/7041071616,38.6951186
Police Tabiya,9.034058,0,,node/7041071619,38.6888917
Feli Doro (1),9.0342811,0,,node/7041071620,38.6875252
Feli Doro,9.0353789,0,,node/7041071622,38.6853297
Ras Mekonene Bridge (Seba Dereja),9.0389362,0,,node/7041071628,38.7568178
5 Kilo (History Museum),9.0385989,0,,node/7041071629,38.7625491
5 Kilo University,9.0408311,0,,node/7041071630,38.761951
Lion Zoo (PEPSI Kiosk),9.0427151,0,,node/7041071633,38.7615693
Yekatit 12 Hospital,9.0438891,0,,node/7041071636,38.7603878
Yeatit 12 Hospital,9.0436921,0,,node/7041071637,38.7593176
Red-Cross (St. George Total),9.0386136,0,,node/7041071638,38.7527639
St. George Church (Total),9.0386684,0,,node/7041071639,38.7517494
Semen Hotel,9.0436522,0,,node/7041071640,38.7488778
Semen Hotel,9.0446929,0,,node/7041071641,38.7482928
Kelemwerk,9.0486023,0,,node/7041071642,38.7461719
Kelemwerk,9.0488673,0,,node/7041071643,38.7458026
Tibeb Ediget School,9.0512494,0,,node/7041071645,38.7443439
Semen Mazegaga,9.0523631,0,,node/7041071646,38.7433813
Semen Mazagaja,9.0537306,0,,node/7041071647,38.7424925
Shegole Bank,9.0541015,0,,node/7041071648,38.7200104
Pawlos Hospital,9.0474202,0,,node/7041071649,38.7277601
Finance,9.0514832,0,,node/7041071650,38.7221677
Medhanialem (TOTAL),9.0513651,0,,node/7041071651,38.7220512
Finance,9.0528369,0,,node/7041071653,38.7201878
Finance,9.0531245,0,,node/7041071654,38.7199027
Winget Chaf,9.0544244,0,,node/7041071655,38.7149847
Mikili Land,9.051327,0,,node/7041071658,38.6987792
Winget Adebabay,9.0571703,0,,node/7041071659,38.7137033
Awolia,9.0576087,0,,node/7041071660,38.7116367
Gulele Fana,9.0577975,0,,node/7041071661,38.7067279
Gulele Fana,9.0582376,0,,node/7041071662,38.7065488
Berchiko,9.0593548,0,,node/7041071663,38.7034077
Gebriel (Sansusi),9.0665816,0,,node/7041071665,38.69045
Bono Weha,9.057952,0,,node/7041071718,38.7791204
Mezan,9.053538,0,,node/7041071719,38.7722233
3rd Shaleka,9.0470252,0,,node/7041071721,38.7690705
6 Kilo (University),9.0461753,0,,node/7041071723,38.7615547
Meksaye Hizunan Medhanialem,9.0513004,0,,node/7041071725,38.7622054
Teferi Mekonen,9.052326,0,,node/7041071726,38.7622236
Sebseba Maekel,9.0541533,0,,node/7041071729,38.7625698
Eyesus,9.0649811,0,,node/7041071737,38.7715088
Hamle 19,9.0585516,0,,node/7041071738,38.7680987
Selassie,9.0692162,0,,node/7041071740,38.7607205
Sanba Nekersa-Shiromeda,9.0745256,0,,node/7041071741,38.7590628
Kuskoam,9.0777328,0,,node/7041071742,38.7572536
Dil Ber,9.0710894,0,,node/7041071749,38.7374397
Anbessa Garage (Shegole),9.0638294,0,,node/7041071753,38.7204079
Kebt Beret,9.0691617,0,,node/7041071754,38.7182194
Entoto Kela,9.0843712,0,,node/7041071755,38.7230011
Weserbi Realestate,9.1051152,0,,node/7041071758,38.7095299
Classy Water,9.1095355,0,,node/7041071759,38.7147037
Medret Hotel,9.1100449,0,,node/7041071760,38.7158285
Kburea,9.1176074,0,,node/7041071761,38.7300979
Kenenisa,9.1179357,0,,node/7041071762,38.7304557
Shefunea,9.1273122,0,,node/7041071763,38.7395293
Shefine,9.1277902,0,,node/7041071764,38.7397834
Doro Erbata,9.1339361,0,,node/7041071772,38.7522344
Abo Gabriel,9.1341343,0,,node/7041071773,38.7524529
Tulu Fati,9.1408321,0,,node/7041071774,38.7549356
Ashewa,9.1449015,0,,node/7041071775,38.7538733
Tabya Hotel,9.1560016,0,,node/7041071776,38.7542489
Sar Bet (Roundabout),8.9929589,0,,node/7047495429,38.738359
United Bank (Ashewa Meda),9.0286142,0,,node/7047495432,38.6600221
Sefera,8.9208064,0,,node/7047495433,38.7346499
Lafto,8.9473774,0,,node/7049122264,38.744323
Hana Mariam (2),8.935835,0,,node/7049122265,38.7440895
Haile Garment,8.9387647,0,,node/7049122266,38.7345586
Yekiber Demena Church,9.0304285,0,,node/7049921444,38.8779866
Megenagna Terminal,9.0204726,0,,node/7049921445,38.8024339
Hill Bottom (Recreation),9.0220882,0,,node/7049921447,38.8759579
Zone 8,9.0304125,0,,node/7049921448,38.8775474
Aba Kiros (Tafo) Roundabout,9.0570656,0,,node/7049921449,38.8779122
Tafo Junction,9.0566049,0,,node/7050234123,38.8790275
Megenagna Terminal,9.020626,0,,node/7050327664,38.8021323
6 Kilo,9.0476858,0,,node/7054842410,38.7617178
6 Kilo,9.0476498,0,,node/7054842414,38.7617169
Legehar (Old Train Station),9.0101478,0,,node/7055060064,38.7533495
Kotebe Gebriel,9.0359897,0,,node/7055598734,38.8546711
Ahmed Building,9.0269686,0,,node/7055598736,38.8299268
St. Mary Church,9.0363488,0,,node/7055598738,38.7579049
Piassa Arada,9.0335541,0,,node/7055598739,38.7535483
Piassa Arada,9.0327818,0,,node/7055598742,38.7534018
St. Mary Church,9.0363807,0,,node/7055598743,38.7579442
NOC End,9.0274541,0,,node/7055598744,38.8307544
Kotebe Teachers College,9.0341209,0,,node/7056754511,38.8467717
Meskelegna (Ababdo),9.0630764,0,,node/7056754514,38.8732637
Megenagna,9.020907,0,,node/7056754516,38.8022361
Atlas,9.0041945,0,,node/7057002158,38.779674
Piassa Arada,9.0329242,0,,node/7057002161,38.7528717
Ras Mekonene Bridge (Seba Dereja),9.0389386,0,,node/7057002162,38.7568279
Gibi Gebriel Church,9.0226675,0,,node/7057002163,38.7626361
Brass Clinic (Bole),8.9904207,0,,node/7057187392,38.7929906
Brass Clinic (Bole),8.9903142,0,,node/7057187393,38.7932003
St.Gorgis,9.0379471,0,,node/7062689844,38.7519784
St. George Church (2),9.0358742,0,,node/7062689845,38.751629
Piassa,9.0345896,0,,node/7062689848,38.7549398
Arat Kilo,9.0325203,0,,node/7062689850,38.764362
4 Kilo,9.0344021,0,,node/7062689851,38.7630946
Medhanialem,9.0506154,0,,node/7062689852,38.7621098
Education Bureau (6 Kilo),9.0441091,0,,node/7062689854,38.7636034
Jan Meda,9.0471236,0,,node/7062689855,38.7690204
Frensaye Kela,9.0557922,0,,node/7062689856,38.7742742
Frensaye Kela,9.0551762,0,,node/7062689857,38.7736282
Abo Mazoriya,9.0569998,0,,node/7062689858,38.7777387
Gurara,9.0623294,0,,node/7062689859,38.7881845
Mamo (NFSL TVET),8.9730894,0,,node/7067942461,38.7608987
Agona Cinema,8.988213,0,,node/7067942462,38.7595747
Agona Cinema,8.9882665,0,,node/7067942463,38.7597959
Tele Garage,9.0004682,0,,node/7067942465,38.7587377
Zerihun Building,9.0145395,0,,node/7067990019,38.7824519
6th (Raddison Blu),9.0166971,0,,node/7067990020,38.7669539
National Palace,9.026432,0,,node/7070861695,38.7621456
SNAP Building,8.9897614,0,,node/7070861696,38.7872174
Friendship,8.9908557,0,,node/7070861697,38.7844888
Heber Restaurant,8.9917592,0,,node/7070861698,38.7822311
RWANDA (Werbek House),8.992295,0,,node/7070861699,38.7791533
Rwanda,8.9924,0,,node/7070861701,38.7798477
Bole Printing Press,8.9966227,0,,node/7070861702,38.7723732
Bole Printing Press,8.9976714,0,,node/7070861703,38.7715908
Mega Printing Press,8.9993469,0,,node/7070861704,38.7708659
Shewa Dabo,9.001132,0,,node/7070861705,38.7697078
Getu Commercial Center,9.0014126,0,,node/7070861706,38.7697673
Dembel City Center,9.004953,0,,node/7070861707,38.7678519
Flamingo,9.0100482,0,,node/7070861710,38.7634195
Piassa Arada,9.0358425,0,,node/7070861712,38.7527123
Anbessa Garage,9.0074376,0,,node/7070861713,38.8054033
Ayat Roundabout,9.0221276,0,,node/7070861714,38.876525
Gebriel,9.0401288,0,,node/7070861716,38.8777949
Semen Mazegaja | ሰሜን ማዘጋጃ,9.0527134,0,,node/7074233342,38.7433527
Del Ber School,9.0559007,0,,node/7074233343,38.7411604
Adisu Gebeya,9.0592088,0,,node/7074233344,38.7379037
Kelebat,9.061605,0,,node/7074233345,38.7355505
Oilibiya (Dil Ber),9.0679367,0,,node/7074233346,38.7347909
Pastor,9.0463006,0,,node/7074267433,38.7301845
Medhanialem,9.051161,0,,node/7074267434,38.7228618
Winget,9.0554455,0,,node/7074267435,38.7138884
Kela,9.0576131,0,,node/7074269464,38.6101592
Kela,9.0576152,0,,node/7074269465,38.6101611
Semen Hotel,9.0452427,0,,node/7074275407,38.7481339
Kera,8.9866969,0,,node/7074294627,38.7484333
Asko,9.0653014,0,,node/7074299254,38.6922669
Sebategna,9.0286512,0,,node/7074324043,38.733098
Autobis Tera (2),9.0317912,0,,node/7074324044,38.7324012
Autobis Tera,9.0347276,0,,node/7074324045,38.7321005
Mekanisa,8.9733512,0,,node/7074326525,38.7315967
Abo Mazoria,8.9822244,0,,node/7074326526,38.7343058
Gate 2,8.9894962,0,,node/7074330387,38.8580841
Tena Tabeya,8.9942098,0,,node/7074330389,38.8605382
Condminium (Gate),8.9984544,0,,node/7074330391,38.8602323
Gomista,9.0014062,0,,node/7074330392,38.8573283
Summit (MOHA),9.0040839,0,,node/7074330394,38.8517162
Safari,9.0106601,0,,node/7074330397,38.8518265
Alemayehu,8.999474,0,,node/7074330400,38.820944
Alemayehu,9.0005663,0,,node/7074330401,38.8196821
Condominium,9.0050845,0,,node/7074330403,38.8095474
Ethio-china,9.026612,0,,node/7074330407,38.8287819
Kara,9.0403987,0,,node/7074330409,38.8643277
Project 15,8.9654679,0,,node/7074332290,38.8850641
Kela,8.9772657,0,,node/7074332294,38.8845811
Chereta,9.0616842,0,,node/7074347184,38.7010211
Gerar,8.9813585,0,,node/7074353066,38.6894082
Sansusi,9.0714186,0,,node/7074387585,38.6891023
Kersa (2),9.0285405,0,,node/7074496216,38.6722328
Ashewa Meda,9.0326531,0,,node/7074496217,38.6653802
Ashewa Meda,9.0326414,0,,node/7074496218,38.6653823
United Bank (Ashewa Meda),9.0258997,0,,node/7074496219,38.6569665
St. Gebriel,9.027689,0,,node/7074496221,38.6515848
St. Gebriel,9.0276843,0,,node/7074496222,38.6515743
Gojo,9.0417975,0,,node/7074496225,38.6216778
Alem Bank,9.0010346,0,,node/7074504387,38.6776598
Ayer Tena,8.9831093,0,,node/7074504388,38.6982193
Bethel,9.0045877,0,,node/7074504390,38.6944335
Mendida,9.0149626,0,,node/7074504392,38.7004735
Mebrat Nigist Hotel,8.9700751,0,,node/7074525370,38.7486994
Lideta Kefetega Firdbet,9.0116457,0,,node/7074541084,38.7326808
Haile Garment,8.9368661,0,,node/7074561391,38.7363202
Mebrathile (EEPCo),8.9493593,0,,node/7074561392,38.7334502
Hana Mariam,8.9309368,0,,node/7074561393,38.7544146
Hana Mariam (2),8.9361698,0,,node/7074561394,38.7444615
Meskelgna,8.95299,0,,node/7074561395,38.7448233
Piassa Arada,9.0357438,0,,node/7074585943,38.7514315
Arat Kilo,9.0324015,0,,node/7074585944,38.7633143
Beklo Bet (Global),8.9953761,0,,node/7074599697,38.759835
Dembel City Center,9.0055741,0,,node/7074691520,38.7672511
Mexico,9.010735,0,,node/7074707878,38.7471393
ERA Office (Big Mak),9.0127963,0,,node/7074707880,38.7478601
Saint Josphe School,9.0092034,0,,node/7074707881,38.7591385
St. Estifanos Church,9.0124825,0,,node/7074707883,38.7628296
Mamo (NFSL TVET),8.9725713,0,,node/7074819178,38.7607684
Kality Maseltegna,8.9339802,0,,node/7074841188,38.7643672
Dildiy Mariam,8.9585362,0,,node/7075101457,38.7498569
Kera (Gofa Stop),8.9837158,0,,node/7075101459,38.7497528
Tor Hailoch,9.009717,0,,node/7075129253,38.7208842
Torhayloch,9.0117428,0,,node/7075129254,38.7207996
Tor Hailoch,9.0117788,0,,node/7075129255,38.7222467
Riche,9.0043941,0,,node/7076294502,38.7588986
Mebrat Condominium,8.9645236,0,,node/7076294503,38.7438551
Kadisco,8.9638868,0,,node/7076294504,38.7633289
Flamingo,9.0089349,0,,node/7076294505,38.7646677
Condminium (Gate),8.9984013,0,,node/7076294507,38.8601035
Sara Ampol (Gedera),9.0571285,0,,node/7076294508,38.8738883
Michael (2),9.0418835,0,,node/7076294509,38.7325725
Shero Meda,9.0622823,0,,node/7076294510,38.7612538
Shero Meda,9.0618175,0,,node/7076294511,38.7613619
Dil Ber,9.0716602,0,,node/7076294512,38.7369836
Sanba Nekrsa,9.0745282,0,,node/7076294514,38.7590251
Shiromeda Selassie,9.0692159,0,,node/7076294515,38.7607132
Shero Meda,9.0618235,0,,node/7076294516,38.7613887
6 Kilo (Akim Genbata),9.0447597,0,,node/7076310930,38.7612093
Shero Meda,9.0626379,0,,node/7076310931,38.7612397
Medhanialem,9.0507372,0,,node/7077424942,38.7619991
Ambassador,9.0163885,0,,node/7077601626,38.7551039
Lamberet,9.0216085,0,,node/7077785205,38.8139111
Kara Condominium,9.0479009,0,,node/7077785206,38.8692642
Kara Condominium,9.0480304,0,,node/7077785209,38.8695121
Autobis Tera (2),9.031811,0,,node/7077863009,38.7325536
Tropical,8.9960545,0,,node/7077863010,38.6833448
Alem Bank,9.0003767,0,,node/7077863012,38.6779208
Tropical,8.9965876,0,,node/7077863014,38.6830207
Kidane Mihret,8.9923549,0,,node/7077863015,38.6892387
Bethel,9.004479,0,,node/7077863016,38.6941906
Mendida,9.0151128,0,,node/7077863017,38.7004836
Abinet,9.019638,0,,node/7077863018,38.7327417
Sebategna,9.0280905,0,,node/7077863019,38.7329768
Mexico,9.0088714,0,,node/7078164250,38.7440208
Haile Garment,8.9381825,0,,node/7078164251,38.7349155
Mekanisa,8.9729343,0,,node/7078164254,38.7311018
Abo Mazoria,8.9820586,0,,node/7078164255,38.7345326
Mexico,9.0088201,0,,node/7078164256,38.7437936
Autobis Tera (1),9.0330269,0,,node/7078406225,38.7323925
Zenebework,8.9876369,0,,node/7078406227,38.7090191
Ayer Tena,8.9822919,0,,node/7078406228,38.6949214
Kara Kore,8.9755975,0,,node/7078406231,38.6817556
Kara Kore,8.9763865,0,,node/7078406235,38.6823873
Ayer Tena (Gerar-Repi),8.9822452,0,,node/7078406236,38.6939258
Repi (Gerar),8.9795411,0,,node/7078406237,38.6853377
Zenebework (Crossing),8.9852814,0,,node/7078406238,38.7051886
3 Kutir Mazoriya (Total),8.992776,0,,node/7078406239,38.715946
Autobis Tera (1),9.0330007,0,,node/7078406240,38.7322299
Condominium,9.0049451,0,,node/7080251773,38.8100534
Goro School,8.993889,0,,node/7080251774,38.8268744
Anbessa Garage,9.0071789,0,,node/7080251776,38.8056204
Estifanos,9.0110366,0,,node/7080440194,38.7636615
BAMBIS,9.0104866,0,,node/7080440195,38.7690578
St. Urael Church,9.0115088,0,,node/7080440196,38.7752996
Lex Plaza,9.0147285,0,,node/7080440197,38.7823039
22 (Haya Hulet),9.0164226,0,,node/7080440198,38.7896417
Megenagna,9.0194097,0,,node/7080440200,38.8004816
Megenagna,9.019032,0,,node/7080440203,38.8005914
Lem Hotel,9.0177169,0,,node/7080440204,38.7955696
22 (Haya Hulet),9.0162149,0,,node/7080440205,38.7896635
BAMBIS,9.0102033,0,,node/7080440206,38.7694936
Mexico,9.0104304,0,,node/7080440208,38.7467585
Mexico,9.0098462,0,,node/7080527282,38.7462899
Kera,8.9863213,0,,node/7080527284,38.7487773
Mebrat,8.96688,0,,node/7080611085,38.7487535
Mexico Shebelle Hotel,9.0120423,0,,node/7080611091,38.746773
Michael,9.0412736,0,,node/7080893992,38.7322629
Autobis Tera,9.034717,0,,node/7080893993,38.732023
Pastor,9.0460782,0,,node/7080893994,38.7306587
Winget,9.0560646,0,,node/7080893995,38.713458
Chereta,9.0613645,0,,node/7080893996,38.7009781
Sansusi,9.0715888,0,,node/7080894001,38.6891732
5 Kilo (History Museum),9.0385658,0,,node/7081034796,38.7624277
Abo Mazoriya,9.0574672,0,,node/7081034797,38.7785478
Education Bureau (6 Kilo),9.0441923,0,,node/7081034799,38.7640045
Total (Dil Ber),9.0648091,0,,node/7084255331,38.732915
Piassa Arada,9.0341775,0,,node/7084255333,38.7533521
Addisu Gebeya,9.0594855,0,,node/7084255334,38.7374497
Tsion Cafe (Addisu Gebeya),9.0638908,0,,node/7084255335,38.733166
Total (Dil Ber),9.0653883,0,,node/7084255336,38.7327389
Ummar School,9.0337517,0,,node/7084722454,38.7405402
Autobis Tera (3),9.0341036,0,,node/7084722456,38.7337992
Gojam Berenda (Tefera Buillding),9.0341305,0,,node/7084722457,38.7418327
Dej. Wube (Ras Abebe School),9.0404538,0,,node/7084722458,38.7533374
Wube Bereha,9.0440672,0,,node/7084722459,38.7544994
Menen,9.0515491,0,,node/7084722460,38.7588473
Tsehay Chora (ShiroMeda),9.0584002,0,,node/7084722461,38.7598297
Sebategna (Taem Bakery),9.0274958,0,,node/7084873006,38.7332661
Mola Maru (Jos Hansen),9.0188835,0,,node/7084873007,38.7380924
Geja Sefer (Darmar),9.0167149,0,,node/7084873008,38.7382054
Kera (Green Market),8.9856954,0,,node/7084873009,38.7486804
Kera (Mexico Stop),8.9841757,0,,node/7084873010,38.7518917
MOHA (Pepsi Factory),8.9824212,0,,node/7084873011,38.7560749
Saris (Shoa Bakery),8.9547202,0,,node/7084873012,38.7635412
Kera (Saris Stop),8.9844206,0,,node/7084873013,38.7509324
Guenet Hotel (Orbis),9.002055,0,,node/7084873014,38.7469466
St. Lideta Church,9.0111972,0,,node/7084873015,38.736541
Abenet (Joshansen),9.0192478,0,,node/7084873016,38.733649
Canada Embassy,8.9951157,0,,node/7084932737,38.7373207
Mechare Meda,8.9973163,0,,node/7084932738,38.7311778
Bisrate Gebrael,8.9892732,0,,node/7084932739,38.7239615
Zenebework (Crossing),8.9850622,0,,node/7084932740,38.705264
Ayer Tena,8.9838697,0,,node/7084932741,38.6960209
Kidane Mihret (Roundabout),8.9917639,0,,node/7084932742,38.6887357
Kidane Mihret (2),8.9910254,0,,node/7084932743,38.690106
Augusta Bridge (Tor Hailoch),9.0056187,0,,node/7084932745,38.7185689
Mexico,9.0114539,0,,node/7084932747,38.7445753
Goro Roundabout,8.9839859,0,,node/7098810331,38.8285018
Kotebe Shet',8.9678887,0,,node/7098810332,38.8370059
Bole Lemi,8.9585287,0,,node/7098810333,38.8352869
Endorro 2,8.9405669,0,,node/7098810334,38.8219339
kilinto Right (Heniken),8.9007946,0,,node/7098810335,38.8152364
Koye Feche 4,8.8947925,0,,node/7098810336,38.8240221
Koye Feche 3,8.8925887,0,,node/7098810337,38.8277372
Koye Feche 2,8.896302,0,,node/7098810338,38.8313712
Goro Roundabout,8.9837967,0,,node/7098810340,38.8289328
Kotebe Shet',8.9678046,0,,node/7098810341,38.8374461
Bole Lemi,8.9573187,0,,node/7098810342,38.8354629
Endorro 2,8.9393928,0,,node/7098810343,38.8217947
Endorro 1,8.9307029,0,,node/7098810344,38.820007
kilinto (Heniken Brewery),8.9005132,0,,node/7098810345,38.8155747
Gurd-shola,9.0192718,0,,node/7098833728,38.8196082
Civil Service College,9.021924,0,,node/7098833729,38.8331381
St. Michael,9.021617,0,,node/7098833730,38.8400876
Sunshine Apartments,9.0193173,0,,node/7098833731,38.8524287
Gomista,9.0019915,0,,node/7098833732,38.8575794
Hasset Photo,8.9918735,0,,node/7098833735,38.8588022
Sunshine Apartments,9.0190988,0,,node/7098833736,38.8521013
CMC (Apartments),9.0208488,0,,node/7098833737,38.8504565
St. Michael,9.0213567,0,,node/7098833738,38.8401568
Merkato,9.0337594,0,,node/7102193971,38.7312293
Mesalemia (Area Police),9.0338552,0,,node/7102193972,38.7254909
Luwkanda,9.0332635,0,,node/7102193973,38.7086533
Comprensive,9.0338494,0,,node/7102193974,38.7049566
Gefersa,9.031909,0,,node/7102193975,38.642409
Gojo (Kela),9.0563274,0,,node/7102193976,38.6117467
Gojo (Kela),9.0560454,0,,node/7102193977,38.6120244
Gefersa (2),9.0375371,0,,node/7102193978,38.6265192
Gefersa,9.0356795,0,,node/7102193979,38.6329501
Ashewa Meda (1),9.0328635,0,,node/7102193980,38.6674596
Kersa (1),9.0286003,0,,node/7102193981,38.6760437
Feli Doro (2),9.0343761,0,,node/7102193982,38.687173
Mesalemia,9.0344498,0,,node/7102193983,38.7244946
Merkato,9.0338637,0,,node/7102269985,38.7312074
Ayer Tena,8.9821491,0,,node/7103202615,38.6977085
German Bridge,8.9647174,0,,node/7103202616,38.7316085
Mebrathile (EEPCo),8.9470109,0,,node/7103202617,38.7342372
Saris Abo,8.9444277,0,,node/7103202619,38.7692016
Saris Abo,8.944353,0,,node/7103202620,38.7666082
Kality Maseltegna,8.9336411,0,,node/7103202621,38.7645892
Hana Mariam (Bridge),8.930547,0,,node/7103202622,38.7550031
Mickael Bridge,8.9653607,0,,node/7103202623,38.72738
Ayer Tena,8.9820533,0,,node/7103202625,38.6976219
Bel Air,9.0323651,0,,node/7104888674,38.7729637
CMC (Apartments),9.0211237,0,,node/7105158906,38.8506098
Tafo Condominium 2,9.0462589,0,,node/7105158907,38.8774831
Tafo Condominium 1,9.0502639,0,,node/7105158908,38.8775457
Mebrat (Lafto),8.9593839,0,,node/7105268824,38.7490031
Dildiy Mariam,8.9587047,0,,node/7105268825,38.7497551
Lafto (Mickael),8.9537745,0,,node/7105268826,38.7504407
Lafto,8.9465504,0,,node/7105268828,38.7493803
Lafto (Primary School),8.9558865,0,,node/7105268830,38.7450783
Post Office (Ambassador),9.0184923,0,,node/7105398617,38.753418
6 Kilo (University),9.0461705,0,,node/7105398618,38.7614232
Teferi Mekonen,9.0522977,0,,node/7105398619,38.7623138
Marathon Motor (Megenagna),9.022269,0,,node/7105584907,38.7999868
Arat Kilo,9.0332665,0,,node/7105584908,38.762507
Piassa Arada,9.0341288,0,,node/7105584909,38.7532588
Arat Kilo,9.0332715,0,,node/7105584911,38.7625094
Abebe Sook,9.0289345,0,,node/7105584912,38.7888307
Abune Petros,9.0358919,0,,node/7105840324,38.7492708
Yohannes,9.0424895,0,,node/7105840325,38.745898
Arbegnoch Primary School,9.0472271,0,,node/7105840326,38.7421685
Enqulal Fabrica,9.0485317,0,,node/7105840327,38.7376837
Yohannes,9.0434044,0,,node/7105840330,38.7450108
Enqulal Fabrica,9.0481067,0,,node/7105840331,38.7373533
Sefera,8.9209077,0,,node/7107670562,38.7350358
Mebrathile (EEPCo),8.94963,0,,node/7107670563,38.7332384
Mekanisa Abo,8.9829863,0,,node/7107670564,38.7341183
Jemmo 2,8.9606298,0,,node/7107789218,38.6879228
Piassa (Downtown Cafe),9.0319297,0,,node/7107789219,38.7511477
Jemmo 2,8.9605732,0,,node/7107789220,38.6878636
Kera,8.9860956,0,,node/7108224469,38.7483037
6th (Raddison Blu),9.0166264,0,,node/7110438104,38.7675202
Kazanchis (6th),9.0171928,0,,node/7110438105,38.7701955
Aware Roundabout,9.0231177,0,,node/7110438106,38.7758778
Signal,9.0234853,0,,node/7110438107,38.7815333
Dinberwa Hospital,9.0221973,0,,node/7110438108,38.7867845
Lem Hotel,9.0212061,0,,node/7110438109,38.7940254
Lamberet (Queens),9.022362,0,,node/7110438110,38.8157252
Kotebe 01,9.0348925,0,,node/7110438111,38.8281186
Kotebe 01,9.0349074,0,,node/7110438113,38.8281855
Shola (United Bank),9.0217059,0,,node/7110438114,38.7948696
Sumeya Mosque,9.021194,0,,node/7110438115,38.792498
Signal,9.023369,0,,node/7110438116,38.7815645
Kality Gebriel,8.9104302,0,,node/7110725239,38.7640618
Addis Sefer (Overpass),8.9572931,0,,node/7110725240,38.7673729
Bole Mickael (2),8.9799499,0,,node/7110725241,38.7723221
Bole Bridge,8.9867261,0,,node/7110725242,38.7903601
MOENCO,8.9948785,0,,node/7110725243,38.7957512
Sport Academy,9.0009401,0,,node/7110725244,38.7988652
Anbessa Garage,9.0077883,0,,node/7110725245,38.8030776
IVECO,9.0158283,0,,node/7110725246,38.8026698
Anbessa Garage,9.0076034,0,,node/7110725247,38.8032793
Emperial Hotel,9.0037859,0,,node/7110725248,38.8009424
MOENCO,8.9950941,0,,node/7110725249,38.7961036
Bole (Bora Amusement),8.9910443,0,,node/7110725250,38.7946816
Bole Mickael (2),8.9795995,0,,node/7110725251,38.7721474
Addis Sefer,8.9603711,0,,node/7110725252,38.7676814
Saris Abo,8.9458024,0,,node/7110725253,38.7692055
Kality (Correctional Facility),8.9234126,0,,node/7110725254,38.7648588
Kality Meneharia,8.8959395,0,,node/7110725256,38.7718808
Arat Kilo,9.0354591,0,,node/7111821010,38.7588358
Piassa (EPPCO),9.0325113,0,,node/7111821011,38.7538404
Autobis Tera,9.0317457,0,,node/7111821013,38.7374552
Autobis Tera,9.0301828,0,,node/7111821015,38.7373348
Dinberwa Hospital (1),9.0216842,0,,node/7111821016,38.7887833
Chid Tera,9.0374493,0,,node/7112123457,38.721592
Mebrathail,9.0294949,0,,node/7112123458,38.7149359
Kolfe Keranyo,9.0173854,0,,node/7112123459,38.7177803
Keranio Bridge,9.0193846,0,,node/7112123460,38.708993
Kolfe Keranyo,9.0170237,0,,node/7112123462,38.7176821
Abysinia Coffee,9.0370321,0,,node/7112123463,38.7163686
Chid Tera,9.0376714,0,,node/7112123464,38.7208971
Old Airport (Mobil),8.9998854,0,,node/7112215078,38.7188624
Minaye (Shoa Supermarket),9.008471,0,,node/7112215079,38.7196192
Holand,9.0208524,0,,node/7112215080,38.7158287
18 Mazoria (Atena Tera),9.0361682,0,,node/7112215081,38.7141478
Atena Tera,9.0409736,0,,node/7112215082,38.7125982
Winget TVET,9.0491202,0,,node/7112215083,38.7116581
Winget,9.0555289,0,,node/7112215084,38.7124575
Winget TVET,9.0494004,0,,node/7112280389,38.7117843
kolfe (Atena Tera),9.0448145,0,,node/7112280390,38.7122352
Atena Tera,9.0414434,0,,node/7112280391,38.712721
18 Mazoria (Atena Tera),9.0362317,0,,node/7112280392,38.7143961
Meseret Edget,9.0244809,0,,node/7112280393,38.7152453
Augusta Bridge (Tor Hailoch),9.0056155,0,,node/7112280394,38.7188519
Mahiber Betoch,8.8596281,0,,node/7112648156,38.8146269
Project 12 Akababi,8.865212,0,,node/7112648157,38.8210444
G7 (Tulu Dimtu),8.8701237,0,,node/7112648158,38.8204129
Belay Ab Moters,8.871336,0,,node/7112648159,38.7965426
Gelan Condominium,8.8797285,0,,node/7112648160,38.7794514
Kality Total,8.894811,0,,node/7112648161,38.7728422
Akaki Subcity Office (Menaheria),8.8973286,0,,node/7112648162,38.770309
Kality (Correctional Facility),8.9224149,0,,node/7112648163,38.7641522
Techtra Engineering,8.9281178,0,,node/7112648164,38.7676362
Adey Abeba,8.9572677,0,,node/7112648165,38.7637599
Kality Maseltegna,8.9323914,0,,node/7112648166,38.7669427
Wehalemat,8.9298175,0,,node/7112648167,38.768315
Awash Bank (Akaki Kality),8.8837788,0,,node/7112648168,38.7768426
Gelan Condominium,8.8799589,0,,node/7112648169,38.7793211
Belay Ab Moters,8.8716847,0,,node/7112648170,38.7963837
Belay Ab Moters (Alem Bank),8.8675171,0,,node/7112648171,38.798439
TAF Oil (Tulu Dimtu),8.8705655,0,,node/7112648172,38.8091005
Addis Sefer (NFSL W09),8.9580023,0,,node/7112755336,38.7723166
Addis Sefer,8.9590585,0,,node/7112755337,38.7710152
Teklehaymanot,9.0278217,0,,node/7112755338,38.7439418
Autobis Tera,9.0314996,0,,node/7112755340,38.7376384
Autobis Tera,9.0308454,0,,node/7112755342,38.7381207
Meteorology,9.0194238,0,,node/7112755343,38.7468282
Sengatera,9.0148435,0,,node/7112755344,38.7468427
Addis Sefer,8.9587021,0,,node/7112755345,38.7706049
Girum Hospital,9.0462468,0,,node/7113004009,38.7199737
Ras Hailu (Medhanialem),9.0509733,0,,node/7113004010,38.7211613
Awolia,9.0572551,0,,node/7113004011,38.7114101
Bercheko Fabrica (Asko),9.0640587,0,,node/7113004012,38.6983516
Gulele,9.0598807,0,,node/7113004013,38.70588
Ras Hailu (Medhanialem),9.0507813,0,,node/7113004014,38.7210939
Woreda 7 TVET,9.040909,0,,node/7113004015,38.7212829
Chid Tera,9.0380466,0,,node/7113004016,38.7213725
Autobis Tera,9.0312199,0,,node/7113004018,38.7365754
Michael (2),9.0426217,0,,node/7113004020,38.73268
Pawlos Hospital (Saba Mosque),9.0485205,0,,node/7113004021,38.7261371
Anbessa Garage (Shegole),9.0643796,0,,node/7113004022,38.7205811
Shegole (Mender 7),9.0641379,0,,node/7113004024,38.7266132
Shegole (Mender 7),9.0641466,0,,node/7113004026,38.726699
Hassen & Hussein Mosque (Shegole),9.0589167,0,,node/7113004027,38.7189551
Shegole Bank,9.0548351,0,,node/7113004028,38.7198445
Michael,9.0409541,0,,node/7113004029,38.7321449
Eyesus,9.0652655,0,,node/7113158623,38.7712666
Wello Sefer,8.9931107,0,,node/7122983960,38.7741153
Kassech Kitfo,8.9891423,0,,node/7122983961,38.7720567
Ambasel,8.9855755,0,,node/7122983962,38.7679985
WAGGA (Singer Liquior Store),8.9840055,0,,node/7122983963,38.7662234
Wengalawit,8.9814923,0,,node/7122983964,38.7635127
Wengalawit,8.9817105,0,,node/7122983968,38.7636059
MEDCO,8.9857381,0,,node/7122983969,38.7680101
Tebaber Berta,8.98977,0,,node/7122983970,38.7723942
Wello Sefer,8.9930626,0,,node/7122983972,38.7739711
Beshale Area,9.0113972,0,,node/7123180286,38.8356151
Megenagna,9.0185063,0,,node/7123180287,38.802106
Jacros,9.0111777,0,,node/7123180289,38.821148
Safari,9.0100121,0,,node/7123180290,38.8526604
Safari (Summit),9.0116739,0,,node/7123180291,38.8657082
Safari (Summit),9.0115148,0,,node/7123180293,38.8657494
Safari,9.0099646,0,,node/7123180295,38.8513684
Beshale Area,9.011279,0,,node/7123180296,38.8356503
Gurd Shola,9.0189315,0,,node/7123180297,38.8201425
Megenagna,9.0194519,0,,node/7123180298,38.803506
Meskel Flower,8.9882804,0,,node/7123265052,38.7650036
Loza (Adot),8.9911645,0,,node/7123265053,38.7659652
Nazra Hotel,8.9934001,0,,node/7123265054,38.7663984
Yetam Hotel,8.9959487,0,,node/7123265055,38.7666123
Kebele Kibeb,8.9980982,0,,node/7123265056,38.7667571
Mulu Shewa (Gazebo),8.9999844,0,,node/7123265061,38.7669271
Kebele Kibeb,8.9979306,0,,node/7123265062,38.7668423
Yetam Hotel,8.9959132,0,,node/7123265063,38.7667132
Nazra Hotel,8.9937071,0,,node/7123265064,38.7665439
Loza (Adot),8.9910552,0,,node/7123265065,38.7660467
Meskel Flower,8.9885268,0,,node/7123265066,38.7652457
Total 3 Kuter Mazoria,8.9921561,0,,node/7182111861,38.7180191
Kera,8.9865792,0,,node/7182111862,38.7468023
4 Kilo Minilik School,9.0351361,0,,node/7214490240,38.7629695
Kality Menaheriya,8.8967488,0,,node/7214490241,38.7708485
3 Kutir (TZNA Area),8.9943894,0,,node/10672961242,38.717673
Lideta High Court,9.0117316,0,,node/10672961244,38.7335924
Ayer Tena,8.9839135,0,,node/10750378219,38.7024743
Sar Bet,8.9925223,0,,node/10755917239,38.7394551
Sar Bet,8.9924619,0,,node/10755917241,38.7392871
Kera,8.9859671,0,,node/10755917242,38.7469304
Kera,8.9900132,0,,node/10755917243,38.7418629
Sar Bet,8.995096,0,,node/10755917244,38.7376124
karl Square,8.9973975,0,,node/10755917245,38.7309965
karl Square,8.9970773,0,,node/10755917246,38.7302642
Bisrate Gebrael,8.9927368,0,,node/10755917247,38.7268512
Bisrate Gebrael,8.9914228,0,,node/10755917248,38.7255644
Bisrate Gebrael,8.9888937,0,,node/10755917249,38.7226976
Total 3 Kuter Mazoria,8.9922875,0,,node/10755917250,38.7175917
kality Meneharia,8.8967652,0,,node/10766121857,38.7708737
kality Maseltegna,8.9319554,0,,node/10766121859,38.7669453
Kadisco Roundabout,8.9632423,0,,node/10766121860,38.7668102
Bole Mickael,8.9816305,0,,node/10766121861,38.7761571
Bole Printing Press,8.9966149,0,,node/10766121862,38.7721247
Flamingo,9.0100526,0,,node/10766121863,38.7634141
St. Estifanos,9.0125659,0,,node/10766121864,38.7626278
4 Kilo (Menlik),9.035146,0,,node/10766121865,38.7629874
4 Kilo (Menlik),9.0352952,0,,node/10766121866,38.7631121
Place Parking (Gibi Gebriel),9.0214342,0,,node/10766121867,38.7641345
Flamingo,9.01014,0,,node/10766121868,38.7636218
Wollo Sefer,8.9944147,0,,node/10766121869,38.7743234
Bole Mikael,8.9812653,0,,node/10766121871,38.7761469
Mamo (Nifas Silk),8.9737518,0,,node/10766121872,38.765481
kality Maseltegna,8.9321192,0,,node/10766121873,38.7670877
kality Meneharia,8.8957067,0,,node/10766121874,38.7721261
Olympia,9.0056744,0,,node/10766454593,38.7674734
Bole Roundabout,8.9867247,0,,node/10766454594,38.7908923
African Union,9.003043,0,,node/10768858718,38.7411322
Autobis Tera,9.0296176,0,,node/10768858719,38.7370362
Guenet Hotel (Orbis),9.0026517,0,,node/10768858720,38.7470064
German Square,8.9651822,0,,node/10768858723,38.7340469
Lamberet Menaheria,9.0239162,0,,node/10781643820,38.8198728
Arat Kilo,9.0322896,0,,node/10781643821,38.7650098
4 kilo (Children Theatre),9.0328365,0,,node/10781643822,38.7666152
Bel Air,9.0325481,0,,node/10781643823,38.7736753
Kebena,9.0344084,0,,node/10781643824,38.7768069
Kokebe Tsebah (Kebena),9.0350794,0,,node/10781643825,38.7794124
Kenya Embassy (Kebena),9.0324942,0,,node/10781643826,38.7823515
British Embassy,9.0309005,0,,node/10781643827,38.785575
Abebe Sook,9.0289673,0,,node/10781643828,38.7888226
Shola (Yeka Court),9.0251295,0,,node/10781643829,38.7947497
Shola Abyssinia Bank,9.0232585,0,,node/10781643830,38.7984062
Megenagna (Marathon Motors),9.0224046,0,,node/10781643831,38.7997354
Megenagna,9.0208971,0,,node/10781643832,38.8010368
Megenagna (Israel Embassy),9.0208722,0,,node/10781643833,38.8048559
Lamberet Menaheria,9.0240444,0,,node/10781643834,38.8199227
Kotebe,9.0297042,0,,node/10781643835,38.836729
Kotebe,9.0304539,0,,node/10781643836,38.8385612
Kotebe Teachers College,9.0348007,0,,node/10781643837,38.8490303
Kotebe Gebriel,9.0363204,0,,node/10781643838,38.8553365
Kotebe Gebriel,9.0358505,0,,node/10781643839,38.8541265
Wessen Grocery,9.032918,0,,node/10781643840,38.8443436
Kara,9.0407203,0,,node/10781643841,38.8648947
Kara,9.0411416,0,,node/10781643842,38.8653607
Abebe Sook,9.0287927,0,,node/10781844855,38.788672
British Embassy,9.0313214,0,,node/10781844856,38.7843424
5 Kilo St. Mary,9.038677,0,,node/10781844857,38.7623866
6 Kilo University,9.0462129,0,,node/10781844858,38.7614003
6 Kilo University,9.0462072,0,,node/10781844859,38.7615945
6 Kilo (Lion Zoo),9.0430896,0,,node/10781844860,38.7615002
Kenya Embassy (Kebena),9.032679,0,,node/10781844861,38.7826601
Shola (Yeka Court),9.0250431,0,,node/10781844862,38.7953847
Megenagna (Marathon Motors),9.0225097,0,,node/10781844863,38.7998471
Yeka 03,9.0381854,0,,node/10823916391,38.8773834
Sefera Atkilt Tera,8.931276,0,,node/10842065101,38.7341685
kality Maseltegna,8.9358559,0,,node/10842065103,38.7646885
Bulgaria,8.9948043,0,,node/10842065104,38.7478806
Kality Customs,8.9379429,0,,node/10842129005,38.7628904
Germen Square,8.9644696,0,,node/10842129006,38.7330813
Hana Mariam,8.93579,0,,node/10842129008,38.7441345
Gomista,8.9373819,0,,node/10842129009,38.7703639
Nigd bank,8.948706,0,,node/10842129010,38.780123
kality Maseltegna,8.9342123,0,,node/10842129011,38.7642814
Kadisco,8.9310906,0,,node/10842129012,38.7585214
Adey abeba,8.9582797,0,,node/10842129013,38.7638648
Saris abo,8.9457865,0,,node/10842129015,38.7690665
Haile Garment,8.93876,0,,node/10842129016,38.7345583
Saris,8.9546992,0,,node/10842129017,38.7635479
Bole Cargo,8.9834477,0,,node/10842129019,38.7819099
Bulgaria,8.9944221,0,,node/10842129020,38.7483448
Kore,8.9482742,0,,node/10842129021,38.7765022
Saris Abo,8.9444276,0,,node/10842129022,38.7691994
Kality Menaheria,8.8973782,0,,node/10842129023,38.7704449
Sefera Square,8.9254109,0,,node/10842129024,38.7340982
Mexico,9.009032,0,,node/10842129025,38.7463895
Kality Gebriel,8.9092945,0,,node/10842129026,38.7644698
Derartu,8.8869211,0,,node/10842129027,38.7821218
Bole Cargo,8.9836884,0,,node/10842129028,38.7818039
Kality Total,8.8948904,0,,node/10842129029,38.7729402
Noc,8.9927142,0,,node/10842129030,38.748144
Lancha,8.9901397,0,,node/10842129031,38.7590821
Haile Garment,8.9375158,0,,node/10842129032,38.7359129
Agona,8.9880834,0,,node/10842129033,38.759633
kality Maseltegna,8.9336549,0,,node/10842129034,38.7646465
Mesqelegna,8.9417644,0,,node/10842129035,38.7214531
Jemo,8.9537651,0,,node/10842129037,38.6979529
Adey abeba,8.9577771,0,,node/10842129038,38.7640443
Saris Abo,8.9448318,0,,node/10842129040,38.7661797
Mebrat hayle,8.9457862,0,,node/10842129041,38.7343973
Kadisco,8.9633984,0,,node/10842129042,38.7669226
Hana Mariam,8.9356798,0,,node/10842129043,38.7453864
Mamo (NFSL),8.9729895,0,,node/10842129045,38.7609585
Medhani alem,8.9490785,0,,node/10842129046,38.7785848
Mosque (Mesged),8.9047633,0,,node/10842129047,38.7660661
Kality Gebriel,8.9093265,0,,node/10842129048,38.7645559
Bole Roundabout,8.9859342,0,,node/10842129051,38.7888143
Wuhalimat,8.9295556,0,,node/10842129052,38.7681435
Hana Mariam,8.9361549,0,,node/10842129053,38.7445142
Bole Mickael,8.9797944,0,,node/10842129054,38.7719673
Sheger building,8.9192813,0,,node/10842129055,38.7635639
Yoseph,8.9705748,0,,node/10842129056,38.7668114
Bulgaria,8.9947898,0,,node/10842129057,38.7477478
Mebrathayil,8.9470316,0,,node/10842129058,38.7342346
Sefera Square,8.9250202,0,,node/10842129059,38.7346011
Tele Garage,9.0000494,0,,node/10842129060,38.758701
Mebrathayil,8.9469179,0,,node/10842129061,38.7339445
Haile garment,8.9376734,0,,node/10842129062,38.7335906
Meshualekia,9.0058652,0,,node/10842129063,38.758986
Adey abada,8.9571801,0,,node/10842129066,38.7640108
Menaheria (Zenebu Werk),8.9755358,0,,node/10842129069,38.706617
Adis sefer,8.9602509,0,,node/10842129070,38.767446
Kadisco,8.930883,0,,node/10842129071,38.758758
Bulgaria,8.993831,0,,node/10842129072,38.7478486
Kadisco,8.9661182,0,,node/10842129073,38.7627716
Bulbula,8.9517202,0,,node/10842129074,38.7861393
Kadisko,8.966096,0,,node/10842129075,38.7629867
Saris abo,8.9444437,0,,node/10842129076,38.7700795
Meshualekya,8.8758561,0,,node/10842129077,38.7874349
Agona,8.9871416,0,,node/10842129078,38.7597928
Gotera chaf,8.9771026,0,,node/10842129079,38.7595824
Saris,8.9528149,0,,node/10842129080,38.7633358
St. Joseph School,9.0106804,0,,node/10842129082,38.7593422
Kotari Condominium,8.9321621,0,,node/10842129083,38.7338312
Mamo,8.9732793,0,,node/10842129084,38.7652695
Saris Abo,8.9448603,0,,node/10842129085,38.7664084
Yosef,8.9705442,0,,node/10842129086,38.7665547
Kality Cheralia,8.9068482,0,,node/10842129088,38.7654586
Kality Cheralia,8.9066965,0,,node/10842129089,38.7653555
Lancha,8.9906489,0,,node/10842129090,38.7593009
Gomista,8.9375024,0,,node/10842129091,38.7701062
Haile Garment,8.9375082,0,,node/10842129092,38.7331196
Tele Garage,9.0001174,0,,node/10842129093,38.7584826
Selam Building,8.8840683,0,,node/10842129094,38.7767083
Medhani alem,8.9453322,0,,node/10842129095,38.7769101
Selam Building,8.8832033,0,,node/10842129096,38.7771627
Meshualekya,8.8758518,0,,node/10842129097,38.7872182
Saris,8.9531876,0,,node/10842129098,38.7635911
Germen adebabay,8.963723,0,,node/10842129102,38.7328242
Mamo (NFSL),8.972508,0,,node/10842129103,38.7607874
Kera,8.9875165,0,,node/10842129105,38.7486365
Agona,8.9867627,0,,node/10842129106,38.7599766
Saris abo,8.9446574,0,,node/10842129107,38.7701231
Kera,8.9860883,0,,node/10842129108,38.7483211
Gelan Condominium,8.8790966,0,,node/10842129110,38.7666013
Temenja yasi,8.9953066,0,,node/10842129111,38.7596133
Riche,9.0041803,0,,node/10842129112,38.7588933
Haile garment,8.9368154,0,,node/10842129113,38.7364242
Bole Mickael,8.9795749,0,,node/10842129114,38.7720906
Ayer Tena,8.9835322,0,,node/10842129116,38.6971287
Jemo,8.9537239,0,,node/10842129117,38.6977027
Land mark,9.0052072,0,,node/10842129118,38.7467544
Meskelegna,8.9411484,0,,node/10842129119,38.7218311
Haile Garment,8.9381771,0,,node/10842129120,38.7349153
Riche,9.0040548,0,,node/10842129121,38.7586909
Kore,8.9476648,0,,node/10842129122,38.7841911
Meshualekya,8.8770203,0,,node/10842129124,38.7866008
Bulbula,8.9518942,0,,node/10842129125,38.7863461
kality Maseltegna,8.9357353,0,,node/10842129126,38.7643342
Saris abo,8.9457601,0,,node/10842129129,38.7692278
Addis sefer,8.9603252,0,,node/10842129131,38.7676873
Hana mariam,8.9352291,0,,node/10842129132,38.744852
Kera,8.9866879,0,,node/10842129133,38.7484325
Gotera chaf,8.9757898,0,,node/10842129134,38.7601404
Akaki Subcity Office (Menaheria),8.8972852,0,,node/10842129135,38.770318
Condominium,8.9411922,0,,node/10842129136,38.7717099
Gelan Condominium,8.8789992,0,,node/10842129137,38.7666701
Wuhalimat,8.9295931,0,,node/10842129139,38.7683276
Mexico,9.0098761,0,,node/10842129140,38.7461882
Grand Anwar Mosque,9.0312472,0,,node/10845731573,38.7413343
Kebele 11,9.0247282,0,,node/10845731574,38.7457773
Guenet hotel,9.0028738,0,,node/10845731575,38.7468651
Lancia,8.9923344,0,,node/10845731576,38.7589891
Pepsi,8.9825134,0,,node/10845731577,38.755826
Lancia,8.9919399,0,,node/10845731578,38.7591215
Tekle Haimanot,9.0279893,0,,node/10845731579,38.7438378
Saris Abo,8.9441872,0,,node/10845731580,38.7666459
Legehar,9.0120319,0,,node/10845731581,38.7544517
Kera,8.9841589,0,,node/10845731582,38.7522272
Kality Customs,8.9380577,0,,node/10845731583,38.7631799
Gojam Berenda,9.0342603,0,,node/10845731584,38.7378007
Gojam Berenda,9.0343553,0,,node/10845731585,38.7381021
Derartu,8.8869148,0,,node/10845731586,38.7818893
Pepsi,8.9824223,0,,node/10845731587,38.7557408
Global Hotel,8.9943898,0,,node/10845731588,38.7596457
Sheger Building,8.9208636,0,,node/10845731589,38.7637542
Autobus Tera,9.0343246,0,,node/10845731590,38.734431
Guenet hotel,9.0027786,0,,node/10845731591,38.7469738
Tekle Haimanot,9.0279685,0,,node/10845731592,38.7439714
Beg Tera,8.9970419,0,,node/10845731593,38.7476261
Global Hotel,8.9943499,0,,node/10845731594,38.7598651
Kality Correctional,8.9223845,0,,node/10845731595,38.7641252
Cheralia Factory,8.9029367,0,,node/10845731596,38.7667306
Kebele 11,9.0246149,0,,node/10845731597,38.7457421
Grand Anwar Mosque,9.0310422,0,,node/10845731598,38.7414003
National Theatre,9.0165472,0,,node/10845731599,38.7526758
Saris,8.95346,0,,node/10845731601,38.767986
Beg Tera,8.9968163,0,,node/10845731602,38.7475303
Sengatera,9.014753,0,,node/10845731603,38.7468099
Mexico,9.0096228,0,,node/10845731604,38.746301
Bulgaria,8.9937615,0,,node/10845749005,38.7479845
kality Meneharia,8.8956285,0,,node/10845840895,38.7720203
Ayer Tena,8.9841307,0,,node/10845840896,38.6966586
Germen adebabay,8.9637758,0,,node/10845840897,38.7330269
Kality Total,8.8948231,0,,node/10846106471,38.7728316
Bole Bridge,8.9869946,0,,node/10881147490,38.7912092
Bole Bridge,8.9867302,0,,node/10881147492,38.7903563
Autobus Tera,9.0341009,0,,node/10883106542,38.7338003
Bajaj Tera,8.907041,0,,node/10886135782,38.7415025
Chera,8.904156,0,,node/10886135783,38.7479978
Gelan Condominium,8.8772921,0,,node/10886135784,38.7622377
Total,8.8549158,0,,node/10886135785,38.7845626
Tulu Dimtu,8.8737817,0,,node/10886135787,38.8197795
Tulu Dimtu,8.8738791,0,,node/10886135789,38.8202354
G7,8.8709574,0,,node/10886135790,38.820802
Total,8.8541896,0,,node/10886135791,38.7847209
Gelan Condominium,8.8758233,0,,node/10886135793,38.7630121
Bole Bridge,8.9906055,0,,node/10886281950,38.7928534
Bole Medhanyalem,8.9955183,0,,node/10886281951,38.7887705
Edna Mall Squar,8.9973425,0,,node/10886281952,38.7870108
Adey Ababa Stadium,9.0043569,0,,node/10886281953,38.7892817
22 Mazoria,9.0150262,0,,node/10886281954,38.7872566
22 Mazoria,9.0150056,0,,node/10886281956,38.787438
Freedom,9.0082739,0,,node/10886281958,38.7887083
Werku Building,9.0069454,0,,node/10886281997,38.7890587
Adey Ababa Stadium,9.0042976,0,,node/10886281998,38.7893444
Edna Mall Squar,8.9977034,0,,node/10886281999,38.7869491
Bole Medhanyalem,8.995948,0,,node/10886282000,38.7885714
Bole Bridge,8.9906936,0,,node/10886282001,38.7929596
22 Mazoria,9.0161537,0,,node/10886427067,38.7881236
Lem Hotel,9.017758,0,,node/10886427068,38.7950715
Megenagna,9.0198841,0,,node/10886427069,38.8019786
Gurd Shola,9.0191878,0,,node/10886427070,38.8200261
Civil Servis College,9.0218654,0,,node/10886427071,38.8345374
Yetebaberut,9.0209806,0,,node/10886427072,38.8536095
Ayat,9.0214852,0,,node/10886427073,38.8750186
Civil Servis College,9.0215577,0,,node/10886427074,38.8350083
Ayat,9.0211711,0,,node/10886427075,38.8737977
Meshageria,9.0204163,0,,node/10886427076,38.8598848
Yetebaberut,9.020619,0,,node/10886427077,38.8535182
Bole Bora Amusement,8.9907378,0,,node/10886883544,38.7941243
Megenagna,9.0185543,0,,node/10886883546,38.8016982
Anbessa Garage,9.0078296,0,,node/10886883547,38.8034449
Emperial Hotel,9.0037737,0,,node/10886883548,38.8009392
Hayat Hospital,8.9950343,0,,node/10886883549,38.7961015
Bole Bora Amusement,8.9916604,0,,node/10886883550,38.7949793
Sun shine,9.0199832,0,,node/10886991025,38.852562
Megenagna,9.0200202,0,,node/10886991026,38.8042842
Meshualekia,9.021578,0,,node/10886991027,38.841553
Safari,9.0110042,0,,node/10886991028,38.8522797
Summit,9.004015,0,,node/10886991029,38.8519977
Summit,9.004282,0,,node/10886991031,38.8517386
Safari,9.010941,0,,node/10886991032,38.8519018
Sun shine,9.0199154,0,,node/10886991033,38.8520834
Meshualekia,9.021324,0,,node/10886991034,38.8415391
Michael,9.021353,0,,node/10886991035,38.8392942
Gurd Shola,9.0187135,0,,node/10886991036,38.8211275
Hayat Hospital,8.9948468,0,,node/10887120325,38.7956759
Sport Accadamy,9.0001969,0,,node/10887120326,38.798384
Emperial Hotel,9.0027661,0,,node/10887120327,38.8000262
Mulugeta Building,9.0187177,0,,node/10887120328,38.8016319
93 Mazoria,8.9603848,0,,node/10890083966,38.7855121
Kaldisco,8.9623057,0,,node/10890083967,38.7863684
Key Afer,8.9642046,0,,node/10890083968,38.7872114
Bole Bridge,8.9901774,0,,node/10890083969,38.7938035
Key Afer,8.9642211,0,,node/10890290096,38.7873203
93 Mazoria,8.9604784,0,,node/10890290097,38.785703
Kebele,8.9581348,0,,node/10890290098,38.7875752
Anbessa Garage,9.0080412,0,,node/10893030388,38.8031745
Jacros,9.0035488,0,,node/10893030389,38.8169267
Alem Ayew Building,8.9993201,0,,node/10893030390,38.8210973
Goro,8.9923039,0,,node/10893030392,38.8283586
Goro,8.9917123,0,,node/10893030394,38.8287738
Goro School,8.9939213,0,,node/10893030395,38.8266397
Alem Ayew Building,8.9992455,0,,node/10893030396,38.8210064
Jacros,9.0035377,0,,node/10893030397,38.8166485
Sport Accadamy,8.9999982,0,,node/10893030398,38.7986195
Bole Bridge,8.9911487,0,,node/10893030400,38.7947324
Figa,9.0122741,0,,node/10893316186,38.8336594
Mesgid,9.0110639,0,,node/10893316189,38.8366122
Figa,9.0121764,0,,node/10893316190,38.8335762
Bole Mickael,8.984658,0,,node/10898980600,38.7731313
Ambasader,9.0162838,0,,node/10898980601,38.7551282
Dembel,9.0069448,0,,node/10898980602,38.7662663
Stadium,9.0123922,0,,node/10898980603,38.7586647
Metrology,9.0192676,0,,node/10898980604,38.7466456
Tikur Anbesa,9.0217285,0,,node/10898986005,38.7476072
Tikur Anbesa,9.0207753,0,,node/10898986007,38.7476005
Metrology,9.0188878,0,,node/10898986008,38.7467207
Ambasader,9.0164136,0,,node/10898986009,38.7553118
Stadium,9.011485,0,,node/10898986010,38.760062
Dembel,9.0038396,0,,node/10898986011,38.7686303
Bole Printing Press,8.9979213,0,,node/10898986012,38.7717243
Bole Mickael,8.9849144,0,,node/10898986014,38.7734946
Cinema Ras,9.0318094,0,,node/10899009892,38.7413697
Cinema Ras,9.0317766,0,,node/10899009893,38.7414723
Rwanda,8.992509,0,,node/10899150564,38.7781683
Shewa Dabo,9.0017627,0,,node/10899150565,38.7693116
St. Estifanos Church,9.0120704,0,,node/10899150566,38.7626611
Piassa Arada,9.0321752,0,,node/10899150567,38.7511048
Piassa Arada,9.0330229,0,,node/10899150568,38.7525581
Tewodros Square,9.0264157,0,,node/10899150569,38.7517894
Tikur Anbesa,9.0210948,0,,node/10899150570,38.7522625
Post Office,9.019064,0,,node/10899150571,38.7529153
Ghion Hotel,9.0138467,0,,node/10899150572,38.7576138
Bole Bridge,8.9885561,0,,node/10899278324,38.7897689
Friendship Building,8.9908062,0,,node/10899278325,38.7840796
Rwanda,8.9923825,0,,node/10899278326,38.7798445
Friendship Building,8.9908613,0,,node/10899278327,38.7844715
Bole Bridge,8.9887169,0,,node/10899278328,38.7898626
Anbessa Garage,9.0084115,0,,node/10899524535,38.8038533
Condominium - Gerji Mebrat hayle,9.0049309,0,,node/10899524536,38.8100683
Gerji Mebrat hayle,9.0036683,0,,node/10899524537,38.814209
Goro,8.9913434,0,,node/10899524538,38.8294024
kilinto Right,8.900477,0,,node/10899524539,38.815561
Tulu Dimtu,8.875391,0,,node/10899524540,38.8197599
kilinto Right,8.900461,0,,node/10899524542,38.8150743
Goro,8.9912832,0,,node/10899524543,38.8292469
Gerji Mebrat hayle,9.0035919,0,,node/10899524544,38.8134376
Condominium - Gerji Mebrat hayle,9.0050654,0,,node/10899524545,38.8095948
Anbessa Garage,9.0071868,0,,node/10899524547,38.8055809
Mesgid,9.011198,0,,node/10899590290,38.8364067
Saint Georgis,8.994461,0,,node/10899590291,38.8518486
Saint Georgis,8.994389,0,,node/10899590293,38.8515329
Mebrathile,8.9493529,0,,node/10899652823,38.7332958
Gebriel Bridge,8.9556186,0,,node/10899652824,38.7324445
Mickael Bridge,8.965384,0,,node/10899652825,38.7273491
Zenebewerk,8.9727473,0,,node/10899652826,38.7121031
Chaina Camp,8.975714,0,,node/10899652827,38.7055213
Ayer Tena,8.981635,0,,node/10899652829,38.6982059
Haile Garment,8.9385233,0,,node/10901428140,38.7348966
Sefera,8.9201595,0,,node/10901428141,38.7353205
Sefera Atkilt Tera,8.9311784,0,,node/10901428142,38.7337094
Sefera,8.9208099,0,,node/10901428143,38.734667
Mesalemia,8.8870433,0,,node/10901522017,38.7519617
Chera Medhanilem,8.9032086,0,,node/10901522018,38.7484085
Haile Garment,8.935726,0,,node/10901522020,38.7346387
Chera Medhanilem,8.9034769,0,,node/10901522021,38.7491293
Mesalemia,8.8871115,0,,node/10901522022,38.7524365
Saris,8.9530332,0,,node/10901643508,38.7629397
58 Mazoria,8.9431476,0,,node/10901643510,38.7540078
Kidane Mihret Stebel,8.9405222,0,,node/10901643511,38.7500946
Mexico,9.0084289,0,,node/10902267327,38.7447143
Mexico,9.0084377,0,,node/10902267330,38.7448728
AU (Mikael) Rounrdabout,8.9990666,0,,node/10902267332,38.7393711
AU (Mikael) Rounrdabout,8.9990162,0,,node/10902267333,38.7395668
Sar Bet,8.9923567,0,,node/10902267334,38.7381301
Sar Bet,8.9923453,0,,node/10902267335,38.7383324
Abo Mazoria,8.9822679,0,,node/10902267336,38.7342938
Abo Mazoria,8.9823292,0,,node/10902267337,38.7344209
Mekanisa,8.9729293,0,,node/10902267338,38.7311351
Mekanisa,8.9728812,0,,node/10902267339,38.7312498
Gebriel Bridge,8.9555964,0,,node/10902267340,38.732719
58 Mazoria,8.9432326,0,,node/10903393900,38.7539257
Varnelo Squer,8.9487486,0,,node/10903398373,38.7267004
Jemmo 1,8.9594798,0,,node/10903398374,38.7117668
Jemmo 1,8.9585188,0,,node/10903398375,38.712128
Jemmo Medhanialem,8.9524535,0,,node/10903398376,38.7161087
Jemmo Medhanialem,8.9525568,0,,node/10903398377,38.7162235
Kebele,8.9490672,0,,node/10903398378,38.7221583
Kebele,8.9491872,0,,node/10903398379,38.7221797
Varnelo Squer,8.9488837,0,,node/10903398380,38.7267159
Sar Bet,8.9951163,0,,node/10904734315,38.7373285
Austria Embassy,8.9936468,0,,node/10904734316,38.7276618
Total 3 Kuter Mazoria,8.9922476,0,,node/10904734318,38.7177291
Autobus Tera,9.0330017,0,,node/10905160356,38.7322404
Autobus Tera,9.033026,0,,node/10905160357,38.7323851
Sebategna,9.0282768,0,,node/10905160358,38.7329553
Sebategna,9.0283274,0,,node/10905160359,38.7331326
Abenet,9.021201,0,,node/10905160360,38.7333187
Abenet,9.0196344,0,,node/10905160361,38.7335682
Darmar,9.0158211,0,,node/10905160362,38.7346366
Darmar,9.0154497,0,,node/10905160363,38.7347971
Lideta Condominium,9.0133778,0,,node/10905160364,38.7343382
Lideta Condominium,9.0133623,0,,node/10905160365,38.7345056
Dessie Hotel,9.0094187,0,,node/10905160366,38.7337879
Dessie Hotel,9.0093029,0,,node/10905160367,38.7339331
Lideta,9.0046165,0,,node/10905160368,38.7337058
Lideta,9.0041332,0,,node/10905160369,38.7338158
AU (Mikael) Rounrdabout,9.0001611,0,,node/10905160370,38.7393722
AU (Mikael) Rounrdabout,8.9999889,0,,node/10905160371,38.7400667
Kera,8.9839514,0,,node/10905641592,38.7518897
Jemmo 1,8.9606229,0,,node/10905771998,38.7123799
Jemmo Mickael,8.9688439,0,,node/10905771999,38.7216431
Metrology,9.0192423,0,,node/10905772000,38.7468034
karl Square,8.9969985,0,,node/10905772001,38.7304143
Bisrate Gebrael,8.9883364,0,,node/10905772002,38.7227062
Jemmo Mickael,8.9687533,0,,node/10905772003,38.7218663
Jemmo 1,8.9604031,0,,node/10905772004,38.7124299
Noc,8.9493317,0,,node/10905866700,38.6701812
Alem Gena,8.9339514,0,,node/10905876026,38.6639521
Alem Gena,8.933851,0,,node/10905876027,38.6640124
Noc,8.9493415,0,,node/10905876029,38.670031
Jemmo 3 Squer,8.9538566,0,,node/10905876030,38.6965362
Jemmo 3 Squer,8.9552123,0,,node/10905876031,38.697557
Post Office,9.0220649,0,,node/10905982178,38.7520387
Germen Square,8.9652918,0,,node/10905982179,38.732839
Germen Square,8.9664306,0,,node/10905982180,38.7325545
Gofa,8.9717027,0,,node/10906020778,38.7418952
Gofa,8.9716231,0,,node/10906020779,38.7419996
Ayer Tena,8.9816221,0,,node/10906074341,38.6979766
Germen Square,8.9644965,0,,node/10906074342,38.7320917
Germen Square,8.9646595,0,,node/10906074343,38.732112
Mesked,8.9883474,0,,node/10907679395,38.6922537
Kidane Mihret,8.9913753,0,,node/10907679396,38.6892908
Tropical,8.9958978,0,,node/10907679398,38.683541
Alem Bank,9.0003808,0,,node/10907679399,38.677926
Alem Bank,9.0010321,0,,node/10907679400,38.6776565
Tropical,8.9957016,0,,node/10907679401,38.6841485
Kidane Mihret,8.9915373,0,,node/10907679402,38.689491
Mesked,8.9884696,0,,node/10907679403,38.6925125
Chaina Camp,8.9757717,0,,node/10907679404,38.7060819
Zenebewerk,8.9730472,0,,node/10907725405,38.7121867
Mickael Bridge,8.9655559,0,,node/10907725406,38.7275949
Germen Square,8.9648278,0,,node/10907781477,38.7333383
Kera,8.9844811,0,,node/10907781478,38.7500865
Kera,8.9842955,0,,node/10907781479,38.750364
Gofa Gebriel,8.9770976,0,,node/10907781480,38.7490157
Gofa Gebriel,8.9770919,0,,node/10907781481,38.7491174
Mekanisa Abo,8.9832814,0,,node/10908143594,38.7343726
Mekanisa Abo,8.9830621,0,,node/10908143595,38.7341531
Mexico,9.0088673,0,,node/10908143596,38.7440188
Mexico,9.0088181,0,,node/10908143597,38.7438
Tewodros Square,9.0263912,0,,node/10908191497,38.7516402
Mekanisa,8.9739466,0,,node/10908191498,38.7321651
Mekanisa,8.9738507,0,,node/10908191499,38.7322539
Post Office,9.0187971,0,,node/10908191500,38.7524753
Mebrathile,8.9493572,0,,node/10908661149,38.7334477
Coca Cola,9.0159317,0,,node/10909186645,38.729496
Merab Hotel,9.0294352,0,,node/10909186646,38.735361
Abenet,9.0213907,0,,node/10909186647,38.7334955
Merab Hotel,9.0293588,0,,node/10909186648,38.7353749
Kolfe Keranyo,9.016555,0,,node/10909186649,38.7180312
Holand,9.0203575,0,,node/10909186650,38.7159578
Holand,9.0204824,0,,node/10909186651,38.7162551
Kolfe Keranyo,9.017036,0,,node/10909186652,38.7176312
Kolfe Keranyo,9.0171583,0,,node/10909186653,38.7179346
Torhayloch,9.0122446,0,,node/10909186654,38.7202541
Torhayloch,9.0120497,0,,node/10909186655,38.7202419
Keranio Mewcha,9.0134653,0,,node/10909186657,38.7097752
Keranio Mewcha,9.0133225,0,,node/10909186658,38.7097861
Mewcha,9.0140592,0,,node/10909186659,38.7049946
Mewcha,9.0139288,0,,node/10909186660,38.7050058
Mendida,9.0153041,0,,node/10909186661,38.699427
Mendida,9.0151509,0,,node/10909186662,38.6995858
Betel,9.0037697,0,,node/10909186663,38.6937692
Betel,9.0036921,0,,node/10909186664,38.6937746
Alem Bank,9.0017481,0,,node/10909186665,38.6775777
Alem Bank,9.0016995,0,,node/10909186666,38.677633
Zenebewerk,8.9868549,0,,node/10911198617,38.7080844
Zenebewerk,8.9867824,0,,node/10911198618,38.7081829
Ayer Tena,8.9838764,0,,node/10911198619,38.6960194
Mexico Shebelle Hotel,9.0114518,0,,node/10911242345,38.7446969
Mexico Shebelle Hotel,9.0114526,0,,node/10911242346,38.7445773
Lideta,9.0117415,0,,node/10911242347,38.7336365
Lideta,9.0115482,0,,node/10911242348,38.7336469
Alem Bank,9.001869,0,,node/10911242349,38.6772002
Alem Bank,9.0018954,0,,node/10911242350,38.6769434
Ayer Tena,8.9834957,0,,node/10911695404,38.7007283
Betel,9.0044227,0,,node/10911717876,38.6943792
Betel,9.0043775,0,,node/10911717877,38.6941796
Ayer Tena,8.9831049,0,,node/10911725505,38.6982237
Zenebewerk,8.9879977,0,,node/10912835918,38.7080303
Zenebewerk,8.9880219,0,,node/10912835920,38.7079594
Mebrat Haile,9.0295143,0,,node/10913852032,38.714679
Mebrat Haile,9.0294826,0,,node/10913852033,38.7149385
18 Mazoria,9.0334554,0,,node/10913852034,38.7146172
18 Mazoria,9.0334598,0,,node/10913852035,38.714468
Abenet,9.0196268,0,,node/10913863174,38.7327435
Abenet,9.0194053,0,,node/10913863175,38.7327231
Coca Cola,9.0159095,0,,node/10913863176,38.7296372
Torhayloch,9.0117875,0,,node/10913863177,38.7222401
Torhayloch,9.0096837,0,,node/10913863178,38.7208808
Augusta Bridge,9.0056583,0,,node/10913863179,38.7185634
Augusta Bridge,9.0055925,0,,node/10913863180,38.7188581
Old Airport,9.0000925,0,,node/10913863181,38.7188599
Old Airport,8.9998426,0,,node/10913863182,38.7191188
3 Kutir Mazoriya (Total),8.9932525,0,,node/10913863183,38.7170227
3 Kutir Mazoriya (Total),8.9926315,0,,node/10913863184,38.7158494
Kara Kore,8.9756363,0,,node/10913974717,38.6817486
Kara Kore,8.9754096,0,,node/10913974718,38.6814462
Gerar,8.9813701,0,,node/10913974719,38.6894126
Gerar,8.9813486,0,,node/10913974720,38.6894421
Ayer Tena,8.9829716,0,,node/10913974721,38.6982009
Mexico,9.0116587,0,,node/10914160973,38.746198
Mexico,9.0102476,0,,node/10914160974,38.7438026
Zenebewerk,8.987734,0,,node/10914160976,38.708928
Zenebewerk,8.9849086,0,,node/10914160977,38.7049751
Zenebewerk Meneharia,8.9853381,0,,node/10914680945,38.7053463
Zenebewerk Meneharia,8.9852574,0,,node/10914680946,38.7056363
Atena Tera,9.0417169,0,,node/10914784456,38.71237
Atena Tera,9.0414427,0,,node/10914784457,38.7127192
Tekle Haimanot,9.028352,0,,node/10915613002,38.7426711
Tekle Haimanot,9.0281855,0,,node/10915613003,38.742622
Asko,9.0658063,0,,node/10915905485,38.6937551
Asko,9.065919,0,,node/10915905486,38.6937141
Chereta,9.0612502,0,,node/10915905487,38.7010467
Chereta,9.0612523,0,,node/10915905488,38.7011727
Gulele Fana,9.0575666,0,,node/10915905489,38.7069671
Gulele Fana,9.0576638,0,,node/10915905490,38.7070447
Awolia,9.0572628,0,,node/10915905491,38.7114229
Awolia,9.0576104,0,,node/10915905492,38.7116493
Winget,9.0555179,0,,node/10915905493,38.7124522
Winget,9.0554488,0,,node/10915905494,38.7127252
Kokebe,9.018116,0,,node/10918141989,38.6993091
Kokebe,9.0178995,0,,node/10918141990,38.6991634
Yeshi Debele,9.0188526,0,,node/10918141991,38.6969603
Yeshi Debele,9.0185642,0,,node/10918141992,38.6971815
Keranio Adebabay,9.0177704,0,,node/10918141993,38.7017975
Keranio Adebabay,9.0176675,0,,node/10918141994,38.7006389
Medhanalem,9.0178222,0,,node/10918141995,38.7049143
Medhanalem,9.0175512,0,,node/10918141996,38.7047128
Torhayloch,9.0115804,0,,node/10918245686,38.7208703
Torhayloch,9.0099639,0,,node/10918245687,38.720685
Torhayloch,9.0114229,0,,node/10918314820,38.7225031
Torhayloch,9.0128836,0,,node/10918339958,38.7206095
Legehar,9.0118511,0,,node/10922141942,38.7544283
Zebera,9.0691686,0,,node/10923884107,38.7174162
Addisu Gebeya,9.0630022,0,,node/10923884109,38.7350114
Addisu Gebeya,9.0625854,0,,node/10923884110,38.7352489
Bera Tera,9.0670589,0,,node/10923884111,38.725597
Zebera,9.0689759,0,,node/10923884112,38.7174444
Addisu Gebeya,9.0594889,0,,node/10923941250,38.7374564
Addisu Gebeya,9.059208,0,,node/10923941251,38.7379019
Semen Mazegaga,9.0528165,0,,node/10923941252,38.7431266
Semen Mazegaga,9.0528691,0,,node/10923941253,38.7432318
Shola,9.0483987,0,,node/10923941254,38.7461562
Shola,9.0484505,0,,node/10923941255,38.7462522
Semen Hotel,9.0446634,0,,node/10923941256,38.7483104
Semen Hotel,9.0446029,0,,node/10923941257,38.7485012
Yohanes,9.0425995,0,,node/10923941258,38.745274
Yohanes,9.0425158,0,,node/10923941259,38.7453414
Eritrea Hotel,9.0346843,0,,node/10923941260,38.7394065
Eritrea Hotel,9.0347991,0,,node/10923941261,38.7393526
Medhanalem,9.0552727,0,,node/10924087993,38.7517928
Medhanalem,9.0552441,0,,node/10924087994,38.7518851
Chelote,9.0520868,0,,node/10924087995,38.7497489
Chelote,9.0521299,0,,node/10924087996,38.7496604
Shola,9.0479898,0,,node/10924087997,38.746423
Shola,9.0480732,0,,node/10924087998,38.7465175
St. George Church,9.0385287,0,,node/10924088002,38.7516855
St. George Church,9.0385651,0,,node/10924088003,38.7518109
Piassa,9.0365858,0,,node/10924088004,38.7522648
Piassa,9.0341764,0,,node/10924116805,38.7533491
Kechenie,9.0650022,0,,node/10924116806,38.7492165
Kechenie,9.0652677,0,,node/10924116808,38.7497807
Shegole,9.0639755,0,,node/10924211089,38.7268465
Shegole,9.0640548,0,,node/10924211090,38.7269586
Rufael,9.0590346,0,,node/10924211093,38.7274953
Rufael,9.0590438,0,,node/10924211094,38.7274376
Tureta Deldy,9.0544658,0,,node/10924211095,38.7329754
Tureta Deldy,9.054531,0,,node/10924211096,38.7330307
Enqulal Fabrica,9.0492619,0,,node/10924211097,38.7377403
Enqulal Fabrica,9.0492678,0,,node/10924211098,38.7378298
Ras Desta,9.0444679,0,,node/10924212637,38.7440337
Ras Desta,9.0444022,0,,node/10924212638,38.7439161
Sebara Babur,9.0375917,0,,node/10924212640,38.7483682
Abune Petros,9.0358617,0,,node/10924212641,38.749271
Abune Petros,9.0359205,0,,node/10924212642,38.7494119
Yohanes,9.04258,0,,node/10924212643,38.7458165
Yohanes,9.0426863,0,,node/10924212644,38.7459326
Shola Abyssinia Bank,9.0230837,0,,node/10924342466,38.79823
British Embassy,9.0307347,0,,node/10924342467,38.7854804
Menlik Hospital,9.0385815,0,,node/10924342468,38.7730502
Menlik Hospital,9.0385052,0,,node/10924342469,38.7728666
6 Kilo,9.0437484,0,,node/10924342470,38.7618512
6 Kilo,9.0453786,0,,node/10924342471,38.7613161
Piassa,9.0352542,0,,node/10924981547,38.7527884
Kazanchis,9.0168504,0,,node/10924981836,38.7714084
Kazanchis,9.0167816,0,,node/10924981837,38.7712817
Meneharya,9.0199981,0,,node/10924981839,38.767286
6 Kilo,9.0462061,0,,node/10924981840,38.7614317
6 Kilo,9.046202,0,,node/10924981841,38.7615616
6 Kilo (Lion Zoo),9.0430636,0,,node/10925096455,38.7613028
Medhanalem,9.0509212,0,,node/10925096457,38.7621679
Shiromeda,9.0609308,0,,node/10925096458,38.7616364
Shiromeda,9.0610296,0,,node/10925096459,38.7618074
Abune Petros,9.0350989,0,,node/10925161777,38.7493321
Abune Petros,9.0353615,0,,node/10925161778,38.7492809
St. George Total,9.0385895,0,,node/10925161780,38.7526253
Raguel Church,9.0338335,0,,node/10925161781,38.7411822
Raguel Church,9.0340374,0,,node/10925161782,38.7413278
Piassa,9.0352768,0,,node/10925161783,38.7491307
Piassa,9.0350881,0,,node/10925161784,38.749266
Mexico,9.0115722,0,,node/10925195639,38.7462619
Winget,9.0572967,0,,node/10925695034,38.7130281
Winget,9.0576478,0,,node/10925695035,38.7136024
Shegole,9.0630668,0,,node/10925835130,38.7201372
Shegole,9.0630578,0,,node/10925835131,38.7201639
Medhanalem,9.051016,0,,node/10925835153,38.7226821
Medhanalem,9.0512021,0,,node/10925835154,38.7228048
Pawlos Hospital,9.047368,0,,node/10925835155,38.7275912
Pawlos Hospital,9.0474739,0,,node/10925835156,38.7277025
Pastor,9.0462435,0,,node/10925835157,38.7306013
Pastor,9.0460773,0,,node/10925835158,38.7305979
Michael,9.041653,0,,node/10925835159,38.7324674
Michael,9.0418749,0,,node/10925835160,38.732621
Autobus Tera,9.0356953,0,,node/10925835161,38.731876
Autobus Tera,9.0357033,0,,node/10925835162,38.731937
Summit Condominiums,8.9844426,0,,node/10925946103,38.8548285
Summit Condominiums,8.9909634,0,,node/10925946104,38.8525995
Meshageria,9.0206981,0,,node/10925966505,38.8598883
Derartu Adebabay,9.0212039,0,,node/10925966506,38.8751635
Derartu Adebabay,9.0215357,0,,node/10925966507,38.8751433
Gebreal,9.0403679,0,,node/10925966508,38.8773377
Gebreal,9.0402783,0,,node/10925966509,38.8778174
Aba Kiros,9.0556843,0,,node/10925966510,38.8778648
Aba Kiros,9.0561133,0,,node/10925966511,38.878549
Bole Arabsa,8.9732139,0,,node/10926028111,38.8903446
Bole Arabsa,8.9726241,0,,node/10926028112,38.8904396
Maseltegna,8.9932453,0,,node/10926028113,38.8850892
Maseltegna,8.9932023,0,,node/10926028114,38.8854551
Sun shine,9.0100814,0,,node/10926028115,38.8780839
Sun shine,9.0100956,0,,node/10926028116,38.8779385
Ayat,9.0215285,0,,node/10926028117,38.8770142
Mariam,8.9875932,0,,node/10926040103,38.8848989
Mariam,8.9875847,0,,node/10926040104,38.8852531
Ayat,9.0212341,0,,node/10926074605,38.8767405
Summit Condominiums,8.9910294,0,,node/10926094674,38.8529201
Megenagna,9.0195894,0,,node/10926094675,38.8033659
Megenagna,9.0203394,0,,node/10926817920,38.8038784
Tafo Square,9.057063,0,,node/10926817921,38.8779123
Tafo Square,9.0566681,0,,node/10926817922,38.8780073
Sun shine,9.0021737,0,,node/10926849848,38.8763861
Summit Chafe,9.0011674,0,,node/10926849849,38.8537813
Summit Chafe,9.0015569,0,,node/10926849850,38.8537842
Goro,8.9918731,0,,node/10926849851,38.8299574
Goro,8.9917492,0,,node/10926849852,38.8303339
Se'alite Mihret,9.0194791,0,,node/10926896755,38.8256621
Se'alite Mihret,9.0198404,0,,node/10926896756,38.8254269
Ayat Chefe Condominium,9.0109362,0,,node/10926896757,38.8944977
Ayat Chefe Condominium,9.0113892,0,,node/10926896758,38.8946434
Ayat,9.0207778,0,,node/10928177661,38.8758009
Summit Condominiums,8.9846036,0,,node/10928876312,38.854445
Summit Condominiums,8.9844416,0,,node/10928876313,38.8548242
Tewodros Square,9.0273248,0,,node/10929299420,38.751565
Tewodros Square,9.0273553,0,,node/10929299421,38.7517149
Tikur Anbesa,9.0209798,0,,node/10929299422,38.7480915
Mexico,9.0105347,0,,node/10929337801,38.7449001
Stadium,9.0119557,0,,node/10929337802,38.7559408
Stadium,9.0121328,0,,node/10929337803,38.7559437
Megenagna,9.0195364,0,,node/10929412718,38.8009614
Megenagna,9.0190569,0,,node/10929412719,38.8005907
22 Mazoria,9.0155693,0,,node/10929412721,38.787267
Lem Hotel,9.0211986,0,,node/10929694820,38.7940688
Lem Hotel,9.0210828,0,,node/10929694821,38.7939939
Signal,9.0235014,0,,node/10929694822,38.7815067
Signal,9.0233755,0,,node/10929694823,38.781471
Abuare Gebeya,9.0280712,0,,node/10929694824,38.7718347
Abuare Gebeya,9.0279894,0,,node/10929694825,38.7718123
Tewodros Square,9.0270034,0,,node/10929694826,38.7520638
Tewodros Square,9.0268625,0,,node/10929694827,38.7520149
Tekle Haimanot,9.0285216,0,,node/10929694828,38.744541
Tekle Haimanot,9.0284531,0,,node/10929694829,38.74454
Megenagna,9.020064,0,,node/10929694830,38.8009431
Megenagna,9.0200336,0,,node/10929694831,38.8005994
Torhayloch,9.0127448,0,,node/10929752934,38.7209032
Megenagna,9.0225048,0,,node/10931788261,38.7998465
Megenagna,9.021325,0,,node/10931788262,38.8010821
Kotebe,9.0303308,0,,node/10931809323,38.8385778
Se'alite Mihret,9.0284671,0,,node/10931809324,38.8331547
Se'alite Mihret,9.0283689,0,,node/10931809325,38.833187
Lamberet,9.0216042,0,,node/10931809326,38.8139293
Lamberet,9.0214909,0,,node/10931809327,38.813953
Kara,9.0404534,0,,node/10931809328,38.8642169
Kara,9.0404001,0,,node/10931809329,38.864319
Megenagna,9.0216983,0,,node/10931809330,38.8015712
Megenagna,9.0224128,0,,node/10931850027,38.799743
Kokebe Tsebah (Kebena),9.0344299,0,,node/10931850028,38.7799581
4 Kilo,9.036142,0,,node/10931884718,38.7628341
Ferensay,9.0571169,0,,node/10931884719,38.7769686
Ferensay,9.0570142,0,,node/10931884720,38.7769596
Mezan,9.0535366,0,,node/10931884721,38.7722195
Mezan,9.0535794,0,,node/10931884722,38.7721316
Jan Meda,9.0470261,0,,node/10931884723,38.7690665
Jan Meda,9.0471196,0,,node/10931884724,38.7690208
Megenagna,9.0180915,0,,node/10931937848,38.8021444
Kadisco,8.9633989,0,,node/10931937849,38.766754
Kebena,9.0347501,0,,node/10931995346,38.776629
6 Kilo,9.0436018,0,,node/10932040828,38.7618304
St. George Total,9.0386325,0,,node/10932040829,38.7526555
St. George Total,9.038614,0,,node/10932040830,38.7527659
Lem Hotel,9.017586,0,,node/10932115661,38.7950974
Lamberet,9.0239221,0,,node/10932115662,38.8198719
Mexico,9.0107294,0,,node/10932115666,38.7471433
Mexico,9.0104411,0,,node/10932115667,38.7467607
Shola Gebeya,9.0249902,0,,node/10933668851,38.796095
Shola Gebeya,9.0253078,0,,node/10933668852,38.7963986
Beg Tera,9.0290044,0,,node/10933668868,38.8021516
Beg Tera,9.0289126,0,,node/10933668869,38.802143
Zebera,9.0315916,0,,node/10933668870,38.8093843
Zebera,9.0314928,0,,node/10933668871,38.8094344
Kidane Mihret,9.0355162,0,,node/10933668873,38.818742
Kidane Mihret,9.0355971,0,,node/10933668874,38.8186176
St. Urael Church,9.0113969,0,,node/10933970678,38.7750759
St. Urael Church,9.0110384,0,,node/10933970679,38.7752362
Atlas,9.004269,0,,node/10934121405,38.7797684
Atlas,9.0041884,0,,node/10934121406,38.779678
St. Urael Church,9.0103387,0,,node/10934121407,38.7748368
St. Urael Church,9.0104642,0,,node/10934121408,38.7749361
Kera,8.9843274,0,,node/10934142102,38.7518505
Kera,8.9840695,0,,node/10934142103,38.7515846
4 Kilo,9.0324426,0,,node/10934274056,38.7632997
St. Estifanos,9.012454,0,,node/10934274058,38.762845
Buna Ena Shay,9.0109591,0,,node/10934274059,38.7482685
Buna Ena Shay,9.0106827,0,,node/10934274060,38.748215
4 Kilo,9.032283,0,,node/10936313832,38.7645933
4 Kilo,9.0323383,0,,node/10936313833,38.7648081
Sebategna,9.0289759,0,,node/10936490562,38.7321818
Sebategna,9.028913,0,,node/10936490563,38.7322093
Amanuel Total,9.0258457,0,,node/10936490564,38.7211312
Amanuel Total,9.0258301,0,,node/10936490565,38.721144
Winget,9.0576027,0,,node/10936621813,38.7131944
Enqulal Fabrica,9.0486146,0,,node/10936724096,38.7375414
Enqulal Fabrica,9.0485559,0,,node/10936724097,38.7377157
karl Square,8.9975486,0,,node/10937101933,38.731079
6 Kilo,9.0441444,0,,node/10937167108,38.7611528
6 Kilo,9.0441155,0,,node/10937167109,38.7613175
Kera,8.9877236,0,,node/10937209934,38.7484685
Kechenie,9.0652788,0,,node/10937271651,38.7497785
Mesalemia,9.033877,0,,node/10961301939,38.7252968
Mesalemia,9.0339779,0,,node/10961301940,38.7255313
Merkato,9.0338527,0,,node/10961301941,38.7312096
Merkato,9.0337645,0,,node/10961301942,38.7312282
Tekle Haimanot,9.028926,0,,node/10961408041,38.7433286
Abuare Roundabout,9.0264526,0,,node/10961408042,38.7757907
Abuare Roundabout,9.0265186,0,,node/10961408043,38.7759091
Keranio Adebabay,9.0178983,0,,node/10961408397,38.7007101
Mendida,9.014972,0,,node/10961408398,38.7004401
Mendida,9.0151204,0,,node/10961408399,38.7004576
Bole Medhanyalem,8.9983425,0,,node/10963292174,38.7860616
Bole Medhanyalem,8.9984526,0,,node/10963292175,38.7862416
Weybla Mariam,9.0231558,0,,node/10963817572,38.688451
Weybla Mariam,9.0233344,0,,node/10963817573,38.6882249
22 Mazoria,9.0159879,0,,node/10963932669,38.7889432
Bisrate Gebrael,8.9884101,0,,node/10964879159,38.7226406
Luwkanda,9.0333084,0,,node/10970584167,38.7086432
Luwkanda,9.0332835,0,,node/10970584168,38.7086485
18 Mazoria,9.0335266,0,,node/10970584169,38.7126753
18 Mazoria,9.0335023,0,,node/10970584170,38.7126794
Abysinia Coffee,9.0372905,0,,node/10970584171,38.7164132
Abysinia Coffee,9.037294,0,,node/10970584172,38.7164416
18 Mazoria,9.0337305,0,,node/10970748190,38.7149465
4 Menta Adebabay,9.0515413,0,,node/10970748192,38.7087797
4 Menta Adebabay,9.0514981,0,,node/10970748193,38.7088057
Tero Mosque,9.0503697,0,,node/10970748194,38.7058937
Tero Mosque,9.0503743,0,,node/10970748195,38.7058901
Sebategna,9.0294218,0,,node/10970823802,38.7327781
Sebategna,9.0294686,0,,node/10970823803,38.732906
Piassa Arada,9.0350955,0,,node/10970829160,38.7492677
Piassa Arada,9.033556,0,,node/10970912911,38.7535518
Rufael,9.0542225,0,,node/10970912912,38.6992026
Rufael,9.0542148,0,,node/10970912913,38.6992201
Selefia Mosque,8.9922493,0,,node/10973319411,38.6737826
Selefia Mosque,8.9922388,0,,node/10973319412,38.6737682
Piassa Arada,9.0343357,0,,node/10973319413,38.7498429
Piassa Arada,9.0343492,0,,node/10973319414,38.749831
Shiromeda,9.0610285,0,,node/10973319416,38.7606274
Shiromeda,9.0610076,0,,node/10973319417,38.760666
Akaki Gebeya,8.8697296,0,,node/10973446898,38.7886493
Akaki Gebeya,8.8697306,0,,node/10973446899,38.7886284
Meshualekya,8.8769656,0,,node/10973446900,38.7865309
Mebrathayil,8.9482942,0,,node/10973631794,38.734517
Mebrathayil,8.9481457,0,,node/10973631795,38.7344951
Lafto,8.9473757,0,,node/10973631797,38.7443373
Yeshi Total,8.8668288,0,,node/10973672014,38.7987757
Yeshi Total,8.866829,0,,node/10973672015,38.798782
Megenagna,9.0206661,0,,node/10973929780,38.8028464
Biretabret,9.0339313,0,,node/10973929781,38.8234705
Hanna Mariam,9.0375694,0,,node/10973929783,38.8316053
Hanna Mariam,9.037593,0,,node/10973929784,38.8316071
Kotebe Teachers College,9.0374618,0,,node/10973929786,38.8388573
Kotebe Gebriel,9.0390977,0,,node/10973929787,38.8505525
Kotebe Gebriel,9.039072,0,,node/10973929788,38.8505551
Kotebe,9.0357328,0,,node/10973960231,38.8279461
Kotebe,9.035744,0,,node/10973960232,38.8279666
Kebena,9.0343234,0,,node/10973960233,38.7769466
Yeka Abado,9.0637787,0,,node/10974036529,38.8735567
Yeka Abado,9.0638007,0,,node/10974036530,38.8734371
Taxi Tera,8.9948109,0,,node/10989247669,38.8092174
Bole Bridge,8.9888758,0,,node/10989247670,38.7944031
Summit,9.0048732,0,,node/10989247671,38.8517594
Summit,9.0050343,0,,node/10989247672,38.8520615
Bole Mickael,8.9791887,0,,node/10989306740,38.7737291
Bole Mickael,8.979439,0,,node/10989306742,38.7732491
Riventy,8.9647488,0,,node/10989306744,38.798111
Riventy,8.9647649,0,,node/10989306745,38.7981165
Lomi Meda,9.0437261,0,,node/10989322788,38.6991226
Philiphs,9.0423415,0,,node/10989322789,38.7046602
Philiphs,9.0423523,0,,node/10989322790,38.7046599
Atena Tera,9.0417345,0,,node/10989322793,38.7116329
Atena Tera,9.0417198,0,,node/10989322794,38.7116327
Atena Tera,9.0418861,0,,node/10989352901,38.7128543
Atena Tera,9.0419946,0,,node/10989352903,38.7136815
Kolfe,9.037404,0,,node/10989352904,38.7169566
Kolfe,9.0373552,0,,node/10989388405,38.7170428
Chid Tera,9.0376969,0,,node/10989388406,38.7213864
Chid Tera,9.0375624,0,,node/10989388407,38.7215618
Tourist Hotel,9.0339795,0,,node/10989495135,38.760933
Tourist Hotel,9.0331899,0,,node/10989495136,38.7627083
St. George Church,9.0365548,0,,node/10989495137,38.752267
St. George Church,9.0365649,0,,node/10989495138,38.7523885
Amanuel Church,9.0280891,0,,node/10989606497,38.723026
Amanuel Church,9.0280827,0,,node/10989606498,38.7230514
Mesalemia,9.0330957,0,,node/10989606501,38.7246409
Mesalemia,9.0330994,0,,node/10989606502,38.7246228
Coca Cola,9.0170151,0,,node/10989606503,38.729182
Coca Cola,9.0169029,0,,node/10989606504,38.7293902
Tikur Anbesa,9.0216869,0,,node/10989700748,38.7477611
Tikur Anbesa,9.0214822,0,,node/10989700750,38.7476433
Megenagna,9.0198621,0,,node/10989765272,38.8028176
Tourist Hotel,9.0331305,0,,node/10991706244,38.7619614
Ambasader,9.018399,0,,node/10991706246,38.7538719
Ambasader,9.0182782,0,,node/10991706247,38.7539744
Manen,9.0515112,0,,node/10991763449,38.7588533
Manen,9.0515112,0,,node/10991763450,38.7588598
Selam Building,8.8840593,0,,node/10992050085,38.7766907
Saris Abo,8.944348,0,,node/10992073740,38.7693473
Selam Building,8.8832126,0,,node/10992247910,38.7771744
Gelan Condominium,8.8801893,0,,node/10992247911,38.768463
Gelan Condominium,8.8801651,0,,node/10992247913,38.7684764
Breta bret,8.8738823,0,,node/10994789635,38.7887302
Akaki CBE,8.867782,0,,node/10994942333,38.7888076
Akaki CBE,8.8679415,0,,node/10994942334,38.7887141
Mexico,9.0098456,0,,node/10995013009,38.7462885
Lafto,8.9470636,0,,node/10995013010,38.7443751
Lafto (Mickael),8.9537702,0,,node/10995013013,38.7504178
Woyira Sefer,9.0051854,0,,node/10995113524,38.7070388
Woyira Sefer,9.0050595,0,,node/10995113525,38.7068721
Total 3 Kutir mazoria,8.9932233,0,,node/10996939227,38.7170312
Mebrat,8.9671943,0,,node/10997112356,38.7486669
Mebrat,8.9671522,0,,node/10997112357,38.7487468
Biharetsege,8.9621911,0,,node/10997112358,38.7515775
Biharetsege,8.9622089,0,,node/10997112359,38.7515885
Adey Abeba,8.9576758,0,,node/10997112361,38.7631284
Adey Abeba,8.9576954,0,,node/10997112362,38.7631332
Gofa Gebriel,8.9758799,0,,node/10997112364,38.7488713
Gofa Gebriel,8.9758721,0,,node/10997112365,38.7489751
Abenet,9.0196301,0,,node/10997125769,38.7332825
Weleta,8.963665,0,,node/10997242295,38.6708623
Weleta,8.9636677,0,,node/10997242296,38.6708779
Weleta Tele,8.9666342,0,,node/10997242298,38.6731812
Repi Highschool,8.9764681,0,,node/10997242299,38.6774372
Repi Highschool,8.9765185,0,,node/10997242300,38.6774017
Sara Ampol,9.0576594,0,,node/10997243557,38.8741609
Sara Ampol,9.0575648,0,,node/10997243558,38.874351
Kara Condominium,9.0480764,0,,node/10997243559,38.8693718
Kara Condominium,9.0480356,0,,node/10997243560,38.8695015
Torhayloch,9.0107982,0,,node/10997360870,38.7207531
Mexico,9.0114511,0,,node/10997382833,38.7447026
Mexico,9.0114533,0,,node/10997382834,38.7445835
Mexico,9.01285,0,,node/10997495133,38.7440492
Mexico,9.01282,0,,node/10997495134,38.74405
Darmar,9.0163639,0,,node/10997495135,38.7345884
Piassa Arada,9.0329801,0,,node/10998041498,38.7545702
Piassa Arada,9.0334582,0,,node/10998041499,38.7537202
Shola,9.025295,0,,node/10998041503,38.7949306
Shola,9.0251357,0,,node/10998041504,38.7947575
Kality Meneharia,8.8954024,0,,node/11033818190,38.7722516
Kality Maseltegna,8.9361085,0,,node/11033818192,38.7642099
AU (Mikael) Rounrdabout,8.9994656,0,,node/11033818193,38.7406449
Mexico,9.0089885,0,,node/11033818195,38.7438741
Mexico,9.0089241,0,,node/11033818196,38.7440373
Bulgaria Mazoria,8.9945922,0,,node/11033818197,38.7474194
Autobis Tera,9.0316048,0,,node/11033818199,38.7373077
Autobis Tera,9.0299591,0,,node/11033818200,38.7377146
Kera,8.9864921,0,,node/11033903482,38.7483364
Saris Abo,8.9450016,0,,node/11034015157,38.7661068
Piassa Arada,9.0331054,0,,node/11034015158,38.7522899
Piassa Arada,9.0321742,0,,node/11034015159,38.7511155
Autobis Tera,9.03055,0,,node/11034031010,38.7370369
Shero Meda,9.0626384,0,,node/11034031011,38.7612633
Tsehay Chora (ShiroMeda),9.0583756,0,,node/11034031012,38.7598757
Abune Petros,9.0351037,0,,node/11034031013,38.7493262
Autobis Tera,9.0305604,0,,node/11034031014,38.7370571
Kuskoam,9.0777204,0,,node/11034054993,38.7572407
Arat Kilo,9.0321373,0,,node/11034209866,38.7654122
Kara Kore,8.9753965,0,,node/11034280233,38.6806691
Ayer Tena,8.9825611,0,,node/11034280234,38.6960927
Kara Kore,8.9753861,0,,node/11034280236,38.6805349
Lion Zoo (PEPSI Kiosk),9.0426561,0,,node/11034427397,38.7614325
Abo Mazoriya,9.0571131,0,,node/11034427398,38.777181
Yeha,9.0608545,0,,node/11034427399,38.7835816
Gurara,9.0622785,0,,node/11034427400,38.7880233
Gurara,9.0624066,0,,node/11034427401,38.7888027
Saris,8.9535755,0,,node/11034511605,38.7634093
Saris,8.9535945,0,,node/11034511606,38.7636248
Autobis Tera,9.0296904,0,,node/11034611751,38.7371486
Megenagna,9.0221498,0,,node/11034647605,38.8004821
Menlik Hospital,9.0385859,0,,node/11035234708,38.773054
Torhailoch,9.0115667,0,,node/11035234709,38.7220211
Millenium School,9.0408403,0,,node/11035240259,38.710203
Chid Tera,9.0376857,0,,node/11035240260,38.7214866
Degu Hotel,9.0338468,0,,node/11035240261,38.7151236
Philiphs (Lomi Meda),9.0423792,0,,node/11035240263,38.7051066
Philiphs (Lomi Meda),9.0423523,0,,node/11035240264,38.7051082
Ayer Tena,8.9837379,0,,node/11035502832,38.6971291
Ayer Tena,8.9836981,0,,node/11035502833,38.7015659
Bisrate Gebrael,8.9914198,0,,node/11035532608,38.7255627
Zenebewerk Hotel,9.0191017,0,,node/11035607129,38.7682089
Estifanos,9.0107497,0,,node/11035607130,38.7636411
Lideta Condominium,9.0109263,0,,node/11035607131,38.7386025
Zenebework,8.9882771,0,,node/11035662205,38.7080773
Darmar,9.0165403,0,,node/11035734852,38.7377271
Hana Maryam,8.9270084,0,,node/11035734855,38.7418753
Bercheko Condominium,9.058672,0,,node/11035818337,38.700756
Alem Gena,8.9231915,0,,node/11035914858,38.6529741
Noc,8.9494175,0,,node/11035914859,38.6701962
Noc,8.9490541,0,,node/11035914860,38.6699835
Weleta Tele,8.9666123,0,,node/11035914861,38.6735724
Weleta,8.9635929,0,,node/11035914862,38.6708945
Weleta,8.9641803,0,,node/11035914863,38.6707668
Weleta Tele,8.9666144,0,,node/11035914864,38.6731872
Ayer Tena,8.9834038,0,,node/11035914865,38.6967597
Ayer Tena,8.9825038,0,,node/11035914869,38.6960161
Kara,9.0404548,0,,node/11036026882,38.8642175
Saris Abo,8.9444406,0,,node/11036079238,38.7693583
Werku Sefer,8.9328577,0,,node/11036079239,38.7750063
Kera,8.9846712,0,,node/11036079243,38.7499581
Kera,8.9856933,0,,node/11036079245,38.7486833
Anfo Meda,9.0221266,0,,node/11036753217,38.6744385
Tulu Dimtu Adebabay,8.8736134,0,,node/11036769860,38.819824
Saris Abo,8.9458383,0,,node/11036769861,38.7659694
Belay Ab Moters (Alem Bank),8.8675083,0,,node/11036769863,38.7984235
Mestawet Fabrica,8.9591869,0,,node/11036961231,38.7083476
