parent_station,stop_id,stop_lat,stop_name,stop_lon,location_type
,way/604046026,9.0210263001,C.M.C,38.8504558,0
,way/604046027,9.0209365501,C.M.C,38.85044875,0
,way/604046028,9.0206309001,Meri,38.86039005,0
,way/604046029,9.0205342501,Meri,38.86039745,0
,way/604046052,9.0212283001,Ayat,38.8717948,0
,way/604046053,9.0211369001,Ayat,38.87179745,0
,way/758915882,9.0213594001,St. Michael,38.8426211,0
,way/758915883,9.0214511001,St. Michael,38.8426345,0
,way/758919087,9.0208269001,Management Institute,38.8284090499,0
,way/758919088,9.0209051001,Management Institute,38.8283603999,0
,way/758919089,9.0216842501,Civil Service College,38.83479945,0
,way/758919090,9.0217686501,Civil Service College,38.83479775,0
,way/758922739,9.0104366001,Bambis,38.76879995,0
,way/758922740,9.0103406001,Bambis,38.76877485,0
,way/758922741,9.01097965,St. Urael,38.77470915,0
,way/758922742,9.0148301501,Hayahulet 2,38.7832560999,0
,way/758922743,9.0149096001,Hayahulet 2,38.7832141999,0
,way/758922744,9.0161997001,ሃያ ሁለት 1,38.7893457,0
,way/758922745,9.0162805001,ሃያ ሁለት 1,38.7893058,0
,way/758922746,9.0178779001,Lem Hotel,38.7959030499,0
,way/758922747,9.0179702501,Lem Hotel,38.7958714999,0
,way/758922751,9.0196319001,Megenagna,38.8026662,0
,way/758922752,9.0201812501,Gurd Sholla 2,38.81016615,0
,way/758922753,9.0202704501,Gurd Sholla 2,38.8101826,0
,way/758922754,9.0190550501,Gurd Sholla 1,38.8199118,0
,way/758922755,9.0191373501,Gurd Sholla 1,38.8199363,0
,way/758926923,9.0114466001,Tor Hailoch,38.7228792001,0
,way/758926924,9.0113509001,Tor Hailoch,38.7228400001,0
,way/758926925,9.0120608501,Cocacola,38.72927195,0
,way/758926926,9.0119827001,Cocacola,38.7292679,0
,way/758926927,9.0113260501,St. Lideta,38.7358812,0
,way/758926928,9.0114191001,St. Lideta,38.735902,0
,way/758926929,9.0104883001,Tegbared,38.74251165,0
,way/758926930,9.0105720501,Tegbared,38.74252605,0
,way/758926931,9.0110042001,Mexico,38.7486780499,0
,way/758926932,9.0111035001,Mexico,38.7486304499,0
,way/758926933,9.0118976001,Leghar,38.75364485,0
,way/758926934,9.0118055501,Leghar,38.7536616,0
,way/758926935,9.0119426001,Stadium,38.75765945,0
,way/758926936,9.0120396501,Stadium,38.75768125,0
,way/758926937,9.0109756501,St. Estifanos,38.7633918,0
,way/758926938,9.0110528501,St. Estifanos,38.7634133,0
,way/759354435,9.0341520001,Gojam Berenda,38.7383589,0
,way/759354436,9.0342421001,Gojam Berenda,38.73838775,0
,way/759354437,9.0345698501,Atikilt Tera,38.7469346,0
,way/759354438,9.0346634001,Atikilt Tera,38.7469217,0
,way/759359409,8.938011,Kality,38.7631070001,0
,way/759359410,8.93795435,Kality,38.7630034001,0
,way/759359411,8.94501825,Abo Junction,38.7663008501,0
,way/759359412,8.9449765,Abo Junction,38.7662190501,0
,way/759359413,8.9519971333,Saris,38.7634466333,0
,way/759359414,8.9519912333,Saris,38.7633591333,0
,way/759359415,8.9567954,Adey Abeba,38.76388145,0
,way/759359416,8.9568021,Adey Abeba,38.76379965,0
,way/759359417,8.9903485,Lancha,38.75926535,0
,way/759359418,8.9903366,Lancha,38.75916345,0
,way/759359419,8.9952452,Temenja Yazh,38.7598284334,0
,way/759359420,8.9952399,Temenja Yazh,38.7597271667,0
,way/759359421,9.0005732,Riche,38.7587088,0
,way/759359422,9.00058575,Riche,38.7586096,0
,way/759359423,9.00485825,Meshwalekya,38.7588805,0
,way/759359424,9.00486215,Meshwalekya,38.7587524,0
,way/759359425,9.0154149,Darmar,38.73475,0
,way/759359426,9.01542485,Darmar,38.73466315,0
,way/759359427,9.0212786,Abnet,38.73335125,0
,way/759359428,9.0212687,Abnet,38.73341865,0
,way/759359429,9.0283819,Sebategna,38.73298775,0
,way/759359430,9.0284011,Sebategna,38.7330763,0
,way/759359431,9.0340910501,Autobus Tera,38.7329878,0
,way/759359432,9.0340079501,Autobus Tera,38.7329908,0
,way/759365358,8.9731988,Nifas Silk 2,38.7607979501,0
,way/759365359,8.97316965,Nifas Silk 2,38.7606849501,0
,way/759365360,8.9657149,Nifas Silk 1,38.7629963,0
,way/759365361,8.96571355,Nifas Silk 1,38.7628904,0
,node/847244293,9.0165395,Beherawi Theatre,38.7525538,0
,node/847244423,9.0209237,Black Lion,38.7521415,0
,node/4832025024,9.0344007,4 Kilo,38.7632408,0
,node/4884374622,9.0223057,Lamberet Terminal (Bus),38.8158571,0
,node/5248250425,8.9929728,Sar Bet (Roundabout),38.738182,0
,node/5330678521,9.0164409,Ambassador,38.7553162,0
,node/5736089088,9.0120276,Stadium,38.7570321,0
,node/6251054285,9.0295451,Mebrathail,38.7146778,0
,node/6307600909,9.0654733,Asko,38.6928185,0
,node/6373574986,8.9976331,Bole Printing Press,38.7718334,0
,node/6728583386,9.0331479,Arada,38.7516761,0
,node/6798927886,8.9986049,Kebede Wessene Rd.,38.8053365,0
,node/6814022390,9.0094665,Mexico,38.7444332,0
,node/6967142984,8.9644773,Mebrat Condominium,38.7438796,0
,node/6967165728,8.9673396,Mebrat,38.7486643,0
,node/6967179322,8.9771232,Gofa Gebriel,38.7491221,0
,node/6967179323,8.9825519,Kera (Gofa Road),38.7498599,0
,node/6967225474,9.0277111,Tewodros Square,38.7516602,0
,node/6967234177,8.9655968,German Square,38.732897,0
,node/6967281153,8.9899905,Friendship Building,38.7859995,0
,node/6967281241,9.0319356,Piassa (Downtown Cafe),38.7512565,0
,node/6967281242,9.0330123,Piassa Arada (2),38.7526242,0
,node/6967318740,9.0418236,Gojo,38.6217166,0
,node/7022361366,9.0203188,Megenagna Terminal,38.8026673,0
,node/7022397409,8.9885373,Bole Millenium,38.7897496,0
,node/7022397410,8.9887535,Bole Millenium,38.789886,0
,node/7022397411,8.9937973,Goro School,38.8267584,0
,node/7022397413,8.9842709,Summit Condominiums,38.8569749,0
,node/7022397414,8.9842404,Summit Condominiums,38.8570885,0
,node/7022397416,8.9720161,Bole Arabsa,38.8906061,0
,node/7022397417,8.9732168,Bole Arabsa,38.8903477,0
,node/7022397418,9.0561234,Aba Kiros Roundabout,38.8785328,0
,node/7022397420,9.0689298,Yeka Abado,38.875565,0
,node/7022397421,9.0688377,Yeka Abado,38.8756232,0
,node/7037142410,9.0626023,Gurara,38.7893816,0
,node/7037142414,9.026427,Abuare Roundabout,38.7757967,0
,node/7037142415,9.026504,Abuare Roundabout,38.7759255,0
,node/7037142417,9.0224201,Marathon Motor (Megenagna),38.8000289,0
,node/7037142419,9.060739,Yeha,38.7836264,0
,node/7037142420,9.0608445,Tena Tabya,38.7839285,0
,node/7037142421,9.0598571,Biret Dildiy (Bono Wuha),38.7811505,0
,node/7037142422,9.0599927,Bret Dildy (Bono Wuha),38.7810894,0
,node/7037142423,9.0042786,Atlas,38.7797667,0
,node/7037142424,8.9983386,Bole Medhanialem,38.7860596,0
,node/7037142426,8.9984556,Bole Medhanialem,38.7862428,0
,node/7037142427,9.0098865,24,38.800549,0
,node/7037142428,9.0221273,Dinberwa Hospital,38.7866932,0
,node/7037142430,9.0345238,Kokebe Tsebah School,38.7802113,0
,node/7037142431,9.034441,Kokebe Tsebah School,38.7799476,0
,node/7037142433,9.031876,Belgium Embassy,38.7839469,0
,node/7037142434,9.0311083,British Embassy,38.784892,0
,node/7037142435,9.0309087,British Embassy,38.7855544,0
,node/7037142436,9.0287538,Abebe Sook,38.7887162,0
,node/7037142438,9.0250779,Shola Gebeya,38.7952986,0
,node/7037142439,9.0244101,Yeka Michael,38.7961373,0
,node/7037142441,9.0180934,Megenagna,38.8021491,0
,node/7037142442,9.0182711,Megenagna,38.8017521,0
,node/7037142443,8.8868864,Derartu,38.7818414,0
,node/7037142444,8.8856808,Gelan Condominium,38.7837651,0
,node/7037142445,8.8844052,08 Adarash,38.785491,0
,node/7037142446,8.8767985,Meshuwalekia Akaki,38.7865253,0
,node/7037142448,8.8738843,Akaki Beretaberet,38.7887478,0
,node/7037142450,8.870907,G7 (Tulu Dimtu),38.8207065,0
,node/7037142454,8.8552763,Tulu Dimtu Unisa,38.8042339,0
,node/7037142455,8.8556159,Tulu Dimtu,38.8041524,0
,node/7037142456,8.8597556,Akaki Korkoro,38.7961539,0
,node/7037142459,8.8688691,Tulu Dimtu (Taf Gas Station),38.8051915,0
,node/7037142460,8.8722685,Arsema,38.8136608,0
,node/7037142461,8.8722281,Selam Sefer (Tapela Gar),38.8140262,0
,node/7037142462,8.8747821,Tulu Dimtu Adebabay,38.8201689,0
,node/7037142464,8.8658608,Project 12 Akababi,38.8218482,0
,node/7037142465,8.8592154,Mahiber Betoch,38.8148895,0
,node/7037142466,8.9869933,Bole Dildiy,38.7912061,0
,node/7037142467,9.02034,Megenagna / Zefmesh,38.8000136,0
,node/7037142469,9.0213214,Megenagna,38.8010735,0
,node/7037142470,9.0217137,Megenagna,38.8015921,0
,node/7037142471,9.0215363,Abysinia Cafe Area,38.8100422,0
,node/7037142472,9.0213396,Abysinia Cafe Area,38.810853,0
,node/7037142474,9.0196778,Century Mall,38.8132781,0
,node/7037142475,9.0187352,Gurd-shola,38.8215105,0
,node/7037142476,9.0239816,Menaheria,38.8192066,0
,node/7037142477,9.0238758,Menaheria,38.8192354,0
,node/7037142479,9.003632,Gerji Mebrat Haile,38.814876,0
,node/7037142483,9.0037638,Gerji Mebrat Haile,38.8132574,0
,node/7037142484,9.0253421,Lamberet,38.8251916,0
,node/7037183485,9.0258842,Lamberet Area,38.8271787,0
,node/7037183486,9.0260507,Lamberet Area,38.8273076,0
,node/7037183487,9.0259969,Lamberet Area,38.8271189,0
,node/7037183490,8.9913503,Yerer Goro,38.8294063,0
,node/7037183491,8.9913222,Yerer Goro,38.8292171,0
,node/7037183492,9.020263,Se'alite Mihret Church,38.8265756,0
,node/7037183493,9.0203852,Management Institute,38.82686,0
,node/7037183494,9.0203048,Sealite Mihret,38.8273219,0
,node/7037183495,9.0216167,Civil Service College,38.8342032,0
,node/7037183496,9.021312,St. Michael,38.8414217,0
,node/7037183497,9.0215489,St. Micheal Church,38.8425033,0
,node/7037183498,9.0283709,Salite Mihret,38.8331954,0
,node/7037183499,9.0285264,Hillside (Ethio-China Mebrathaile),38.8333256,0
,node/7037183501,9.030459,Wessen Michael,38.838592,0
,node/7037183502,9.0375551,Hanna Mariam,38.8316144,0
,node/7037183503,9.0375969,Hanna Mariam,38.8316246,0
,node/7037183504,9.0330948,Wessen,38.8442968,0
,node/7037183505,9.033228,Wessen,38.8445812,0
,node/7037183507,9.0330982,Wessen (Mariam),38.8446898,0
,node/7037183508,9.0342084,Kotebe Teachers College,38.8466963,0
,node/7037183509,9.0357649,Yabem Hotel,38.8533863,0
,node/7037183510,9.036101,Kotebe Gebriel,38.8545188,0
,node/7037183513,9.0201901,Yetebaberut,38.8526027,0
,node/7037183515,9.0207031,Yetebaberut,38.8539074,0
,node/7037183516,9.0207092,Meri,38.8603565,0
,node/7037183518,9.0205124,Meri (Yetebaberut),38.8610727,0
,node/7037183519,9.0208331,Ayat,38.8686047,0
,node/7037183520,9.0210633,Ayat Zone 2,38.8678248,0
,node/7037183521,9.0379427,Kara (Turn),38.8606002,0
,node/7037183523,9.0401552,Medhanalem Church,38.8640163,0
,node/7037183525,9.0106828,Safari,38.852259,0
,node/7037183527,9.0043876,Summit (MOHA),38.8520658,0
,node/7037183528,8.9955228,Saint Georgis,38.8513132,0
,node/7037183529,8.9941038,Tena Tabeya,38.860685,0
,node/7037183532,8.9894728,Gate 2,38.8582866,0
,node/7037183533,8.9846055,Summit Condominiums,38.8544474,0
,node/7037183535,9.0213287,Ayat Train Station,38.8719812,0
,node/7037183536,9.0211208,CMC,38.872594,0
,node/7037183537,9.0212396,Ayat Square,38.8767684,0
,node/7037183538,9.0216916,Feres Bet,38.8862575,0
,node/7037183539,9.0170704,Police Tabia,38.8946069,0
,node/7037183540,9.0222555,Tsebel,38.891209,0
,node/7037183541,9.0219034,Bono Meskid,38.8902931,0
,node/7037183542,9.0113906,Ayat Chefe Condominium,38.8946677,0
,node/7037183543,9.0109368,Ayat Chefe Condominium,38.8944878,0
,node/7037183545,9.0023517,Nebu Mikael,38.8767662,0
,node/7037183546,8.9965746,Ayat Adebabay Hulet (2),38.8851706,0
,node/7037183547,8.9963324,Bole Arabsa (3),38.8855436,0
,node/7037183548,8.9841602,Bole Arabsa (2),38.8851362,0
,node/7037183550,8.9733148,Bole Arabsa,38.8902717,0
,node/7037183552,9.0354891,Yeka Condominium 1,38.877919,0
,node/7037183554,9.0381306,Tafo Gebrael,38.8777819,0
,node/7037183555,9.0505157,Tafo Condominium 1,38.8779667,0
,node/7037183557,9.0425957,Tafo Mebrathail,38.8773973,0
,node/7037183558,9.0427743,Tafo Mebrathail,38.877866,0
,node/7037183559,9.0465834,Tafo Condominium 2,38.8779122,0
,node/7037183562,9.0501511,Kara Condominium,38.8705589,0
,node/7037183563,9.0666282,Yeka Abado,38.8647703,0
,node/7037183565,9.0571811,Sara Ampol (Gedera),38.8737753,0
,node/7037183567,9.0580264,Sara Ampol,38.8742538,0
,node/7037183569,9.0606875,Aba Kiros,38.8812971,0
,node/7037183570,9.0630654,Makefafeya,38.8841651,0
,node/7037183571,9.0670494,Gari Tera,38.8892044,0
,node/7037183572,9.0707009,CCD,38.8938058,0
,node/7037183573,9.0718221,140,38.8952147,0
,node/7037183574,9.0818058,Legedadi Mission,38.9074861,0
,node/7037183575,9.0821737,Legedadi Mission,38.90832,0
,node/7041052894,8.8832831,Selam Building,38.7771574,0
,node/7041052895,8.8910809,Gojo Hotel,38.7768265,0
,node/7041052896,8.8958584,Kality Meneharia,38.7717989,0
,node/7041052897,8.9029458,Cheralia Factory,38.7668359,0
,node/7041052898,8.9029223,Cheralia Factory,38.7667452,0
,node/7041052900,8.9113422,Kality Gebriel,38.7638335,0
,node/7041052901,8.912466,Kality Prison,38.7633399,0
,node/7041052912,8.928137,Hana Maryam,38.7416641,0
,node/7041052914,8.9274906,Tabelew,38.6590102,0
,node/7041052915,8.9244259,Ubedi Academy,38.6548173,0
,node/7041052916,8.9230001,Alem Gena,38.6526472,0
,node/7041052917,8.9229882,Alem Gena,38.652656,0
,node/7041052918,8.9213858,Mama,38.6465912,0
,node/7041052927,8.9683942,Mekanisa (Old Revenues Office),38.73129,0
,node/7041052928,8.9656974,German Square,38.7327236,0
,node/7041052932,8.9556239,Gebriel Bridge,38.7324437,0
,node/7041052934,8.955596,Gebriel Bridge,38.7327233,0
,node/7041052935,8.9469471,Mebrathile (EEPCo),38.7339608,0
,node/7041052936,8.9790248,Mekanisa School,38.7341955,0
,node/7041052937,8.9785916,Abo,38.7339384,0
,node/7041052938,8.973373,Sheged Hotel,38.7246092,0
,node/7041052939,8.9673959,Jemo Michael,38.720836,0
,node/7041052940,8.966996,Jemo Michael,38.7209392,0
,node/7041052942,8.9614893,Jemo YBP (All Mart),38.7152564,0
,node/7041052944,8.9606358,Jemmo 1,38.7123763,0
,node/7041052945,8.9604074,Jemmo 1,38.7124284,0
,node/7041052946,8.9595125,Mestawet Fabrica,38.7084697,0
,node/7041052948,8.958513,Mestawet Fabrica,38.7059934,0
,node/7041052949,8.9564,Jemo 3,38.6992718,0
,node/7041052950,8.9556244,Jemmo 3,38.6985348,0
,node/7041052951,8.9866742,Zenebework,38.7077567,0
,node/7041052952,8.9611777,Welete Maryam,38.6713097,0
,node/7041052953,8.9657858,Mickael Bridge,38.7272059,0
,node/7041052954,8.9813447,Gerar,38.689429,0
,node/7041052955,8.9794179,Repi (Gerar),38.6851955,0
,node/7041052957,8.9773403,Gebre Kirstos,38.7220154,0
,node/7041052958,8.9884304,Bisrate Gebrael,38.7228933,0
,node/7041052959,8.9753751,Gofa Gebriel (2),38.7488548,0
,node/7041052960,8.9771139,Gofa Gebriel,38.7490217,0
,node/7041052963,8.9816131,Bole Mickael,38.7772221,0
,node/7041052965,8.9822682,MOHA (Pepsi Factory),38.7560783,0
,node/7041052969,8.9762662,Gotera (Oilibiya),38.7600125,0
,node/7041052970,8.976182,Gotera (Oilibiya),38.7598239,0
,node/7041052975,8.9697308,St. Joseph Church,38.7620577,0
,node/7041052977,8.9659447,kadisco Building,38.7627885,0
,node/7041052978,8.965927,kadisco Building,38.762999,0
,node/7041052979,8.9637596,Kadisco,38.7630788,0
,node/7041052980,8.9583017,Adey Abeba,38.7640609,0
,node/7041052982,8.9582595,Adey Abeba,38.7638459,0
,node/7041071286,8.9528662,Saris (CBE),38.7635583,0
,node/7041071287,8.9527596,Saris (CBE/Shoa Bakery),38.7633266,0
,node/7041071289,8.9450003,Abo Junction,38.7661044,0
,node/7041071290,8.9450733,Abo Junction,38.7663069,0
,node/7041071291,8.9380959,Customs (Train Station),38.763132,0
,node/7041071295,8.9323275,Kality Maseltegna,38.766627,0
,node/7041071296,8.9298173,Wehalemat,38.7681692,0
,node/7041071342,8.9950292,Bulgaria Mazoria,38.7478244,0
,node/7041071344,8.9971703,Begtera,38.7475059,0
,node/7041071347,8.9990638,AU (Mikael) Rounrdabout,38.7394459,0
,node/7041071348,8.9990569,AU (Mikael) Rounrdabout,38.7395945,0
,node/7041071350,8.9937942,Bulgaria,38.7478465,0
,node/7041071352,8.9941475,Global Hotel,38.7595772,0
,node/7041071353,8.9941836,Global Hotel,38.7598183,0
,node/7041071354,8.9953383,Beklo Bet (Global),38.7596352,0
,node/7041071355,9.000141,Tele Garage,38.7584812,0
,node/7041071356,9.0043253,Riche,38.7586986,0
,node/7041071359,9.0166957,6th (Raddison Blu),38.7669535,0
,node/7041071360,9.017718,Filweha (Hotsprings),38.7572645,0
,node/7041071362,9.0175554,Filweha (Hotsprings),38.7570579,0
,node/7041071363,9.0137609,Ghion Hotel (Enterance),38.7574492,0
,node/7041071364,9.0138328,Ghion Hotel (Enterance),38.7576145,0
,node/7041071367,9.0098008,St. Joseph School,38.7591876,0
,node/7041071370,9.0104995,St. Joseph School,38.7592761,0
,node/7041071371,9.0105316,Admas University College,38.7590434,0
,node/7041071372,9.0118612,Lalibela Hotel,38.7570112,0
,node/7041071374,9.0121294,Stadium,38.7560438,0
,node/7041071376,9.011849,Legehar,38.7545386,0
,node/7041071377,9.0117857,Legehar,38.7539285,0
,node/7041071378,9.0109604,Legehar (Old Train Station),38.7533069,0
,node/7041071380,9.0097755,Mexico,38.7461963,0
,node/7041071382,9.0031416,African Union,38.7414166,0
,node/7041071383,9.0053059,Popolare,38.7423863,0
,node/7041071384,9.0046908,Guenet Hotel,38.7466748,0
,node/7041071385,9.0032786,Guenet Hotel,38.74694,0
,node/7041071388,9.0214263,Abenet,38.7334947,0
,node/7041071389,9.0132791,Lideta Condominium,38.7345522,0
,node/7041071390,9.0157856,Darmar,38.7348248,0
,node/7041071391,9.0159169,Coca Cola,38.7294714,0
,node/7041071392,8.9939406,Austria Embassy,38.7278809,0
,node/7041071393,8.9936591,Mechare Meda,38.727499,0
,node/7041071395,8.9925902,3 Kutir Mazoriya (Total),38.7152417,0
,node/7041071397,8.995414,Minaye Building,38.7184074,0
,node/7041071399,8.9998642,Old Airport (Mobil),38.7191221,0
,node/7041071400,9.0099949,Tor Hailoch,38.7206897,0
,node/7041071401,9.0133411,Keranio Mewcha,38.7100309,0
,node/7041071402,9.0213057,Holand,38.7159484,0
,node/7041071403,9.0245409,Meseret Edget,38.714954,0
,node/7041071404,9.0278226,Teklehaymanot,38.7440603,0
,node/7041071405,9.0247481,Kebele 11,38.7458014,0
,node/7041071406,9.0262634,Tewodros Square,38.75166,0
,node/7041071407,9.0263826,Tewodros Square,38.7517909,0
,node/7041071411,9.0218352,Black Lion,38.7521859,0
,node/7041071414,9.0158768,National Theatre,38.751592,0
,node/7041071415,9.0156938,National Theatre,38.7513097,0
,node/7041071416,9.0139102,A.A. Commercial College,38.7494881,0
,node/7041071418,9.0138228,A.A. Commercial College,38.7495568,0
,node/7041071419,9.0114261,Buna Ena Shay,38.7490599,0
,node/7041071420,9.0105922,Buna Ena Shay,38.7479733,0
,node/7041071423,9.0119916,Mexico Shebelle Hotel,38.7468862,0
,node/7041071425,9.0105894,TVET College (Tegbare'd),38.7429038,0
,node/7041071429,9.0103865,Federal Police (Tegbare'd),38.7426638,0
,node/7041071430,9.0109303,Lideta (Balcha Hospital),38.738603,0
,node/7041071431,9.0111161,Lideta (Balcha Hospital),38.7385604,0
,node/7041071432,9.011233,Lideta Condominium,38.7377815,0
,node/7041071433,9.0041706,Lideta Tsebel,38.733822,0
,node/7041071434,9.0093091,Dessie Hotel,38.7338119,0
,node/7041071435,9.0108572,High Court,38.7342297,0
,node/7041071437,9.0115829,Lideta High Court,38.733431,0
,node/7041071439,9.0121559,Hintsa College,38.7293132,0
,node/7041071441,9.0119411,Coca Cafe,38.7292339,0
,node/7041071444,9.011282,Mekonenoch (Golf) Club,38.7265458,0
,node/7041071446,9.0115616,Tor Hailoch Junction,38.7220202,0
,node/7041071447,9.0119442,Torhailoch,38.7216866,0
,node/7041071448,9.0139112,Tor Hailoch,38.7206478,0
,node/7041071449,9.013939,Tor Hailoch,38.7209168,0
,node/7041071450,9.0194506,Keranio Bridge,38.7089411,0
,node/7041071451,9.0175679,Medhanialem,38.7049748,0
,node/7041071452,9.0176634,Keranio Adebabay,38.7006446,0
,node/7041071453,9.0180779,Kokebe,38.6994971,0
,node/7041071454,9.0195382,Yeshi Debele,38.6954056,0
,node/7041071455,9.0190748,Yeshi Debele,38.6957701,0
,node/7041071456,9.0231539,Mariam,38.6884518,0
,node/7041071458,9.021983,Anfo Meda,38.6742682,0
,node/7041071459,9.0110433,St. Urael Church,38.7752596,0
,node/7041071461,9.0104908,Salcost Apartments (NOC),38.766397,0
,node/7041071462,9.0118738,St. Estifanos Church,38.7626376,0
,node/7041071464,9.0199107,St. Gebriel,38.7675809,0
,node/7041071465,9.0193852,Zenebewerk Hotel,38.7680315,0
,node/7041071466,9.0206693,Meles Zenawi Foundation,38.7715231,0
,node/7041071468,9.0194316,Azmari Bet (Traditional Music Club),38.770643,0
,node/7041071469,9.0166401,Kazanchis (6th),38.7702335,0
,node/7041071471,9.0196382,Hilton Hotel (Apartments),38.7638714,0
,node/7041071473,9.0233468,Women Square,38.7772342,0
,node/7041071474,9.0234508,Women Square,38.7771738,0
,node/7041071475,9.0244322,Aware Bridge,38.7765755,0
,node/7041071479,9.0319312,Arat Kilo,38.7633615,0
,node/7041071480,9.0321438,Arat Kilo,38.7652099,0
,node/7041071481,9.032458,Bel Air,38.7728461,0
,node/7041071482,9.0324918,Addis View Hotel,38.7730493,0
,node/7041071483,9.0385857,Menelik II Hospital,38.7730556,0
,node/7041071484,9.0388201,Menlik Hospital,38.7719268,0
,node/7041071579,9.0365871,Piassa Arada,38.7522029,0
,node/7041071580,9.0363947,Piassa Arada,38.7524445,0
,node/7041071592,9.0354239,Piassa Arada,38.7523326,0
,node/7041071594,9.0352553,Habtegiorgis Bridge,38.7491242,0
,node/7041071595,9.0343899,Kurtu Building,38.7438917,0
,node/7041071596,9.0341887,Kurtu Building,38.7437548,0
,node/7041071597,9.0343321,Pharmacy,38.7434135,0
,node/7041071598,9.0343947,Gojam Berenda,38.737968,0
,node/7041071599,9.0342308,Autobis Tera (3),38.7337775,0
,node/7041071600,9.03371,Autobus Tera,38.7298446,0
,node/7041071601,9.0338533,Darsema Grosery,38.7294433,0
,node/7041071604,9.04636,Girum Hospital,38.7200106,0
,node/7041071605,9.0407262,Woreda 7 TVET,38.7212396,0
,node/7041071606,9.0366318,Sefere Salam,38.7219216,0
,node/7041071607,9.037044,Kolfe,38.7173824,0
,node/7041071608,9.0373422,Abysinia Coffee,38.7164487,0
,node/7041071609,9.0338162,Degu Hotel,38.7151531,0
,node/7041071610,9.0335338,18 Mazoria,38.7130781,0
,node/7041071612,9.0335825,18 Mazoria,38.7135105,0
,node/7041071614,9.0333303,Luwkanda,38.7093322,0
,node/7041071615,9.0340139,Kolfe Secondary School,38.704541,0
,node/7041071616,9.0327975,Realstate,38.6951186,0
,node/7041071619,9.034058,Police Tabiya,38.6888917,0
,node/7041071620,9.0342811,Feli Doro (1),38.6875252,0
,node/7041071622,9.0353789,Feli Doro,38.6853297,0
,node/7041071628,9.0389362,Ras Mekonene Bridge (Seba Dereja),38.7568178,0
,node/7041071629,9.0385989,5 Kilo (History Museum),38.7625491,0
,node/7041071630,9.0408311,5 Kilo University,38.761951,0
,node/7041071633,9.0427151,Lion Zoo (PEPSI Kiosk),38.7615693,0
,node/7041071636,9.0438891,Yekatit 12 Hospital,38.7603878,0
,node/7041071637,9.0436921,Yeatit 12 Hospital,38.7593176,0
,node/7041071638,9.0386136,Red-Cross (St. George Total),38.7527639,0
,node/7041071639,9.0386684,St. George Church (Total),38.7517494,0
,node/7041071640,9.0436522,Semen Hotel,38.7488778,0
,node/7041071641,9.0446929,Semen Hotel,38.7482928,0
,node/7041071642,9.0486023,Kelemwerk,38.7461719,0
,node/7041071643,9.0488673,Kelemwerk,38.7458026,0
,node/7041071645,9.0512494,Tibeb Ediget School,38.7443439,0
,node/7041071646,9.0523631,Semen Mazegaga,38.7433813,0
,node/7041071647,9.0537306,Semen Mazagaja,38.7424925,0
,node/7041071648,9.0541015,Shegole Bank,38.7200104,0
,node/7041071649,9.0474202,Pawlos Hospital,38.7277601,0
,node/7041071650,9.0514832,Finance,38.7221677,0
,node/7041071651,9.0513651,Medhanialem (TOTAL),38.7220512,0
,node/7041071653,9.0528369,Finance,38.7201878,0
,node/7041071654,9.0531245,Finance,38.7199027,0
,node/7041071655,9.0544244,Winget Chaf,38.7149847,0
,node/7041071657,9.0520588,4 Menta Adebabay,38.7088754,0
,node/7041071658,9.051327,Mikili Land,38.6987792,0
,node/7041071659,9.0571703,Winget Adebabay,38.7137033,0
,node/7041071660,9.0576087,Awolia,38.7116367,0
,node/7041071661,9.0577975,Gulele Fana,38.7067279,0
,node/7041071662,9.0582376,Gulele Fana,38.7065488,0
,node/7041071663,9.0593548,Berchiko,38.7034077,0
,node/7041071665,9.0665816,Gebriel (Sansusi),38.69045,0
,node/7041071718,9.057952,Bono Weha,38.7791204,0
,node/7041071719,9.053538,Mezan,38.7722233,0
,node/7041071721,9.0470252,3rd Shaleka,38.7690705,0
,node/7041071723,9.0461753,6 Kilo (University),38.7615547,0
,node/7041071725,9.0513004,Meksaye Hizunan Medhanialem,38.7622054,0
,node/7041071726,9.052326,Teferi Mekonen,38.7622236,0
,node/7041071729,9.0541533,Sebseba Maekel,38.7625698,0
,node/7041071737,9.0649811,Eyesus,38.7715088,0
,node/7041071738,9.0585516,Hamle 19,38.7680987,0
,node/7041071740,9.0692162,Selassie,38.7607205,0
,node/7041071741,9.0745256,Sanba Nekersa-Shiromeda,38.7590628,0
,node/7041071742,9.0777328,Kuskoam,38.7572536,0
,node/7041071749,9.0710894,Dil Ber,38.7374397,0
,node/7041071753,9.0638294,Anbessa Garage (Shegole),38.7204079,0
,node/7041071754,9.0691617,Kebt Beret,38.7182194,0
,node/7041071755,9.0843712,Entoto Kela,38.7230011,0
,node/7041071758,9.1051152,Weserbi Realestate,38.7095299,0
,node/7041071759,9.1095355,Classy Water,38.7147037,0
,node/7041071760,9.1100449,Medret Hotel,38.7158285,0
,node/7041071761,9.1176074,Kburea,38.7300979,0
,node/7041071762,9.1179357,Kenenisa,38.7304557,0
,node/7041071763,9.1273122,Shefunea,38.7395293,0
,node/7041071764,9.1277902,Shefine,38.7397834,0
,node/7041071772,9.1339361,Doro Erbata,38.7522344,0
,node/7041071773,9.1341343,Abo Gabriel,38.7524529,0
,node/7041071774,9.1408321,Tulu Fati,38.7549356,0
,node/7041071775,9.1449015,Ashewa,38.7538733,0
,node/7041071776,9.1560016,Tabya Hotel,38.7542489,0
,node/7047495429,8.9929589,Sar Bet (Roundabout),38.738359,0
,node/7047495432,9.0286142,United Bank (Ashewa Meda),38.6600221,0
,node/7047495433,8.9208064,Sefera,38.7346499,0
,node/7049122264,8.9473774,Lafto,38.744323,0
,node/7049122265,8.935835,Hana Mariam (2),38.7440895,0
,node/7049122266,8.9387647,Haile Garment,38.7345586,0
,node/7049921444,9.0304285,Yekiber Demena Church,38.8779866,0
,node/7049921445,9.0204726,Megenagna Terminal,38.8024339,0
,node/7049921447,9.0220882,Hill Bottom (Recreation),38.8759579,0
,node/7049921448,9.0304125,Zone 8,38.8775474,0
,node/7049921449,9.0570656,Aba Kiros (Tafo) Roundabout,38.8779122,0
,node/7050234123,9.0566049,Tafo Junction,38.8790275,0
,node/7050327664,9.020626,Megenagna Terminal,38.8021323,0
,node/7054842410,9.0476858,6 Kilo,38.7617178,0
,node/7054842414,9.0476498,6 Kilo,38.7617169,0
,node/7055060064,9.0106346,Legehar (Old Train Station),38.7532161,0
,node/7055598734,9.0359897,Kotebe Gebriel,38.8546711,0
,node/7055598736,9.0269686,Ahmed Building,38.8299268,0
,node/7055598738,9.0363488,St. Mary Church,38.7579049,0
,node/7055598739,9.0335541,Piassa Arada,38.7535483,0
,node/7055598742,9.0327818,Piassa Arada,38.7534018,0
,node/7055598743,9.0363807,St. Mary Church,38.7579442,0
,node/7055598744,9.0274541,NOC End,38.8307544,0
,node/7056754511,9.0341209,Kotebe Teachers College,38.8467717,0
,node/7056754514,9.0630764,Meskelegna (Ababdo),38.8732637,0
,node/7056754516,9.020907,Megenagna,38.8022361,0
,node/7057002158,9.0041945,Atlas,38.779674,0
,node/7057002161,9.0329242,Piassa Arada,38.7528717,0
,node/7057002162,9.0389386,Ras Mekonene Bridge (Seba Dereja),38.7568279,0
,node/7057002163,9.0226675,Gibi Gebriel Church,38.7626361,0
,node/7057187392,8.9904207,Brass Clinic (Bole),38.7929906,0
,node/7057187393,8.9903142,Brass Clinic (Bole),38.7932003,0
,node/7062689844,9.0379471,St.Gorgis,38.7519784,0
,node/7062689845,9.0358742,St. George Church (2),38.751629,0
,node/7062689848,9.0345896,Piassa,38.7549398,0
,node/7062689850,9.0325203,Arat Kilo,38.764362,0
,node/7062689851,9.0344021,4 Kilo,38.7630946,0
,node/7062689852,9.0506154,Medhanialem,38.7621098,0
,node/7062689854,9.044142,Education Bureau (6 Kilo),38.7635923,0
,node/7062689855,9.0471236,Jan Meda,38.7690204,0
,node/7062689856,9.0557922,Frensaye Kela,38.7742742,0
,node/7062689857,9.0551762,Frensaye Kela,38.7736282,0
,node/7062689858,9.0569998,Abo Mazoriya,38.7777387,0
,node/7062689859,9.0623294,Gurara,38.7881845,0
,node/7067942461,8.9730894,Mamo (NFSL TVET),38.7608987,0
,node/7067942462,8.988213,Agona Cinema,38.7595747,0
,node/7067942463,8.9882665,Agona Cinema,38.7597959,0
,node/7067942465,9.0004682,Tele Garage,38.7587377,0
,node/7067942466,9.0057314,Meshualekia,38.7589773,0
,node/7067990019,9.0145395,Zerihun Building,38.7824519,0
,node/7067990020,9.0166971,6th (Raddison Blu),38.7669539,0
,node/7070861695,9.026432,National Palace,38.7621456,0
,node/7070861696,8.9897614,SNAP Building,38.7872174,0
,node/7070861697,8.9908557,Friendship,38.7844888,0
,node/7070861698,8.9917592,Heber Restaurant,38.7822311,0
,node/7070861699,8.992295,RWANDA (Werbek House),38.7791533,0
,node/7070861700,8.9946542,Wollo Sefer,38.7740953,0
,node/7070861701,8.9924,Rwanda,38.7798477,0
,node/7070861702,8.9966227,Bole Printing Press,38.7723732,0
,node/7070861703,8.9976714,Bole Printing Press,38.7715908,0
,node/7070861704,8.9993469,Mega Printing Press,38.7708659,0
,node/7070861705,9.001132,Shewa Dabo,38.7697078,0
,node/7070861706,9.0014126,Getu Commercial Center,38.7697673,0
,node/7070861707,9.004953,Dembel City Center,38.7678519,0
,node/7070861710,9.0100482,Flamingo,38.7634195,0
,node/7070861712,9.0358386,Piassa Arada,38.7528459,0
,node/7070861713,9.0074376,Anbessa Garage,38.8054033,0
,node/7070861714,9.0221276,Ayat Roundabout,38.876525,0
,node/7070861716,9.0401288,Gebriel,38.8777949,0
,node/7074233342,9.0527134,Semen Mazegaja | ሰሜን ማዘጋጃ,38.7433527,0
,node/7074233343,9.0559007,Del Ber School,38.7411604,0
,node/7074233344,9.0592088,Adisu Gebeya,38.7379037,0
,node/7074233345,9.061605,Kelebat,38.7355505,0
,node/7074233346,9.0679367,Oilibiya (Dil Ber),38.7347909,0
,node/7074267433,9.0463006,Pastor,38.7301845,0
,node/7074267434,9.051161,Medhanialem,38.7228618,0
,node/7074267435,9.0554455,Winget,38.7138884,0
,node/7074269464,9.0576131,Kela,38.6101592,0
,node/7074269465,9.0576152,Kela,38.6101611,0
,node/7074275407,9.0452427,Semen Hotel,38.7481339,0
,node/7074294627,8.9866969,Kera,38.7484333,0
,node/7074299254,9.0653014,Asko,38.6922669,0
,node/7074324043,9.0286512,Sebategna,38.733098,0
,node/7074324044,9.0317912,Autobis Tera (2),38.7324012,0
,node/7074324045,9.0347276,Autobis Tera,38.7321005,0
,node/7074326525,8.9733512,Mekanisa,38.7315967,0
,node/7074326526,8.9822244,Abo Mazoria,38.7343058,0
,node/7074330387,8.9894962,Gate 2,38.8580841,0
,node/7074330389,8.9942098,Tena Tabeya,38.8605382,0
,node/7074330391,8.9984544,Condminium (Gate),38.8602323,0
,node/7074330392,9.0014062,Gomista,38.8573283,0
,node/7074330394,9.0040839,Summit (MOHA),38.8517162,0
,node/7074330397,9.0106601,Safari,38.8518265,0
,node/7074330400,8.999474,Alemayehu,38.820944,0
,node/7074330401,9.0005663,Alemayehu,38.8196821,0
,node/7074330403,9.0050845,Condominium,38.8095474,0
,node/7074330407,9.026612,Ethio-china,38.8287819,0
,node/7074330409,9.0403987,Kara,38.8643277,0
,node/7074332290,8.9654679,Project 15,38.8850641,0
,node/7074332294,8.9772657,Kela,38.8845811,0
,node/7074347184,9.0616842,Chereta,38.7010211,0
,node/7074353066,8.9813585,Gerar,38.6894082,0
,node/7074374410,8.9538291,Jemo 3,38.6959643,0
,node/7074374411,8.951847,Furi,38.6921288,0
,node/7074387585,9.0714186,Sansusi,38.6891023,0
,node/7074496216,9.0285405,Kersa (2),38.6722328,0
,node/7074496217,9.0326531,Ashewa Meda,38.6653802,0
,node/7074496218,9.0326414,Ashewa Meda,38.6653823,0
,node/7074496219,9.0258997,United Bank (Ashewa Meda),38.6569665,0
,node/7074496221,9.027689,St. Gebriel,38.6515848,0
,node/7074496222,9.0276843,St. Gebriel,38.6515743,0
,node/7074496225,9.0417975,Gojo,38.6216778,0
,node/7074504387,9.0010346,Alem Bank,38.6776598,0
,node/7074504388,8.9831093,Ayer Tena,38.6982193,0
,node/7074504390,9.0045877,Bethel,38.6944335,0
,node/7074504391,9.0139079,Mewcha,38.7053132,0
,node/7074504392,9.0149626,Mendida,38.7004735,0
,node/7074525370,8.9700751,Mebrat Nigist Hotel,38.7486994,0
,node/7074541084,9.0116457,Lideta Kefetega Firdbet,38.7326808,0
,node/7074561389,8.9249315,Sefera Square,38.7341804,0
,node/7074561391,8.9368661,Haile Garment,38.7363202,0
,node/7074561392,8.9493593,Mebrathile (EEPCo),38.7334502,0
,node/7074561393,8.9309368,Hana Mariam,38.7544146,0
,node/7074561394,8.9361698,Hana Mariam (2),38.7444615,0
,node/7074561395,8.95299,Meskelgna,38.7448233,0
,node/7074585943,9.0357438,Piassa Arada,38.7514315,0
,node/7074585944,9.0324015,Arat Kilo,38.7633143,0
,node/7074599697,8.9953761,Beklo Bet (Global),38.759835,0
,node/7074691520,9.0055741,Dembel City Center,38.7672511,0
,node/7074707878,9.010735,Mexico,38.7471393,0
,node/7074707880,9.0127963,ERA Office (Big Mak),38.7478601,0
,node/7074707881,9.0092034,Saint Josphe School,38.7591385,0
,node/7074707883,9.0124825,St. Estifanos Church,38.7628296,0
,node/7074819178,8.9725713,Mamo (NFSL TVET),38.7607684,0
,node/7074841187,8.9310399,Kadisco,38.7585063,0
,node/7074841188,8.9339802,Kality Maseltegna,38.7643672,0
,node/7074921333,9.0291868,Teklehaimanot,38.7442895,0
,node/7074921334,9.0266712,Berbere Tera,38.7406481,0
,node/7075101457,8.9585362,Dildiy Mariam,38.7498569,0
,node/7075101459,8.9837158,Kera (Gofa Stop),38.7497528,0
,node/7075129253,9.009717,Tor Hailoch,38.7208842,0
,node/7075129254,9.0117428,Torhayloch,38.7207996,0
,node/7075129255,9.0117788,Tor Hailoch,38.7222467,0
,node/7076294502,9.0043941,Riche,38.7588986,0
,node/7076294503,8.9645236,Mebrat Condominium,38.7438551,0
,node/7076294504,8.9638868,Kadisco,38.7633289,0
,node/7076294505,9.0089349,Flamingo,38.7646677,0
,node/7076294507,8.9984013,Condminium (Gate),38.8601035,0
,node/7076294508,9.0571285,Sara Ampol (Gedera),38.8738883,0
,node/7076294509,9.0418835,Michael (2),38.7325725,0
,node/7076294510,9.0622823,Shero Meda,38.7612538,0
,node/7076294511,9.0618175,Shero Meda,38.7613619,0
,node/7076294512,9.0716602,Dil Ber,38.7369836,0
,node/7076294515,9.0692159,Shiromeda Selassie,38.7607132,0
,node/7076294516,9.0618235,Shero Meda,38.7613887,0
,node/7076310930,9.0447597,6 Kilo (Akim Genbata),38.7612093,0
,node/7076310931,9.0626379,Shero Meda,38.7612397,0
,node/7077424942,9.0507372,Medhanialem,38.7619991,0
,node/7077601626,9.0163885,Ambassador,38.7551039,0
,node/7077785205,9.0216085,Lamberet,38.8139111,0
,node/7077785206,9.0479009,Kara Condominium,38.8692642,0
,node/7077785207,9.0655587,G-7 (Meskelegna),38.8676583,0
,node/7077785209,9.0480304,Kara Condominium,38.8695121,0
,node/7077863009,9.031811,Autobis Tera (2),38.7325536,0
,node/7077863010,8.9960545,Tropical,38.6833448,0
,node/7077863012,9.0003767,Alem Bank,38.6779208,0
,node/7077863014,8.9965876,Tropical,38.6830207,0
,node/7077863015,8.9923549,Kidane Mihret,38.6892387,0
,node/7077863016,9.004479,Bethel,38.6941906,0
,node/7077863017,9.0151128,Mendida,38.7004836,0
,node/7077863018,9.019638,Abinet,38.7327417,0
,node/7077863019,9.0280905,Sebategna,38.7329768,0
,node/7078164250,9.0088714,Mexico,38.7440208,0
,node/7078164251,8.9381825,Haile Garment,38.7349155,0
,node/7078164254,8.9729343,Mekanisa,38.7311018,0
,node/7078164255,8.9820586,Abo Mazoria,38.7345326,0
,node/7078164256,9.0088201,Mexico,38.7437936,0
,node/7078406225,9.0330269,Autobis Tera (1),38.7323925,0
,node/7078406227,8.9876369,Zenebework,38.7090191,0
,node/7078406228,8.9822919,Ayer Tena,38.6949214,0
,node/7078406231,8.9755975,Kara Kore,38.6817556,0
,node/7078406235,8.9763865,Kara Kore,38.6823873,0
,node/7078406236,8.9822452,Ayer Tena (Gerar-Repi),38.6939258,0
,node/7078406237,8.9795411,Repi (Gerar),38.6853377,0
,node/7078406238,8.9852814,Zenebework (Crossing),38.7051886,0
,node/7078406239,8.992776,3 Kutir Mazoriya (Total),38.715946,0
,node/7078406240,9.0330007,Autobis Tera (1),38.7322299,0
,node/7080251773,9.0049451,Condominium,38.8100534,0
,node/7080251774,8.993889,Goro School,38.8268744,0
,node/7080251776,9.0071789,Anbessa Garage,38.8056204,0
,node/7080440194,9.0110028,Estifanos,38.76366,0
,node/7080440195,9.0104866,BAMBIS,38.7690578,0
,node/7080440196,9.0115088,St. Urael Church,38.7752996,0
,node/7080440197,9.0147285,Lex Plaza,38.7823039,0
,node/7080440198,9.0164226,22 (Haya Hulet),38.7896417,0
,node/7080440200,9.0194097,Megenagna,38.8004816,0
,node/7080440203,9.019032,Megenagna,38.8005914,0
,node/7080440204,9.0177169,Lem Hotel,38.7955696,0
,node/7080440205,9.0162149,22 (Haya Hulet),38.7896635,0
,node/7080440206,9.0102033,BAMBIS,38.7694936,0
,node/7080440208,9.0104304,Mexico,38.7467585,0
,node/7080527282,9.0098462,Mexico,38.7462899,0
,node/7080527284,8.9863213,Kera,38.7487773,0
,node/7080611085,8.96688,Mebrat,38.7487535,0
,node/7080611091,9.0120423,Mexico Shebelle Hotel,38.746773,0
,node/7080893992,9.0412736,Michael,38.7322629,0
,node/7080893993,9.034717,Autobis Tera,38.732023,0
,node/7080893994,9.0460782,Pastor,38.7306587,0
,node/7080893995,9.0560646,Winget,38.713458,0
,node/7080893996,9.0613645,Chereta,38.7009781,0
,node/7080894001,9.0715888,Sansusi,38.6891732,0
,node/7081034796,9.0385658,5 Kilo (History Museum),38.7624277,0
,node/7081034797,9.0574672,Abo Mazoriya,38.7785478,0
,node/7081034799,9.0441923,Education Bureau (6 Kilo),38.7640045,0
,node/7084255331,9.0648091,Total (Dil Ber),38.732915,0
,node/7084255333,9.0341775,Piassa Arada,38.7533521,0
,node/7084255334,9.0594855,Addisu Gebeya,38.7374497,0
,node/7084255335,9.0638908,Tsion Cafe (Addisu Gebeya),38.733166,0
,node/7084255336,9.0653883,Total (Dil Ber),38.7327389,0
,node/7084722454,9.0337517,Ummar School,38.7405402,0
,node/7084722456,9.0341036,Autobis Tera (3),38.7337992,0
,node/7084722457,9.0341305,Gojam Berenda (Tefera Buillding),38.7418327,0
,node/7084722458,9.0404538,Dej. Wube (Ras Abebe School),38.7533374,0
,node/7084722459,9.0440672,Wube Bereha,38.7544994,0
,node/7084722460,9.0515491,Menen,38.7588473,0
,node/7084722461,9.0584002,Tsehay Chora (ShiroMeda),38.7598297,0
,node/7084873006,9.0274958,Sebategna (Taem Bakery),38.7332661,0
,node/7084873007,9.0188835,Mola Maru (Jos Hansen),38.7380924,0
,node/7084873008,9.0167149,Geja Sefer (Darmar),38.7382054,0
,node/7084873009,8.9856954,Kera (Green Market),38.7486804,0
,node/7084873010,8.9841757,Kera (Mexico Stop),38.7518917,0
,node/7084873011,8.9824212,MOHA (Pepsi Factory),38.7560749,0
,node/7084873012,8.9547202,Saris (Shoa Bakery),38.7635412,0
,node/7084873013,8.9844206,Kera (Saris Stop),38.7509324,0
,node/7084873014,9.002055,Guenet Hotel (Orbis),38.7469466,0
,node/7084873015,9.0111972,St. Lideta Church,38.736541,0
,node/7084873016,9.0192478,Abenet (Joshansen),38.733649,0
,node/7084932737,8.9951157,Canada Embassy,38.7373207,0
,node/7084932738,8.9973163,Mechare Meda,38.7311778,0
,node/7084932739,8.9892732,Bisrate Gebrael,38.7239615,0
,node/7084932740,8.9850622,Zenebework (Crossing),38.705264,0
,node/7084932741,8.9838449,Ayer Tena,38.6961239,0
,node/7084932742,8.9917639,Kidane Mihret (Roundabout),38.6887357,0
,node/7084932743,8.9910254,Kidane Mihret (2),38.690106,0
,node/7084932745,9.0056187,Augusta Bridge (Tor Hailoch),38.7185689,0
,node/7084932747,9.0114539,Mexico,38.7445753,0
,node/7098810331,8.9839859,Goro Roundabout,38.8285018,0
,node/7098810332,8.9678887,Kotebe Shet',38.8370059,0
,node/7098810333,8.9585287,Bole Lemi,38.8352869,0
,node/7098810334,8.9405669,Endorro 2,38.8219339,0
,node/7098810335,8.9007946,Kilinto Right (Heniken),38.8152364,0
,node/7098810336,8.8947925,Koye Feche 4,38.8240221,0
,node/7098810337,8.8925887,Koye Feche 3,38.8277372,0
,node/7098810338,8.896302,Koye Feche 2,38.8313712,0
,node/7098810339,8.9045894,Koye Feche,38.8270083,0
,node/7098810340,8.9837967,Goro Roundabout,38.8289328,0
,node/7098810341,8.9678046,Kotebe Shet',38.8374461,0
,node/7098810342,8.9573187,Bole Lemi,38.8354629,0
,node/7098810343,8.9393928,Endorro 2,38.8217947,0
,node/7098810344,8.9307029,Endorro 1,38.820007,0
,node/7098810345,8.9005132,kilinto (Heniken Brewery),38.8155747,0
,node/7098833728,9.0192718,Gurd-shola,38.8196082,0
,node/7098833729,9.021924,Civil Service College,38.8331381,0
,node/7098833730,9.021617,St. Michael,38.8400876,0
,node/7098833731,9.0193173,Sunshine Apartments,38.8524287,0
,node/7098833732,9.0019915,Gomista,38.8575794,0
,node/7098833735,8.9918735,Hasset Photo,38.8588022,0
,node/7098833736,9.0190988,Sunshine Apartments,38.8521013,0
,node/7098833737,9.0208488,CMC (Apartments),38.8504565,0
,node/7098833738,9.0213567,St. Michael,38.8401568,0
,node/7102193971,9.0337594,Merkato,38.7312293,0
,node/7102193972,9.0338552,Mesalemia (Area Police),38.7254909,0
,node/7102193973,9.0332635,Luwkanda,38.7086533,0
,node/7102193974,9.0338494,Comprensive,38.7049566,0
,node/7102193975,9.031909,Gefersa,38.642409,0
,node/7102193976,9.0563274,Gojo (Kela),38.6117467,0
,node/7102193977,9.0560454,Gojo (Kela),38.6120244,0
,node/7102193978,9.0375371,Gefersa (2),38.6265192,0
,node/7102193979,9.0356795,Gefersa,38.6329501,0
,node/7102193980,9.0328635,Ashewa Meda (1),38.6674596,0
,node/7102193981,9.0286003,Kersa (1),38.6760437,0
,node/7102193982,9.0343761,Feli Doro (2),38.687173,0
,node/7102193983,9.0344498,Mesalemia,38.7244946,0
,node/7102269985,9.0338637,Merkato,38.7312074,0
,node/7103202615,8.9821491,Ayer Tena,38.6977085,0
,node/7103202616,8.9647174,German Bridge,38.7316085,0
,node/7103202617,8.9470109,Mebrathile (EEPCo),38.7342372,0
,node/7103202619,8.9444277,Saris Abo,38.7692016,0
,node/7103202620,8.944353,Saris Abo,38.7666082,0
,node/7103202621,8.9336411,Kality Maseltegna,38.7645892,0
,node/7103202622,8.930547,Hana Mariam (Bridge),38.7550031,0
,node/7103202623,8.9653607,Mickael Bridge,38.72738,0
,node/7103202625,8.9820533,Ayer Tena,38.6976219,0
,node/7104888674,9.0323651,Bel Air,38.7729637,0
,node/7105158906,9.0211237,CMC (Apartments),38.8506098,0
,node/7105158907,9.0462589,Tafo Condominium 2,38.8774831,0
,node/7105158908,9.0502639,Tafo Condominium 1,38.8775457,0
,node/7105268824,8.9593839,Mebrat (Lafto),38.7490031,0
,node/7105268825,8.9587047,Dildiy Mariam,38.7497551,0
,node/7105268826,8.9537745,Lafto (Mickael),38.7504407,0
,node/7105268828,8.9465504,Lafto,38.7493803,0
,node/7105268830,8.9558865,Lafto (Primary School),38.7450783,0
,node/7105398617,9.0185243,Post Office (Ambassador),38.7534558,0
,node/7105398618,9.0462,6 Kilo,38.761425,0
,node/7105398619,9.0522977,Teferi Mekonen,38.7623138,0
,node/7105584907,9.022269,Marathon Motor (Megenagna),38.7999868,0
,node/7105584908,9.0332665,Arat Kilo,38.762507,0
,node/7105584909,9.0341288,Piassa Arada,38.7532588,0
,node/7105584911,9.0332715,Arat Kilo,38.7625094,0
,node/7105584912,9.0289345,Abebe Sook,38.7888307,0
,node/7105840324,9.0358919,Abune Petros,38.7492708,0
,node/7105840325,9.0424895,Yohannes,38.745898,0
,node/7105840326,9.0472271,Arbegnoch Primary School,38.7421685,0
,node/7105840327,9.0485317,Enqulal Fabrica,38.7376837,0
,node/7105840330,9.0434044,Yohannes,38.7450108,0
,node/7105840331,9.0481067,Enqulal Fabrica,38.7373533,0
,node/7107670562,8.9209077,Sefera,38.7350358,0
,node/7107670563,8.94963,Mebrathile (EEPCo),38.7332384,0
,node/7107670564,8.9829863,Mekanisa Abo,38.7341183,0
,node/7107789218,8.9606298,Jemmo 2,38.6879228,0
,node/7107789219,9.0319297,Piassa (Downtown Cafe),38.7511477,0
,node/7107789220,8.9605732,Jemmo 2,38.6878636,0
,node/7108224469,8.9860956,Kera,38.7483037,0
,node/7110438104,9.0166264,6th (Raddison Blu),38.7675202,0
,node/7110438105,9.0171928,Kazanchis (6th),38.7701955,0
,node/7110438106,9.0231177,Aware Roundabout,38.7758778,0
,node/7110438107,9.0234853,Signal,38.7815333,0
,node/7110438108,9.0221973,Dinberwa Hospital,38.7867845,0
,node/7110438109,9.0212061,Lem Hotel,38.7940254,0
,node/7110438110,9.022362,Lamberet (Queens),38.8157252,0
,node/7110438111,9.0348925,Kotebe 01,38.8281186,0
,node/7110438113,9.0349074,Kotebe 01,38.8281855,0
,node/7110438114,9.0217059,Shola (United Bank),38.7948696,0
,node/7110438115,9.021194,Sumeya Mosque,38.792498,0
,node/7110438116,9.023369,Signal,38.7815645,0
,node/7110725239,8.9104302,Kality Gebriel,38.7640618,0
,node/7110725240,8.9572931,Addis Sefer (Overpass),38.7673729,0
,node/7110725241,8.9799499,Bole Mickael (2),38.7723221,0
,node/7110725242,8.9867261,Bole Bridge,38.7903601,0
,node/7110725243,8.9948785,MOENCO,38.7957512,0
,node/7110725244,9.0009401,Sport Academy,38.7988652,0
,node/7110725245,9.0077883,Anbessa Garage,38.8030776,0
,node/7110725247,9.0076034,Anbessa Garage,38.8032793,0
,node/7110725248,9.0037859,Emperial Hotel,38.8009424,0
,node/7110725250,8.9910225,Bole (Bora Amusement),38.7947105,0
,node/7110725251,8.9795995,Bole Mickael (2),38.7721474,0
,node/7110725252,8.9603711,Addis Sefer,38.7676814,0
,node/7110725253,8.945759,Saris Abo,38.7692206,0
,node/7110725254,8.9234126,Kality (Correctional Facility),38.7648588,0
,node/7110725256,8.8959395,Kality Meneharia,38.7718808,0
,node/7111821010,9.0354591,Arat Kilo,38.7588358,0
,node/7111821011,9.0325113,Piassa (EPPCO),38.7538404,0
,node/7111821013,9.0317457,Autobis Tera,38.7374552,0
,node/7111821015,9.0302352,Autobis Tera,38.7372851,0
,node/7111821016,9.0216842,Dinberwa Hospital (1),38.7887833,0
,node/7112123457,9.0374493,Chid Tera,38.721592,0
,node/7112123458,9.0294949,Mebrathail,38.7149359,0
,node/7112123459,9.0173854,Kolfe Keranyo,38.7177803,0
,node/7112123460,9.0193846,Keranio Bridge,38.708993,0
,node/7112123462,9.0170237,Kolfe Keranyo,38.7176821,0
,node/7112123463,9.0370321,Abysinia Coffee,38.7163686,0
,node/7112123464,9.0376714,Chid Tera,38.7208971,0
,node/7112215078,8.9998854,Old Airport (Mobil),38.7188624,0
,node/7112215079,9.008471,Minaye (Shoa Supermarket),38.7196192,0
,node/7112215080,9.0208524,Holand,38.7158287,0
,node/7112215081,9.0361682,18 Mazoria (Atena Tera),38.7141478,0
,node/7112215082,9.0409736,Atena Tera,38.7125982,0
,node/7112215083,9.0491202,Winget TVET,38.7116581,0
,node/7112215084,9.0555289,Winget,38.7124575,0
,node/7112280388,9.0554541,Winget,38.7127274,0
,node/7112280389,9.0494004,Winget TVET,38.7117843,0
,node/7112280390,9.0448145,kolfe (Atena Tera),38.7122352,0
,node/7112280391,9.0414434,Atena Tera,38.712721,0
,node/7112280392,9.0362317,18 Mazoria (Atena Tera),38.7143961,0
,node/7112280393,9.0244809,Meseret Edget,38.7152453,0
,node/7112280394,9.0056155,Augusta Bridge (Tor Hailoch),38.7188519,0
,node/7112648156,8.8596281,Mahiber Betoch,38.8146269,0
,node/7112648157,8.865212,Project 12 Akababi,38.8210444,0
,node/7112648158,8.8701237,G7 (Tulu Dimtu),38.8204129,0
,node/7112648159,8.871336,Belay Ab Moters,38.7965426,0
,node/7112648160,8.8797273,Gelan Condominium,38.779459,0
,node/7112648161,8.894811,Kality Total,38.7728422,0
,node/7112648162,8.8973286,Akaki Subcity Office (Menaheria),38.770309,0
,node/7112648163,8.9224149,Kality (Correctional Facility),38.7641522,0
,node/7112648164,8.9281178,Techtra Engineering,38.7676362,0
,node/7112648165,8.9572677,Adey Abeba,38.7637599,0
,node/7112648166,8.9323914,Kality Maseltegna,38.7669427,0
,node/7112648167,8.9298175,Wehalemat,38.768315,0
,node/7112648168,8.8837788,Awash Bank (Akaki Kality),38.7768426,0
,node/7112648169,8.8799589,Gelan Condominium,38.7793211,0
,node/7112648170,8.8716847,Belay Ab Moters,38.7963837,0
,node/7112648172,8.8705655,TAF Oil (Tulu Dimtu),38.8091005,0
,node/7112755338,9.0278217,Teklehaymanot,38.7439418,0
,node/7112755340,9.0314996,Autobis Tera,38.7376384,0
,node/7112755342,9.0308454,Autobis Tera,38.7381207,0
,node/7112755343,9.0194238,Meteorology,38.7468282,0
,node/7113004009,9.0462468,Girum Hospital,38.7199737,0
,node/7113004010,9.0509733,Ras Hailu (Medhanialem),38.7211613,0
,node/7113004011,9.0572551,Awolia,38.7114101,0
,node/7113004012,9.0640587,Bercheko Fabrica (Asko),38.6983516,0
,node/7113004013,9.0598807,Gulele,38.70588,0
,node/7113004014,9.0507813,Ras Hailu (Medhanialem),38.7210939,0
,node/7113004015,9.040909,Woreda 7 TVET,38.7212829,0
,node/7113004016,9.0380466,Chid Tera,38.7213725,0
,node/7113004018,9.0312199,Autobis Tera,38.7365754,0
,node/7113004020,9.0426217,Michael (2),38.73268,0
,node/7113004021,9.0485205,Pawlos Hospital (Saba Mosque),38.7261371,0
,node/7113004022,9.0643796,Anbessa Garage (Shegole),38.7205811,0
,node/7113004024,9.0641379,Shegole (Mender 7),38.7266132,0
,node/7113004026,9.0641466,Shegole (Mender 7),38.726699,0
,node/7113004027,9.0589167,Hassen & Hussein Mosque (Shegole),38.7189551,0
,node/7113004028,9.0548351,Shegole Bank,38.7198445,0
,node/7113004029,9.0409541,Michael,38.7321449,0
,node/7113158623,9.0652655,Eyesus,38.7712666,0
,node/7122983960,8.9931107,Wello Sefer,38.7741153,0
,node/7122983961,8.9891423,Kassech Kitfo,38.7720567,0
,node/7122983962,8.9855755,Ambasel,38.7679985,0
,node/7122983963,8.9840055,WAGGA (Singer Liquior Store),38.7662234,0
,node/7122983964,8.9814923,Wengalawit,38.7635127,0
,node/7122983968,8.9817105,Wengalawit,38.7636059,0
,node/7122983969,8.9857381,MEDCO,38.7680101,0
,node/7122983970,8.98977,Tebaber Berta,38.7723942,0
,node/7122983972,8.9930626,Wello Sefer,38.7739711,0
,node/7123180286,9.0113972,Beshale Area,38.8356151,0
,node/7123180287,9.0185063,Megenagna,38.802106,0
,node/7123180289,9.0111777,Jacros,38.821148,0
,node/7123180290,9.0100121,Safari,38.8526604,0
,node/7123180291,9.0116739,Safari (Summit),38.8657082,0
,node/7123180293,9.0115148,Safari (Summit),38.8657494,0
,node/7123180295,9.0099646,Safari,38.8513684,0
,node/7123180296,9.011279,Beshale Area,38.8356503,0
,node/7123180297,9.0189315,Gurd Shola,38.8201425,0
,node/7123180298,9.0194519,Megenagna,38.803506,0
,node/7123265052,8.9882804,Meskel Flower,38.7650036,0
,node/7123265053,8.9911645,Loza (Adot),38.7659652,0
,node/7123265054,8.9934001,Nazra Hotel,38.7663984,0
,node/7123265055,8.9959487,Yetam Hotel,38.7666123,0
,node/7123265056,8.9980982,Kebele Kibeb,38.7667571,0
,node/7123265061,8.9999844,Mulu Shewa (Gazebo),38.7669271,0
,node/7123265062,8.9979306,Kebele Kibeb,38.7668423,0
,node/7123265063,8.9959132,Yetam Hotel,38.7667132,0
,node/7123265064,8.9937071,Nazra Hotel,38.7665439,0
,node/7123265065,8.9910552,Loza (Adot),38.7660467,0
,node/7123265066,8.9885268,Meskel Flower,38.7652457,0
,node/7182111861,8.9921561,Total 3 Kuter Mazoria,38.7180191,0
,node/7182111862,8.9865792,Kera,38.7468023,0
,node/7214490240,9.0351361,4 Kilo Minilik School,38.7629695,0
,node/7214490241,8.8967488,Kality Menaheriya,38.7708485,0
,node/10672522047,9.0675662,Holeta,38.497947,0
,node/10672522056,9.065884,Sademo,38.53199,0
,node/10672522057,9.0712731,Cheshire Ethiopia,38.5920589,0
,node/10672721751,8.8504983,Delta Fuel Station,38.8085926,0
,node/10672739809,8.8412588,Sidama Awash NOC,38.8243789,0
,node/10672739811,8.8314833,Atlas Resort,38.8396009,0
,node/10672739815,8.8447465,ODDA Fuel Station,38.818065,0
,node/10672961242,8.9943894,3 Kutir (TZNA Area),38.717673,0
,node/10672961244,9.0117316,Lideta High Court,38.7335924,0
,node/10750378219,8.9839135,Ayer Tena,38.7024743,0
,node/10755917239,8.9925223,Sar Bet,38.7394551,0
,node/10755917241,8.9924619,Sar Bet,38.7392871,0
,node/10755917242,8.9859671,Kera,38.7469304,0
,node/10755917243,8.9900132,Kera,38.7418629,0
,node/10755917244,8.995096,Sar Bet,38.7376124,0
,node/10755917245,8.9973975,karl Square,38.7309965,0
,node/10755917246,8.9970773,karl Square,38.7302642,0
,node/10755917247,8.9927368,Bisrate Gebrael,38.7268512,0
,node/10755917248,8.9914228,Bisrate Gebrael,38.7255644,0
,node/10755917249,8.9888937,Bisrate Gebrael,38.7226976,0
,node/10755917250,8.9922875,Total 3 Kuter Mazoria,38.7175917,0
,node/10766121857,8.8967652,kality Meneharia,38.7708737,0
,node/10766121859,8.9319554,kality Maseltegna,38.7669453,0
,node/10766121860,8.9632423,Kadisco Roundabout,38.7668102,0
,node/10766121861,8.9816305,Bole Mickael,38.7761571,0
,node/10766121862,8.9966149,Bole Printing Press,38.7721247,0
,node/10766121863,9.0100526,Flamingo,38.7634141,0
,node/10766121864,9.0125659,St. Estifanos,38.7626278,0
,node/10766121865,9.035146,4 Kilo (Menlik),38.7629874,0
,node/10766121866,9.0352952,4 Kilo (Menlik),38.7631121,0
,node/10766121867,9.0214342,Place Parking (Gibi Gebriel),38.7641345,0
,node/10766121868,9.01014,Flamingo,38.7636218,0
,node/10766121869,8.9944147,Wollo Sefer,38.7743234,0
,node/10766121871,8.9812653,Bole Mikael,38.7761469,0
,node/10766121872,8.9737518,Mamo (Nifas Silk),38.765481,0
,node/10766121873,8.9321192,kality Maseltegna,38.7670877,0
,node/10766121874,8.8957067,kality Meneharia,38.7721261,0
,node/10766454593,9.0056744,Olympia,38.7674734,0
,node/10766454594,8.9867247,Bole Roundabout,38.7908923,0
,node/10768858714,8.965437,German Square,38.7341844,0
,node/10768858715,8.97192,Gofa Camp,38.7420458,0
,node/10768858718,9.003043,African Union,38.7411322,0
,node/10768858719,9.0296254,Autobis Tera,38.7370315,0
,node/10768858720,9.0026517,Guenet Hotel (Orbis),38.7470064,0
,node/10768858723,8.9651822,German Square,38.7340469,0
,node/10781643820,9.0239162,Lamberet Menaheria,38.8198728,0
,node/10781643821,9.0322896,Arat Kilo,38.7650098,0
,node/10781643822,9.0328365,4 kilo (Children Theatre),38.7666152,0
,node/10781643823,9.0325481,Bel Air,38.7736753,0
,node/10781643824,9.0344084,Kebena,38.7768069,0
,node/10781643825,9.0350794,Kokebe Tsebah (Kebena),38.7794124,0
,node/10781643826,9.0324942,Kenya Embassy (Kebena),38.7823515,0
,node/10781643827,9.0309005,British Embassy,38.785575,0
,node/10781643828,9.0289673,Abebe Sook,38.7888226,0
,node/10781643829,9.0251295,Shola (Yeka Court),38.7947497,0
,node/10781643830,9.0232585,Shola Abyssinia Bank,38.7984062,0
,node/10781643831,9.0224046,Megenagna (Marathon Motors),38.7997354,0
,node/10781643832,9.0208971,Megenagna,38.8010368,0
,node/10781643833,9.0208722,Megenagna (Israel Embassy),38.8048559,0
,node/10781643834,9.0240444,Lamberet Menaheria,38.8199227,0
,node/10781643835,9.0297042,Kotebe,38.836729,0
,node/10781643836,9.0304539,Kotebe,38.8385612,0
,node/10781643837,9.0348007,Kotebe Teachers College,38.8490303,0
,node/10781643838,9.0363204,Kotebe Gebriel,38.8553365,0
,node/10781643839,9.0358505,Kotebe Gebriel,38.8541265,0
,node/10781643840,9.032918,Wessen Grocery,38.8443436,0
,node/10781643841,9.0407203,Kara,38.8648947,0
,node/10781643842,9.0411416,Kara,38.8653607,0
,node/10781844855,9.0287927,Abebe Sook,38.788672,0
,node/10781844856,9.0313214,British Embassy,38.7843424,0
,node/10781844857,9.038677,5 Kilo St. Mary,38.7623866,0
,node/10781844858,9.0462129,6 Kilo University,38.7614003,0
,node/10781844859,9.0462072,6 Kilo University,38.7615945,0
,node/10781844860,9.0430896,6 Kilo (Lion Zoo),38.7615002,0
,node/10781844861,9.032679,Kenya Embassy (Kebena),38.7826601,0
,node/10781844862,9.0250431,Shola (Yeka Court),38.7953847,0
,node/10781844863,9.0225097,Megenagna (Marathon Motors),38.7998471,0
,node/10823916391,9.0381854,Yeka 03,38.8773834,0
,node/10842065101,8.931276,Sefera Atkilt Tera,38.7341685,0
,node/10842065103,8.9358559,kality Maseltegna,38.7646885,0
,node/10842065104,8.9948043,Bulgaria,38.7478806,0
,node/10842129005,8.9379429,Kality Customs,38.7628904,0
,node/10842129006,8.9644696,Germen Square,38.7330813,0
,node/10842129008,8.93579,Hana Mariam,38.7441345,0
,node/10842129009,8.9373819,Gomista,38.7703639,0
,node/10842129010,8.948706,Nigd bank,38.780123,0
,node/10842129011,8.9342123,kality Maseltegna,38.7642814,0
,node/10842129012,8.9310906,Kadisco,38.7585214,0
,node/10842129013,8.9582797,Adey abeba,38.7638648,0
,node/10842129015,8.9457865,Saris abo,38.7690665,0
,node/10842129016,8.93876,Haile Garment,38.7345583,0
,node/10842129017,8.9546992,Saris,38.7635479,0
,node/10842129019,8.9834477,Bole Cargo,38.7819099,0
,node/10842129020,8.9944221,Bulgaria,38.7483448,0
,node/10842129021,8.9482742,Kore,38.7765022,0
,node/10842129022,8.9444276,Saris Abo,38.7691994,0
,node/10842129023,8.8973782,Kality Menaheria,38.7704449,0
,node/10842129024,8.9254109,Sefera Square,38.7340982,0
,node/10842129025,9.009032,Mexico,38.7463895,0
,node/10842129026,8.9092945,Kality Gebriel,38.7644698,0
,node/10842129027,8.8869211,Derartu,38.7821218,0
,node/10842129028,8.9836884,Bole Cargo,38.7818039,0
,node/10842129029,8.8948904,Kality Total,38.7729402,0
,node/10842129030,8.9927142,Noc,38.748144,0
,node/10842129031,8.9901397,Lancha,38.7590821,0
,node/10842129032,8.9375158,Haile Garment,38.7359129,0
,node/10842129033,8.9880834,Agona,38.759633,0
,node/10842129034,8.9336783,kality Maseltegna,38.76464,0
,node/10842129035,8.9417644,Mesqelegna,38.7214531,0
,node/10842129037,8.9537651,Jemo,38.6979529,0
,node/10842129038,8.9577771,Adey abeba,38.7640443,0
,node/10842129040,8.9448318,Saris Abo,38.7661797,0
,node/10842129041,8.9457862,Mebrat hayle,38.7343973,0
,node/10842129042,8.9633984,Kadisco,38.7669226,0
,node/10842129043,8.9356798,Hana Mariam,38.7453864,0
,node/10842129045,8.9729895,Mamo (NFSL),38.7609585,0
,node/10842129046,8.9490785,Medhani alem,38.7785848,0
,node/10842129047,8.9047633,Mosque (Mesged),38.7660661,0
,node/10842129048,8.9093265,Kality Gebriel,38.7645559,0
,node/10842129051,8.9859342,Bole Roundabout,38.7888143,0
,node/10842129052,8.9295556,Wuhalimat,38.7681435,0
,node/10842129053,8.9361549,Hana Mariam,38.7445142,0
,node/10842129054,8.9797944,Bole Mickael,38.7719673,0
,node/10842129055,8.9192813,Sheger building,38.7635639,0
,node/10842129056,8.9705748,Yoseph,38.7668114,0
,node/10842129057,8.9947898,Bulgaria,38.7477478,0
,node/10842129058,8.9470316,Mebrathayil,38.7342346,0
,node/10842129059,8.9250202,Sefera Square,38.7346011,0
,node/10842129060,9.0000494,Tele Garage,38.758701,0
,node/10842129061,8.9469179,Mebrathayil,38.7339445,0
,node/10842129062,8.9376734,Haile garment,38.7335906,0
,node/10842129063,9.0058652,Meshualekia,38.758986,0
,node/10842129066,8.9571801,Adey abada,38.7640108,0
,node/10842129069,8.9755358,Menaheria (Zenebu Werk),38.706617,0
,node/10842129070,8.9602509,Adis sefer,38.767446,0
,node/10842129071,8.930883,Kadisco,38.758758,0
,node/10842129072,8.993831,Bulgaria,38.7478486,0
,node/10842129073,8.9661182,Kadisco,38.7627716,0
,node/10842129074,8.9517202,Bulbula,38.7861393,0
,node/10842129075,8.966096,Kadisko,38.7629867,0
,node/10842129076,8.9444437,Saris abo,38.7700795,0
,node/10842129077,8.8759809,Meshualekya,38.7875287,0
,node/10842129078,8.9871416,Agona,38.7597928,0
,node/10842129079,8.9771026,Gotera chaf,38.7595824,0
,node/10842129080,8.9528149,Saris,38.7633358,0
,node/10842129082,9.0106804,St. Joseph School,38.7593422,0
,node/10842129083,8.9321621,Kotari Condominium,38.7338312,0
,node/10842129084,8.9732793,Mamo,38.7652695,0
,node/10842129085,8.9448603,Saris Abo,38.7664084,0
,node/10842129086,8.9705442,Yosef,38.7665547,0
,node/10842129088,8.9068482,Kality Cheralia,38.7654586,0
,node/10842129089,8.9066965,Kality Cheralia,38.7653555,0
,node/10842129090,8.9906489,Lancha,38.7593009,0
,node/10842129091,8.9375024,Gomista,38.7701062,0
,node/10842129092,8.9375082,Haile Garment,38.7331196,0
,node/10842129093,9.0001174,Tele Garage,38.7584826,0
,node/10842129094,8.8840544,Selam Building,38.7767338,0
,node/10842129095,8.9453322,Medhani alem,38.7769101,0
,node/10842129096,8.8831855,Selam Building,38.7772259,0
,node/10842129097,8.8759552,Meshualekya,38.7872182,0
,node/10842129098,8.9531876,Saris,38.7635911,0
,node/10842129102,8.963723,Germen adebabay,38.7328242,0
,node/10842129103,8.972508,Mamo (NFSL),38.7607874,0
,node/10842129105,8.9875165,Kera,38.7486365,0
,node/10842129106,8.9867627,Agona,38.7599766,0
,node/10842129107,8.9446574,Saris abo,38.7701231,0
,node/10842129108,8.9860883,Kera,38.7483211,0
,node/10842129110,8.8790966,Gelan Condominium,38.7666013,0
,node/10842129111,8.9953066,Temenja yasi,38.7596133,0
,node/10842129112,9.0041803,Riche,38.7588933,0
,node/10842129113,8.9368154,Haile garment,38.7364242,0
,node/10842129114,8.9795749,Bole Mickael,38.7720906,0
,node/10842129116,8.9835322,Ayer Tena,38.6971287,0
,node/10842129117,8.9537239,Jemo,38.6977027,0
,node/10842129118,9.0052072,Land mark,38.7467544,0
,node/10842129119,8.9411484,Meskelegna,38.7218311,0
,node/10842129120,8.9381771,Haile Garment,38.7349153,0
,node/10842129121,9.0040548,Riche,38.7586909,0
,node/10842129122,8.9476648,Kore,38.7841911,0
,node/10842129124,8.8770606,Meshualekya,38.7866845,0
,node/10842129125,8.9518942,Bulbula,38.7863461,0
,node/10842129126,8.9357353,kality Maseltegna,38.7643342,0
,node/10842129129,8.9457601,Saris abo,38.7692278,0
,node/10842129131,8.9603252,Addis sefer,38.7676873,0
,node/10842129132,8.9352291,Hana mariam,38.744852,0
,node/10842129133,8.9866879,Kera,38.7484325,0
,node/10842129134,8.9757898,Gotera chaf,38.7601404,0
,node/10842129135,8.8972852,Akaki Subcity Office (Menaheria),38.770318,0
,node/10842129136,8.9411922,Condominium,38.7717099,0
,node/10842129137,8.8789992,Gelan Condominium,38.7666701,0
,node/10842129139,8.9295931,Wuhalimat,38.7683276,0
,node/10842129140,9.0098761,Mexico,38.7461882,0
,node/10845731573,9.0312472,Grand Anwar Mosque,38.7413343,0
,node/10845731574,9.0247282,Kebele 11,38.7457773,0
,node/10845731575,9.0028738,Guenet hotel,38.7468651,0
,node/10845731576,8.9923344,Lancia,38.7589891,0
,node/10845731577,8.9825134,Pepsi,38.755826,0
,node/10845731578,8.9919399,Lancia,38.7591215,0
,node/10845731579,9.0279893,Tekle Haimanot,38.7438378,0
,node/10845731580,8.9441872,Saris Abo,38.7666459,0
,node/10845731581,9.0120319,Legehar,38.7544517,0
,node/10845731582,8.9841589,Kera,38.7522272,0
,node/10845731583,8.9380577,Kality Customs,38.7631799,0
,node/10845731584,9.0342603,Gojam Berenda,38.7378007,0
,node/10845731585,9.0343553,Gojam Berenda,38.7381021,0
,node/10845731586,8.8868675,Derartu,38.7818631,0
,node/10845731587,8.9824223,Pepsi,38.7557408,0
,node/10845731588,8.9943898,Global Hotel,38.7596457,0
,node/10845731589,8.9208636,Sheger Building,38.7637542,0
,node/10845731590,9.0343246,Autobus Tera,38.734431,0
,node/10845731591,9.0027786,Guenet hotel,38.7469738,0
,node/10845731592,9.0279685,Tekle Haimanot,38.7439714,0
,node/10845731593,8.9970419,Beg Tera,38.7476261,0
,node/10845731594,8.9943499,Global Hotel,38.7598651,0
,node/10845731595,8.9223845,Kality Correctional,38.7641252,0
,node/10845731596,8.9029367,Cheralia Factory,38.7667306,0
,node/10845731597,9.0246149,Kebele 11,38.7457421,0
,node/10845731598,9.0310422,Grand Anwar Mosque,38.7414003,0
,node/10845731599,9.0165472,National Theatre,38.7526758,0
,node/10845731600,8.9214902,Sheger Building,38.7639368,0
,node/10845731601,8.95346,Saris,38.767986,0
,node/10845731602,8.9968163,Beg Tera,38.7475303,0
,node/10845731603,9.014753,Sengatera,38.7468099,0
,node/10845731604,9.0096228,Mexico,38.746301,0
,node/10845749005,8.9937615,Bulgaria,38.7479845,0
,node/10845840895,8.8956285,kality Meneharia,38.7720203,0
,node/10845840896,8.9841176,Ayer Tena,38.6966894,0
,node/10845840897,8.9637758,Germen adebabay,38.7330269,0
,node/10846106471,8.8948231,Kality Total,38.7728316,0
,node/10881147490,8.9869946,Bole Bridge,38.7912092,0
,node/10881147492,8.9867302,Bole Bridge,38.7903563,0
,node/10883106542,9.0341009,Autobus Tera,38.7338003,0
,node/10886135782,8.907041,Bajaj Tera,38.7415025,0
,node/10886135783,8.904156,Chera,38.7479978,0
,node/10886135784,8.8772921,Gelan Condominium,38.7622377,0
,node/10886135785,8.8549158,Total,38.7845626,0
,node/10886135787,8.8737817,Tulu Dimtu,38.8197795,0
,node/10886135789,8.8738791,Tulu Dimtu,38.8202354,0
,node/10886135790,8.8709574,G7,38.820802,0
,node/10886135791,8.8541896,Total,38.7847209,0
,node/10886135793,8.8758233,Gelan Condominium,38.7630121,0
,node/10886281950,8.9906055,Bole Bridge,38.7928534,0
,node/10886281951,8.9955183,Bole Medhanyalem,38.7887705,0
,node/10886281952,8.9973425,Edna Mall Squar,38.7870108,0
,node/10886281953,9.0043569,Adey Ababa Stadium,38.7892817,0
,node/10886281954,9.0150262,22 Mazoria,38.7872566,0
,node/10886281956,9.0150056,22 Mazoria,38.787438,0
,node/10886281958,9.0082739,Freedom,38.7887083,0
,node/10886281997,9.0069454,Werku Building,38.7890587,0
,node/10886281998,9.0042976,Adey Ababa Stadium,38.7893444,0
,node/10886281999,8.9977034,Edna Mall Squar,38.7869491,0
,node/10886282000,8.995948,Bole Medhanyalem,38.7885714,0
,node/10886282001,8.9906936,Bole Bridge,38.7929596,0
,node/10886427067,9.0161537,22 Mazoria,38.7881236,0
,node/10886427068,9.017758,Lem Hotel,38.7950715,0
,node/10886427069,9.0198841,Megenagna,38.8019786,0
,node/10886427070,9.0191878,Gurd Shola,38.8200261,0
,node/10886427071,9.0218654,Civil Servis College,38.8345374,0
,node/10886427072,9.0209806,Yetebaberut,38.8536095,0
,node/10886427073,9.0214852,Ayat,38.8750186,0
,node/10886427074,9.0215577,Civil Servis College,38.8350083,0
,node/10886427075,9.0211711,Ayat,38.8737977,0
,node/10886427076,9.0204163,Meshageria,38.8598848,0
,node/10886427077,9.020619,Yetebaberut,38.8535182,0
,node/10886883544,8.9907378,Bole Bora Amusement,38.7941243,0
,node/10886883546,9.0185543,Megenagna,38.8016982,0
,node/10886883547,9.0078296,Anbessa Garage,38.8034449,0
,node/10886883548,9.0037737,Emperial Hotel,38.8009392,0
,node/10886883549,8.9950343,Hayat Hospital,38.7961015,0
,node/10886883550,8.9916604,Bole Bora Amusement,38.7949793,0
,node/10886991025,9.0199832,Sun shine,38.852562,0
,node/10886991026,9.0200202,Megenagna,38.8042842,0
,node/10886991027,9.021578,Meshualekia,38.841553,0
,node/10886991028,9.0110042,Safari,38.8522797,0
,node/10886991029,9.004015,Summit,38.8519977,0
,node/10886991031,9.004282,Summit,38.8517386,0
,node/10886991032,9.010941,Safari,38.8519018,0
,node/10886991033,9.0199154,Sun shine,38.8520834,0
,node/10886991034,9.021324,Meshualekia,38.8415391,0
,node/10886991035,9.021353,Michael,38.8392942,0
,node/10886991036,9.0187135,Gurd Shola,38.8211275,0
,node/10887120325,8.9948468,Hayat Hospital,38.7956759,0
,node/10887120326,9.0001969,Sport Accadamy,38.798384,0
,node/10887120327,9.0027661,Emperial Hotel,38.8000262,0
,node/10887120328,9.0187177,Mulugeta Building,38.8016319,0
,node/10890083966,8.9603848,93 Mazoria,38.7855121,0
,node/10890083967,8.9623057,Kaldisco,38.7863684,0
,node/10890083968,8.9642046,Key Afer,38.7872114,0
,node/10890083969,8.9901774,Bole Bridge,38.7938035,0
,node/10890083974,9.0169433,Mulugeta Building,38.8025239,0
,node/10890290096,8.9642211,Key Afer,38.7873203,0
,node/10890290097,8.9604784,93 Mazoria,38.785703,0
,node/10890290098,8.9581348,Kebele,38.7875752,0
,node/10893030388,9.0080412,Anbessa Garage,38.8031745,0
,node/10893030389,9.0035488,Jacros,38.8169267,0
,node/10893030390,8.9993201,Alem Ayew Building,38.8210973,0
,node/10893030392,8.9923039,Goro,38.8283586,0
,node/10893030394,8.9917123,Goro,38.8287738,0
,node/10893030395,8.9939213,Goro School,38.8266397,0
,node/10893030396,8.9992455,Alem Ayew Building,38.8210064,0
,node/10893030397,9.0035377,Jacros,38.8166485,0
,node/10893030398,8.9999982,Sport Accadamy,38.7986195,0
,node/10893030400,8.9911487,Bole Bridge,38.7947324,0
,node/10893316186,9.0122741,Figa,38.8336594,0
,node/10893316189,9.0110639,Mesgid,38.8366122,0
,node/10893316190,9.0121764,Figa,38.8335762,0
,node/10898980600,8.984658,Bole Mickael,38.7731313,0
,node/10898980601,9.0162838,Ambasader,38.7551282,0
,node/10898980602,9.0069448,Dembel,38.7662663,0
,node/10898980603,9.0123922,Stadium,38.7586647,0
,node/10898980604,9.0192676,Metrology,38.7466456,0
,node/10898986005,9.0217285,Tikur Anbesa,38.7476072,0
,node/10898986007,9.0207753,Tikur Anbesa,38.7476005,0
,node/10898986008,9.0188878,Metrology,38.7467207,0
,node/10898986009,9.0164136,Ambasader,38.7553118,0
,node/10898986010,9.011485,Stadium,38.760062,0
,node/10898986011,9.0038396,Dembel,38.7686303,0
,node/10898986012,8.9979213,Bole Printing Press,38.7717243,0
,node/10898986014,8.9849144,Bole Mickael,38.7734946,0
,node/10899009892,9.0318094,Cinema Ras,38.7413697,0
,node/10899009893,9.0317766,Cinema Ras,38.7414723,0
,node/10899150564,8.992509,Rwanda,38.7781683,0
,node/10899150565,9.0017627,Shewa Dabo,38.7693116,0
,node/10899150566,9.0120704,St. Estifanos Church,38.7626611,0
,node/10899150567,9.0321752,Piassa Arada,38.7511048,0
,node/10899150568,9.0330229,Piassa Arada,38.7525581,0
,node/10899150569,9.0264157,Tewodros Square,38.7517894,0
,node/10899150570,9.0210948,Tikur Anbesa,38.7522625,0
,node/10899150571,9.019064,Post Office,38.7529153,0
,node/10899150572,9.0138467,Ghion Hotel,38.7576138,0
,node/10899278324,8.9885561,Bole Bridge,38.7897689,0
,node/10899278325,8.9908062,Friendship Building,38.7840796,0
,node/10899278326,8.9923825,Rwanda,38.7798445,0
,node/10899278327,8.9908613,Friendship Building,38.7844715,0
,node/10899278328,8.9887169,Bole Bridge,38.7898626,0
,node/10899524535,9.0084115,Anbessa Garage,38.8038533,0
,node/10899524536,9.0049309,Condominium - Gerji Mebrat hayle,38.8100683,0
,node/10899524537,9.0036683,Gerji Mebrat hayle,38.814209,0
,node/10899524538,8.9913434,Goro,38.8294024,0
,node/10899524539,8.900477,kilinto Right,38.815561,0
,node/10899524540,8.8753804,Tulu Dimtu,38.8197368,0
,node/10899524542,8.900461,kilinto Right,38.8150743,0
,node/10899524543,8.9912832,Goro,38.8292469,0
,node/10899524544,9.0035919,Gerji Mebrat hayle,38.8134376,0
,node/10899524545,9.0050654,Condominium - Gerji Mebrat hayle,38.8095948,0
,node/10899524547,9.0071868,Anbessa Garage,38.8055809,0
,node/10899590290,9.011198,Mesgid,38.8364067,0
,node/10899590291,8.994461,Saint Georgis,38.8518486,0
,node/10899590293,8.994389,Saint Georgis,38.8515329,0
,node/10899652823,8.9493529,Mebrathile,38.7332958,0
,node/10899652824,8.9556186,Gebriel Bridge,38.7324445,0
,node/10899652825,8.965384,Mickael Bridge,38.7273491,0
,node/10899652826,8.9727473,Zenebewerk,38.7121031,0
,node/10899652827,8.975714,Chaina Camp,38.7055213,0
,node/10899652829,8.981635,Ayer Tena,38.6982059,0
,node/10901428140,8.9385233,Haile Garment,38.7348966,0
,node/10901428141,8.9201595,Sefera,38.7353205,0
,node/10901428142,8.9311784,Sefera Atkilt Tera,38.7337094,0
,node/10901428143,8.9208099,Sefera,38.734667,0
,node/10901522017,8.8870433,Mesalemia,38.7519617,0
,node/10901522018,8.9032086,Chera Medhanilem,38.7484085,0
,node/10901522020,8.935726,Haile Garment,38.7346387,0
,node/10901522021,8.9034769,Chera Medhanilem,38.7491293,0
,node/10901522022,8.8871115,Mesalemia,38.7524365,0
,node/10901643508,8.9530332,Saris,38.7629397,0
,node/10901643510,8.9431476,58 Mazoria,38.7540078,0
,node/10901643511,8.9405222,Kidane Mihret Stebel,38.7500946,0
,node/10902267327,9.0084289,Mexico,38.7447143,0
,node/10902267330,9.0084377,Mexico,38.7448728,0
,node/10902267332,8.9990666,AU (Mikael) Rounrdabout,38.7393711,0
,node/10902267333,8.9990162,AU (Mikael) Rounrdabout,38.7395668,0
,node/10902267334,8.9923567,Sar Bet,38.7381301,0
,node/10902267335,8.9923453,Sar Bet,38.7383324,0
,node/10902267336,8.9822679,Abo Mazoria,38.7342938,0
,node/10902267337,8.9823292,Abo Mazoria,38.7344209,0
,node/10902267338,8.9729293,Mekanisa,38.7311351,0
,node/10902267339,8.9728812,Mekanisa,38.7312498,0
,node/10902267340,8.9555964,Gebriel Bridge,38.732719,0
,node/10903393900,8.9432326,58 Mazoria,38.7539257,0
,node/10903398373,8.9487486,Varnelo Squer,38.7267004,0
,node/10903398374,8.9594798,Jemmo 1,38.7117668,0
,node/10903398375,8.9585188,Jemmo 1,38.712128,0
,node/10903398376,8.9524535,Jemmo Medhanialem,38.7161087,0
,node/10903398377,8.9525568,Jemmo Medhanialem,38.7162235,0
,node/10903398378,8.9490672,Kebele,38.7221583,0
,node/10903398379,8.9491872,Kebele,38.7221797,0
,node/10903398380,8.9488837,Varnelo Squer,38.7267159,0
,node/10904734315,8.9951163,Sar Bet,38.7373285,0
,node/10904734316,8.9936468,Austria Embassy,38.7276618,0
,node/10904734318,8.9922476,Total 3 Kuter Mazoria,38.7177291,0
,node/10905160356,9.0330017,Autobus Tera,38.7322404,0
,node/10905160357,9.033026,Autobus Tera,38.7323851,0
,node/10905160358,9.0282768,Sebategna,38.7329553,0
,node/10905160359,9.0283274,Sebategna,38.7331326,0
,node/10905160360,9.021201,Abenet,38.7333187,0
,node/10905160361,9.0196344,Abenet,38.7335682,0
,node/10905160362,9.0158211,Darmar,38.7346366,0
,node/10905160363,9.0154497,Darmar,38.7347971,0
,node/10905160364,9.0133778,Lideta Condominium,38.7343382,0
,node/10905160365,9.0133623,Lideta Condominium,38.7345056,0
,node/10905160366,9.0094187,Dessie Hotel,38.7337879,0
,node/10905160367,9.0093029,Dessie Hotel,38.7339331,0
,node/10905160368,9.0046165,Lideta,38.7337058,0
,node/10905160369,9.0041332,Lideta,38.7338158,0
,node/10905160370,9.0001611,AU (Mikael) Rounrdabout,38.7393722,0
,node/10905160371,8.9999889,AU (Mikael) Rounrdabout,38.7400667,0
,node/10905641592,8.9839514,Kera,38.7518897,0
,node/10905771998,8.9606229,Jemmo 1,38.7123799,0
,node/10905771999,8.9688439,Jemmo Mickael,38.7216431,0
,node/10905772000,9.0192423,Metrology,38.7468034,0
,node/10905772001,8.9969985,karl Square,38.7304143,0
,node/10905772002,8.9883364,Bisrate Gebrael,38.7227062,0
,node/10905772003,8.9687533,Jemmo Mickael,38.7218663,0
,node/10905772004,8.9604031,Jemmo 1,38.7124299,0
,node/10905866700,8.9493317,Noc,38.6701812,0
,node/10905876026,8.9339514,Alem Gena,38.6639521,0
,node/10905876027,8.933851,Alem Gena,38.6640124,0
,node/10905876029,8.9493415,Noc,38.670031,0
,node/10905876030,8.9538566,Jemmo 3 Squer,38.6965362,0
,node/10905876031,8.9552123,Jemmo 3 Squer,38.697557,0
,node/10905982178,9.0220649,Post Office,38.7520387,0
,node/10905982179,8.9652918,Germen Square,38.732839,0
,node/10905982180,8.9664306,Germen Square,38.7325545,0
,node/10906020778,8.9717027,Gofa,38.7418952,0
,node/10906020779,8.9716231,Gofa,38.7419996,0
,node/10906074341,8.9816221,Ayer Tena,38.6979766,0
,node/10906074342,8.9644965,Germen Square,38.7320917,0
,node/10906074343,8.9646595,Germen Square,38.732112,0
,node/10907679395,8.9883638,Mesked,38.6922765,0
,node/10907679396,8.9913917,Kidane Mihret,38.6893136,0
,node/10907679398,8.9958978,Tropical,38.683541,0
,node/10907679399,9.0003808,Alem Bank,38.677926,0
,node/10907679400,9.0010321,Alem Bank,38.6776565,0
,node/10907679401,8.9957016,Tropical,38.6841485,0
,node/10907679402,8.9915373,Kidane Mihret,38.689491,0
,node/10907679403,8.9884696,Mesked,38.6925125,0
,node/10907679404,8.9757717,Chaina Camp,38.7060819,0
,node/10907725405,8.9730472,Zenebewerk,38.7121867,0
,node/10907725406,8.9655559,Mickael Bridge,38.7275949,0
,node/10907781477,8.9648278,Germen Square,38.7333383,0
,node/10907781478,8.9844811,Kera,38.7500865,0
,node/10907781479,8.9842955,Kera,38.750364,0
,node/10907781480,8.9770976,Gofa Gebriel,38.7490157,0
,node/10907781481,8.9770919,Gofa Gebriel,38.7491174,0
,node/10908143594,8.9832814,Mekanisa Abo,38.7343726,0
,node/10908143595,8.9830621,Mekanisa Abo,38.7341531,0
,node/10908143596,9.0088673,Mexico,38.7440188,0
,node/10908143597,9.0088181,Mexico,38.7438,0
,node/10908191497,9.0263912,Tewodros Square,38.7516402,0
,node/10908191498,8.9739466,Mekanisa,38.7321651,0
,node/10908191499,8.9738507,Mekanisa,38.7322539,0
,node/10908191500,9.0187971,Post Office,38.7524753,0
,node/10908661149,8.9493572,Mebrathile,38.7334477,0
,node/10909186645,9.0159317,Coca Cola,38.729496,0
,node/10909186646,9.0294352,Merab Hotel,38.735361,0
,node/10909186647,9.0213907,Abenet,38.7334955,0
,node/10909186648,9.0293588,Merab Hotel,38.7353749,0
,node/10909186649,9.016555,Kolfe Keranyo,38.7180312,0
,node/10909186650,9.0203575,Holand,38.7159578,0
,node/10909186651,9.0204824,Holand,38.7162551,0
,node/10909186652,9.017036,Kolfe Keranyo,38.7176312,0
,node/10909186653,9.0171583,Kolfe Keranyo,38.7179346,0
,node/10909186654,9.0122446,Torhayloch,38.7202541,0
,node/10909186655,9.0120497,Torhayloch,38.7202419,0
,node/10909186657,9.0134653,Keranio Mewcha,38.7097752,0
,node/10909186658,9.0133225,Keranio Mewcha,38.7097861,0
,node/10909186659,9.0140592,Mewcha,38.7049946,0
,node/10909186660,9.0139288,Mewcha,38.7050058,0
,node/10909186661,9.0153205,Mendida,38.6994498,0
,node/10909186662,9.0151509,Mendida,38.6995858,0
,node/10909186663,9.0037697,Betel,38.6937692,0
,node/10909186664,9.0036921,Betel,38.6937746,0
,node/10909186665,9.0017481,Alem Bank,38.6775777,0
,node/10909186666,9.0016995,Alem Bank,38.677633,0
,node/10911198617,8.9868549,Zenebewerk,38.7080844,0
,node/10911198618,8.9867824,Zenebewerk,38.7081829,0
,node/10911198619,8.9838366,Ayer Tena,38.6961361,0
,node/10911242345,9.0114518,Mexico Shebelle Hotel,38.7446969,0
,node/10911242346,9.0114526,Mexico Shebelle Hotel,38.7445773,0
,node/10911242347,9.0117415,Lideta,38.7336365,0
,node/10911242348,9.0115482,Lideta,38.7336469,0
,node/10911242349,9.001869,Alem Bank,38.6772002,0
,node/10911242350,9.0018954,Alem Bank,38.6769434,0
,node/10911695404,8.9834957,Ayer Tena,38.7007283,0
,node/10911717876,9.0044227,Betel,38.6943792,0
,node/10911717877,9.0043939,Betel,38.6942024,0
,node/10911725505,8.9831049,Ayer Tena,38.6982237,0
,node/10912835918,8.9879977,Zenebewerk,38.7080303,0
,node/10912835920,8.9880219,Zenebewerk,38.7079594,0
,node/10913852032,9.0295143,Mebrat Haile,38.714679,0
,node/10913852033,9.0294826,Mebrat Haile,38.7149385,0
,node/10913852034,9.0334554,18 Mazoria,38.7146172,0
,node/10913852035,9.0334598,18 Mazoria,38.714468,0
,node/10913863174,9.0196268,Abenet,38.7327435,0
,node/10913863175,9.0194053,Abenet,38.7327231,0
,node/10913863176,9.0159095,Coca Cola,38.7296372,0
,node/10913863177,9.0117875,Torhayloch,38.7222401,0
,node/10913863178,9.0096837,Torhayloch,38.7208808,0
,node/10913863179,9.0056583,Augusta Bridge,38.7185634,0
,node/10913863180,9.0055925,Augusta Bridge,38.7188581,0
,node/10913863181,9.0000925,Old Airport,38.7188599,0
,node/10913863182,8.9998426,Old Airport,38.7191188,0
,node/10913863183,8.9932525,3 Kutir Mazoriya (Total),38.7170227,0
,node/10913863184,8.9926315,3 Kutir Mazoriya (Total),38.7158494,0
,node/10913974717,8.9756363,Kara Kore,38.6817486,0
,node/10913974718,8.9754096,Kara Kore,38.6814462,0
,node/10913974719,8.9813701,Gerar,38.6894126,0
,node/10913974720,8.9813486,Gerar,38.6894421,0
,node/10913974721,8.9829716,Ayer Tena,38.6982009,0
,node/10914160973,9.0116587,Mexico,38.746198,0
,node/10914160974,9.0102476,Mexico,38.7438026,0
,node/10914160976,8.987734,Zenebewerk,38.708928,0
,node/10914160977,8.9849086,Zenebewerk,38.7049751,0
,node/10914680945,8.9853381,Zenebewerk Meneharia,38.7053463,0
,node/10914680946,8.9852574,Zenebewerk Meneharia,38.7056363,0
,node/10914784456,9.0417169,Atena Tera,38.71237,0
,node/10914784457,9.0414427,Atena Tera,38.7127192,0
,node/10915613002,9.028352,Tekle Haimanot,38.7426711,0
,node/10915613003,9.0281855,Tekle Haimanot,38.742622,0
,node/10915905485,9.0658063,Asko,38.6937551,0
,node/10915905486,9.065919,Asko,38.6937141,0
,node/10915905487,9.0612502,Chereta,38.7010467,0
,node/10915905488,9.0612523,Chereta,38.7011727,0
,node/10915905489,9.0575666,Gulele Fana,38.7069671,0
,node/10915905490,9.0576638,Gulele Fana,38.7070447,0
,node/10915905491,9.0572628,Awolia,38.7114229,0
,node/10915905492,9.0576104,Awolia,38.7116493,0
,node/10915905493,9.0555179,Winget,38.7124522,0
,node/10915905494,9.0554488,Winget,38.7127252,0
,node/10918141989,9.018116,Kokebe,38.6993091,0
,node/10918141990,9.0178995,Kokebe,38.6991634,0
,node/10918141991,9.0188526,Yeshi Debele,38.6969603,0
,node/10918141992,9.0185806,Yeshi Debele,38.6972043,0
,node/10918141993,9.0177704,Keranio Adebabay,38.7017975,0
,node/10918141994,9.0176839,Keranio Adebabay,38.7006617,0
,node/10918141995,9.0178222,Medhanalem,38.7049143,0
,node/10918141996,9.0175512,Medhanalem,38.7047128,0
,node/10918245686,9.0115804,Torhayloch,38.7208703,0
,node/10918245687,9.0099639,Torhayloch,38.720685,0
,node/10918314820,9.0114229,Torhayloch,38.7225031,0
,node/10918339958,9.0128836,Torhayloch,38.7206095,0
,node/10922141942,9.0118511,Legehar,38.7544283,0
,node/10923884107,9.0691686,Zebera,38.7174162,0
,node/10923884109,9.0630022,Addisu Gebeya,38.7350114,0
,node/10923884110,9.0625854,Addisu Gebeya,38.7352489,0
,node/10923884111,9.0670589,Bera Tera,38.725597,0
,node/10923884112,9.0689759,Zebera,38.7174444,0
,node/10923941250,9.0594889,Addisu Gebeya,38.7374564,0
,node/10923941251,9.059208,Addisu Gebeya,38.7379019,0
,node/10923941252,9.0528165,Semen Mazegaga,38.7431266,0
,node/10923941253,9.0528691,Semen Mazegaga,38.7432318,0
,node/10923941254,9.0483987,Shola,38.7461562,0
,node/10923941255,9.0484505,Shola,38.7462522,0
,node/10923941256,9.0446634,Semen Hotel,38.7483104,0
,node/10923941257,9.0446029,Semen Hotel,38.7485012,0
,node/10923941258,9.0425995,Yohanes,38.745274,0
,node/10923941259,9.0425158,Yohanes,38.7453414,0
,node/10923941260,9.0346843,Eritrea Hotel,38.7394065,0
,node/10923941261,9.0347991,Eritrea Hotel,38.7393526,0
,node/10924087993,9.0552727,Medhanalem,38.7517928,0
,node/10924087994,9.0552441,Medhanalem,38.7518851,0
,node/10924087995,9.0520868,Chelote,38.7497489,0
,node/10924087996,9.0521299,Chelote,38.7496604,0
,node/10924087997,9.0479898,Shola,38.746423,0
,node/10924087998,9.0480732,Shola,38.7465175,0
,node/10924088002,9.0385287,St. George Church,38.7516855,0
,node/10924088003,9.0385651,St. George Church,38.7518109,0
,node/10924088004,9.0365922,Piassa,38.7521881,0
,node/10924116805,9.0341764,Piassa,38.7533491,0
,node/10924116806,9.0650022,Kechenie,38.7492165,0
,node/10924116808,9.0652677,Kechenie,38.7497807,0
,node/10924211089,9.0639755,Shegole,38.7268465,0
,node/10924211090,9.0640548,Shegole,38.7269586,0
,node/10924211093,9.0590346,Rufael,38.7274953,0
,node/10924211094,9.0590438,Rufael,38.7274376,0
,node/10924211095,9.0544658,Tureta Deldy,38.7329754,0
,node/10924211096,9.054531,Tureta Deldy,38.7330307,0
,node/10924211097,9.0492619,Enqulal Fabrica,38.7377403,0
,node/10924211098,9.0492678,Enqulal Fabrica,38.7378298,0
,node/10924212637,9.0444679,Ras Desta,38.7440337,0
,node/10924212638,9.0444022,Ras Desta,38.7439161,0
,node/10924212640,9.0375917,Sebara Babur,38.7483682,0
,node/10924212641,9.0358617,Abune Petros,38.749271,0
,node/10924212642,9.0359205,Abune Petros,38.7494119,0
,node/10924212643,9.04258,Yohanes,38.7458165,0
,node/10924212644,9.0426863,Yohanes,38.7459326,0
,node/10924342466,9.0230837,Shola Abyssinia Bank,38.79823,0
,node/10924342467,9.0307347,British Embassy,38.7854804,0
,node/10924342468,9.0385889,Menelik II Hospital,38.7730468,0
,node/10924342469,9.0385052,Menlik Hospital,38.7728666,0
,node/10924342470,9.0437871,6 Kilo,38.761858,0
,node/10924342471,9.0453786,6 Kilo,38.7613161,0
,node/10924981547,9.0352542,Piassa,38.7527884,0
,node/10924981836,9.0168504,Kazanchis,38.7714084,0
,node/10924981837,9.0167816,Kazanchis,38.7712817,0
,node/10924981839,9.0199981,Meneharya,38.767286,0
,node/10924981840,9.0462061,6 Kilo,38.7614317,0
,node/10924981841,9.046202,6 Kilo,38.7615616,0
,node/10925096455,9.0430636,6 Kilo (Lion Zoo),38.7613028,0
,node/10925096457,9.0509212,Medhanalem,38.7621679,0
,node/10925096458,9.0609308,Shiromeda,38.7616364,0
,node/10925096459,9.0610296,Shiromeda,38.7618074,0
,node/10925161777,9.0350989,Abune Petros,38.7493321,0
,node/10925161778,9.0353615,Abune Petros,38.7492809,0
,node/10925161780,9.0385895,St. George Total,38.7526253,0
,node/10925161781,9.0338335,Raguel Church,38.7411822,0
,node/10925161782,9.0340374,Raguel Church,38.7413278,0
,node/10925161783,9.0352768,Piassa,38.7491307,0
,node/10925161784,9.0350881,Piassa,38.749266,0
,node/10925195639,9.0115722,Mexico,38.7462619,0
,node/10925695034,9.0572967,Winget,38.7130281,0
,node/10925695035,9.0576478,Winget,38.7136024,0
,node/10925835130,9.0630668,Shegole,38.7201372,0
,node/10925835131,9.0630578,Shegole,38.7201639,0
,node/10925835153,9.051016,Medhanalem,38.7226821,0
,node/10925835154,9.0512021,Medhanalem,38.7228048,0
,node/10925835155,9.047368,Pawlos Hospital,38.7275912,0
,node/10925835156,9.0474739,Pawlos Hospital,38.7277025,0
,node/10925835157,9.0462435,Pastor,38.7306013,0
,node/10925835158,9.0460773,Pastor,38.7305979,0
,node/10925835159,9.041653,Michael,38.7324674,0
,node/10925835160,9.0418749,Michael,38.732621,0
,node/10925835161,9.0356953,Autobus Tera,38.731876,0
,node/10925835162,9.0357033,Autobus Tera,38.731937,0
,node/10925946103,8.9844426,Summit Condominiums,38.8548285,0
,node/10925946104,8.9909634,Summit Condominiums,38.8525995,0
,node/10925966505,9.0206981,Meshageria,38.8598883,0
,node/10925966506,9.0212039,Derartu Adebabay,38.8751635,0
,node/10925966507,9.0215357,Derartu Adebabay,38.8751433,0
,node/10925966508,9.0403679,Gebreal,38.8773377,0
,node/10925966509,9.0402783,Gebreal,38.8778174,0
,node/10925966510,9.0556843,Aba Kiros,38.8778648,0
,node/10925966511,9.0561259,Aba Kiros,38.8785325,0
,node/10926028111,8.9732139,Bole Arabsa,38.8903446,0
,node/10926028112,8.9726305,Bole Arabsa,38.8904415,0
,node/10926028113,8.9932453,Maseltegna,38.8850892,0
,node/10926028114,8.9932023,Maseltegna,38.8854551,0
,node/10926028115,9.0100814,Sun shine,38.8780839,0
,node/10926028116,9.0100956,Sun shine,38.8779385,0
,node/10926028117,9.0215285,Ayat,38.8770142,0
,node/10926040103,8.9875932,Mariam,38.8848989,0
,node/10926040104,8.9875847,Mariam,38.8852531,0
,node/10926074605,9.0212341,Ayat,38.8767405,0
,node/10926094674,8.9910294,Summit Condominiums,38.8529201,0
,node/10926094675,9.0195894,Megenagna,38.8033659,0
,node/10926817920,9.0203394,Megenagna,38.8038784,0
,node/10926817921,9.057063,Tafo Square,38.8779123,0
,node/10926817922,9.0566681,Tafo Square,38.8780073,0
,node/10926849848,9.0021737,Sun shine,38.8763861,0
,node/10926849849,9.0011674,Summit Chafe,38.8537813,0
,node/10926849850,9.0015569,Summit Chafe,38.8537842,0
,node/10926849851,8.9918731,Goro,38.8299549,0
,node/10926849852,8.9917194,Goro,38.8303813,0
,node/10926896755,9.0194791,Se'alite Mihret,38.8256621,0
,node/10926896756,9.0198404,Se'alite Mihret,38.8254269,0
,node/10926896757,9.0109362,Ayat Chefe Condominium,38.8944977,0
,node/10926896758,9.0113892,Ayat Chefe Condominium,38.8946434,0
,node/10928177661,9.0207778,Ayat,38.8758009,0
,node/10928876312,8.9846036,Summit Condominiums,38.854445,0
,node/10928876313,8.9844416,Summit Condominiums,38.8548242,0
,node/10929299420,9.0273248,Tewodros Square,38.751565,0
,node/10929299421,9.0273553,Tewodros Square,38.7517149,0
,node/10929299422,9.0209798,Tikur Anbesa,38.7480915,0
,node/10929337801,9.0105347,Mexico,38.7449001,0
,node/10929337802,9.0119557,Stadium,38.7559408,0
,node/10929337803,9.0121328,Stadium,38.7559437,0
,node/10929412718,9.0195364,Megenagna,38.8009614,0
,node/10929412719,9.0190569,Megenagna,38.8005907,0
,node/10929412721,9.0155693,22 Mazoria,38.787267,0
,node/10929694820,9.0211986,Lem Hotel,38.7940688,0
,node/10929694821,9.0210828,Lem Hotel,38.7939939,0
,node/10929694822,9.0235014,Signal,38.7815067,0
,node/10929694823,9.0233755,Signal,38.781471,0
,node/10929694824,9.0280712,Abuare Gebeya,38.7718347,0
,node/10929694825,9.0279894,Abuare Gebeya,38.7718123,0
,node/10929694826,9.0270034,Tewodros Square,38.7520638,0
,node/10929694827,9.0268625,Tewodros Square,38.7520149,0
,node/10929694828,9.0285216,Tekle Haimanot,38.744541,0
,node/10929694829,9.0284531,Tekle Haimanot,38.74454,0
,node/10929694830,9.020064,Megenagna,38.8009431,0
,node/10929694831,9.0200336,Megenagna,38.8005994,0
,node/10929752934,9.0127448,Torhayloch,38.7209032,0
,node/10931788261,9.0225048,Megenagna,38.7998465,0
,node/10931788262,9.021325,Megenagna,38.8010821,0
,node/10931809323,9.0303308,Kotebe,38.8385778,0
,node/10931809324,9.0284671,Se'alite Mihret,38.8331547,0
,node/10931809325,9.0283689,Se'alite Mihret,38.833187,0
,node/10931809326,9.0216042,Lamberet,38.8139293,0
,node/10931809327,9.0214909,Lamberet,38.813953,0
,node/10931809328,9.0404534,Kara,38.8642169,0
,node/10931809329,9.0404001,Kara,38.864319,0
,node/10931809330,9.0216983,Megenagna,38.8015712,0
,node/10931850027,9.0224128,Megenagna,38.799743,0
,node/10931850028,9.0344299,Kokebe Tsebah (Kebena),38.7799581,0
,node/10931884718,9.036142,4 Kilo,38.7628341,0
,node/10931884719,9.0571169,Ferensay,38.7769686,0
,node/10931884720,9.0570142,Ferensay,38.7769596,0
,node/10931884721,9.0535366,Mezan,38.7722195,0
,node/10931884722,9.0535794,Mezan,38.7721316,0
,node/10931884723,9.0470261,Jan Meda,38.7690665,0
,node/10931884724,9.0471196,Jan Meda,38.7690208,0
,node/10931937848,9.0180915,Megenagna,38.8021444,0
,node/10931937849,8.9633989,Kadisco,38.766754,0
,node/10931995346,9.0347501,Kebena,38.776629,0
,node/10932040828,9.0435664,6 Kilo,38.7618099,0
,node/10932040829,9.0386325,St. George Total,38.7526555,0
,node/10932040830,9.038614,St. George Total,38.7527659,0
,node/10932115661,9.017586,Lem Hotel,38.7950974,0
,node/10932115662,9.0239221,Lamberet,38.8198719,0
,node/10932115666,9.0107374,Mexico,38.7471612,0
,node/10932115667,9.0104411,Mexico,38.7467607,0
,node/10933668851,9.0249902,Shola Gebeya,38.796095,0
,node/10933668852,9.0253078,Shola Gebeya,38.7963986,0
,node/10933668868,9.0290044,Beg Tera,38.8021516,0
,node/10933668869,9.0289126,Beg Tera,38.802143,0
,node/10933668870,9.0315916,Zebera,38.8093843,0
,node/10933668871,9.0314928,Zebera,38.8094344,0
,node/10933668873,9.0355162,Kidane Mihret,38.818742,0
,node/10933668874,9.0355971,Kidane Mihret,38.8186176,0
,node/10933970678,9.0113969,St. Urael Church,38.7750759,0
,node/10933970679,9.0110384,St. Urael Church,38.7752362,0
,node/10934121405,9.004269,Atlas,38.7797684,0
,node/10934121406,9.0041884,Atlas,38.779678,0
,node/10934121407,9.0103387,St. Urael Church,38.7748368,0
,node/10934121408,9.0104642,St. Urael Church,38.7749361,0
,node/10934142102,8.9843274,Kera,38.7518505,0
,node/10934142103,8.9840695,Kera,38.7515846,0
,node/10934274056,9.0324426,4 Kilo,38.7632997,0
,node/10934274058,9.012454,St. Estifanos,38.762845,0
,node/10934274059,9.0109591,Buna Ena Shay,38.7482685,0
,node/10934274060,9.0106827,Buna Ena Shay,38.748215,0
,node/10936313832,9.032283,4 Kilo,38.7645933,0
,node/10936313833,9.0323383,4 Kilo,38.7648081,0
,node/10936490562,9.0289759,Sebategna,38.7321818,0
,node/10936490563,9.028913,Sebategna,38.7322093,0
,node/10936490564,9.0258457,Amanuel Total,38.7211312,0
,node/10936490565,9.0258301,Amanuel Total,38.721144,0
,node/10936621813,9.0576027,Winget,38.7131944,0
,node/10936724096,9.0486146,Enqulal Fabrica,38.7375414,0
,node/10936724097,9.0485559,Enqulal Fabrica,38.7377157,0
,node/10937101933,8.9975486,karl Square,38.731079,0
,node/10937167108,9.0442105,6 Kilo,38.7610795,0
,node/10937167109,9.0442026,6 Kilo,38.7614376,0
,node/10937209934,8.9877236,Kera,38.7484685,0
,node/10937271651,9.0652788,Kechenie,38.7497785,0
,node/10961301939,9.033877,Mesalemia,38.7252968,0
,node/10961301940,9.0339779,Mesalemia,38.7255313,0
,node/10961301941,9.0338527,Merkato,38.7312096,0
,node/10961301942,9.0337645,Merkato,38.7312282,0
,node/10961408041,9.028926,Tekle Haimanot,38.7433286,0
,node/10961408042,9.0264526,Abuare Roundabout,38.7757907,0
,node/10961408043,9.0265186,Abuare Roundabout,38.7759091,0
,node/10961408397,9.0178983,Keranio Adebabay,38.7007101,0
,node/10961408398,9.014972,Mendida,38.7004401,0
,node/10961408399,9.0151204,Mendida,38.7004576,0
,node/10963292174,8.9983425,Bole Medhanyalem,38.7860616,0
,node/10963292175,8.9984526,Bole Medhanyalem,38.7862416,0
,node/10963817572,9.0231558,Weybla Mariam,38.688451,0
,node/10963817573,9.0233344,Weybla Mariam,38.6882249,0
,node/10963932669,9.0159879,22 Mazoria,38.7889432,0
,node/10964879159,8.9884101,Bisrate Gebrael,38.7226406,0
,node/10970584167,9.0333084,Luwkanda,38.7086432,0
,node/10970584168,9.0332835,Luwkanda,38.7086485,0
,node/10970584169,9.0335266,18 Mazoria,38.7126753,0
,node/10970584170,9.0335023,18 Mazoria,38.7126794,0
,node/10970584171,9.0372905,Abysinia Coffee,38.7164132,0
,node/10970584172,9.037294,Abysinia Coffee,38.7164416,0
,node/10970748190,9.0337305,18 Mazoria,38.7149465,0
,node/10970748192,9.0515413,4 Menta Adebabay,38.7087797,0
,node/10970748193,9.0514981,4 Menta Adebabay,38.7088057,0
,node/10970748194,9.0503697,Tero Mosque,38.7058937,0
,node/10970748195,9.0503743,Tero Mosque,38.7058901,0
,node/10970823802,9.0294218,Sebategna,38.7327781,0
,node/10970823803,9.0294686,Sebategna,38.732906,0
,node/10970829160,9.0350955,Piassa Arada,38.7492677,0
,node/10970912911,9.033556,Piassa Arada,38.7535518,0
,node/10970912912,9.0542225,Rufael,38.6992026,0
,node/10970912913,9.0542148,Rufael,38.6992201,0
,node/10973319411,8.9922493,Selefia Mosque,38.6737826,0
,node/10973319412,8.9922388,Selefia Mosque,38.6737682,0
,node/10973319413,9.0343357,Piassa Arada,38.7498429,0
,node/10973319414,9.0343492,Piassa Arada,38.749831,0
,node/10973319416,9.0610285,Shiromeda,38.7606274,0
,node/10973319417,9.0610076,Shiromeda,38.760666,0
,node/10973446898,8.8697296,Akaki Gebeya,38.7886493,0
,node/10973446899,8.8697306,Akaki Gebeya,38.7886284,0
,node/10973446900,8.8769296,Meshualekya,38.7864676,0
,node/10973631794,8.9482942,Mebrathayil,38.734517,0
,node/10973631795,8.9481457,Mebrathayil,38.7344951,0
,node/10973631797,8.9473757,Lafto,38.7443373,0
,node/10973672014,8.8667554,Yeshi Total,38.798935,0
,node/10973929780,9.0206661,Megenagna,38.8028464,0
,node/10973929781,9.0339313,Biretabret,38.8234705,0
,node/10973929783,9.0375694,Hanna Mariam,38.8316053,0
,node/10973929784,9.037593,Hanna Mariam,38.8316071,0
,node/10973929786,9.0374618,Kotebe Teachers College,38.8388573,0
,node/10973929787,9.0390977,Kotebe Gebriel,38.8505525,0
,node/10973929788,9.039072,Kotebe Gebriel,38.8505551,0
,node/10973960231,9.0357328,Kotebe,38.8279461,0
,node/10973960232,9.035744,Kotebe,38.8279666,0
,node/10973960233,9.0343234,Kebena,38.7769466,0
,node/10974036529,9.0637787,Yeka Abado,38.8735567,0
,node/10974036530,9.0638007,Yeka Abado,38.8734371,0
,node/10989247669,8.9948109,Taxi Tera,38.8092174,0
,node/10989247670,8.9888698,Bole Bridge,38.7945353,0
,node/10989247671,9.0048732,Summit,38.8517594,0
,node/10989247672,9.0050343,Summit,38.8520615,0
,node/10989247673,9.0005807,Medhanalem,38.838022,0
,node/10989247674,9.0002413,Medhanalem,38.8382224,0
,node/10989306740,8.9791887,Bole Mickael,38.7737291,0
,node/10989306742,8.979439,Bole Mickael,38.7732491,0
,node/10989306744,8.9647488,Riventy,38.798111,0
,node/10989306745,8.9647649,Riventy,38.7981165,0
,node/10989322788,9.0437261,Lomi Meda,38.6991226,0
,node/10989322789,9.0423415,Philiphs,38.7046602,0
,node/10989322790,9.0423523,Philiphs,38.7046599,0
,node/10989322793,9.0417345,Atena Tera,38.7116329,0
,node/10989322794,9.0417198,Atena Tera,38.7116327,0
,node/10989352901,9.0418861,Atena Tera,38.7128543,0
,node/10989352903,9.0419946,Atena Tera,38.7136815,0
,node/10989352904,9.037404,Kolfe,38.7169566,0
,node/10989388405,9.0373552,Kolfe,38.7170428,0
,node/10989388406,9.0376969,Chid Tera,38.7213864,0
,node/10989388407,9.0375624,Chid Tera,38.7215618,0
,node/10989495135,9.0339795,Tourist Hotel,38.760933,0
,node/10989495136,9.0331899,Tourist Hotel,38.7627083,0
,node/10989495137,9.0365466,St. George Church,38.7522109,0
,node/10989495138,9.0365649,St. George Church,38.7524292,0
,node/10989606497,9.0280891,Amanuel Church,38.723026,0
,node/10989606498,9.0280827,Amanuel Church,38.7230514,0
,node/10989606501,9.0330957,Mesalemia,38.7246409,0
,node/10989606502,9.0330994,Mesalemia,38.7246228,0
,node/10989606503,9.0170151,Coca Cola,38.729182,0
,node/10989606504,9.0169029,Coca Cola,38.7293902,0
,node/10989700748,9.0216869,Tikur Anbesa,38.7477611,0
,node/10989700750,9.0214822,Tikur Anbesa,38.7476433,0
,node/10989765272,9.0198621,Megenagna,38.8028176,0
,node/10991706244,9.0331305,Tourist Hotel,38.7619614,0
,node/10991706246,9.018399,Ambasader,38.7538719,0
,node/10991706247,9.0182782,Ambasader,38.7539744,0
,node/10991763449,9.0515112,Manen,38.7588533,0
,node/10991763450,9.0515112,Manen,38.7588598,0
,node/10992050085,8.883961,Selam Building,38.776766,0
,node/10992073740,8.944348,Saris Abo,38.7693473,0
,node/10992247910,8.883111,Selam Building,38.7772664,0
,node/10992247911,8.8801893,Gelan Condominium,38.768463,0
,node/10992247913,8.8801651,Gelan Condominium,38.7684764,0
,node/10994789635,8.8738823,Breta bret,38.7887302,0
,node/10994942333,8.867782,Akaki CBE,38.7888076,0
,node/10994942334,8.8679415,Akaki CBE,38.7887141,0
,node/10995013009,9.0098456,Mexico,38.7462885,0
,node/10995013010,8.9470636,Lafto,38.7443751,0
,node/10995013013,8.9537702,Lafto (Mickael),38.7504178,0
,node/10995113524,9.0051854,Woyira Sefer,38.7070388,0
,node/10995113525,9.0050595,Woyira Sefer,38.7068721,0
,node/10996939227,8.9932233,Total 3 Kutir mazoria,38.7170312,0
,node/10997112356,8.9671943,Mebrat,38.7486669,0
,node/10997112357,8.9671522,Mebrat,38.7487468,0
,node/10997112358,8.9621911,Biharetsege,38.7515775,0
,node/10997112359,8.9622089,Biharetsege,38.7515885,0
,node/10997112361,8.9576758,Adey Abeba,38.7631284,0
,node/10997112362,8.9576954,Adey Abeba,38.7631332,0
,node/10997112364,8.9758799,Gofa Gebriel,38.7488713,0
,node/10997112365,8.9758721,Gofa Gebriel,38.7489751,0
,node/10997125769,9.0196301,Abenet,38.7332825,0
,node/10997242295,8.963665,Weleta,38.6708623,0
,node/10997242296,8.9636677,Weleta,38.6708779,0
,node/10997242298,8.9666342,Weleta Tele,38.6731812,0
,node/10997242299,8.9764681,Repi Highschool,38.6774372,0
,node/10997242300,8.9765185,Repi Highschool,38.6774017,0
,node/10997243557,9.0576594,Sara Ampol,38.8741609,0
,node/10997243558,9.0575648,Sara Ampol,38.874351,0
,node/10997243559,9.0480764,Kara Condominium,38.8693718,0
,node/10997243560,9.0480356,Kara Condominium,38.8695015,0
,node/10997360870,9.0107982,Torhayloch,38.7207531,0
,node/10997382833,9.0114511,Mexico,38.7447026,0
,node/10997382834,9.0114533,Mexico,38.7445835,0
,node/10997495133,9.01285,Mexico,38.7440492,0
,node/10997495134,9.01282,Mexico,38.74405,0
,node/10997495135,9.0163639,Darmar,38.7345884,0
,node/10998041498,9.0329801,Piassa Arada,38.7545702,0
,node/10998041499,9.0334582,Piassa Arada,38.7537202,0
,node/10998041503,9.025295,Shola,38.7949306,0
,node/10998041504,9.0251357,Shola,38.7947575,0
,node/11033818190,8.8954024,Kality Meneharia,38.7722516,0
,node/11033818192,8.9361073,Kality Maseltegna,38.7642175,0
,node/11033818193,8.9994656,AU (Mikael) Rounrdabout,38.7406449,0
,node/11033818195,9.0089885,Mexico,38.7438741,0
,node/11033818196,9.0089241,Mexico,38.7440373,0
,node/11033818197,8.9945922,Bulgaria Mazoria,38.7474194,0
,node/11033818199,9.0316048,Autobis Tera,38.7373077,0
,node/11033818200,9.0299591,Autobis Tera,38.7377146,0
,node/11033903482,8.9864921,Kera,38.7483364,0
,node/11034015157,8.9450004,Saris Abo,38.7661144,0
,node/11034015158,9.0331054,Piassa Arada,38.7522899,0
,node/11034015159,9.0321742,Piassa Arada,38.7511155,0
,node/11034031010,9.03055,Autobis Tera,38.7370369,0
,node/11034031011,9.0626384,Shero Meda,38.7612633,0
,node/11034031012,9.0583756,Tsehay Chora (ShiroMeda),38.7598757,0
,node/11034031013,9.0351037,Abune Petros,38.7493262,0
,node/11034054993,9.0777204,Kuskoam,38.7572407,0
,node/11034209866,9.0321373,Arat Kilo,38.7654122,0
,node/11034280233,8.9753965,Kara Kore,38.6806691,0
,node/11034280234,8.9825611,Ayer Tena,38.6960927,0
,node/11034280236,8.9753861,Kara Kore,38.6805349,0
,node/11034427397,9.0426561,Lion Zoo (PEPSI Kiosk),38.7614325,0
,node/11034427398,9.0571131,Abo Mazoriya,38.777181,0
,node/11034427399,9.0608545,Yeha,38.7835816,0
,node/11034427400,9.0622785,Gurara,38.7880233,0
,node/11034427401,9.0624066,Gurara,38.7888027,0
,node/11034511605,8.9535755,Saris,38.7634093,0
,node/11034511606,8.9535945,Saris,38.7636248,0
,node/11034611751,9.0296904,Autobis Tera,38.7371486,0
,node/11034647605,9.0221498,Megenagna,38.8004821,0
,node/11035234709,9.0115667,Torhailoch,38.7220211,0
,node/11035240260,9.0376857,Chid Tera,38.7214866,0
,node/11035502832,8.9837379,Ayer Tena,38.6971291,0
,node/11035502833,8.9836981,Ayer Tena,38.7015659,0
,node/11035532608,8.9914198,Bisrate Gebrael,38.7255627,0
,node/11035607129,9.0191017,Zenebewerk Hotel,38.7682089,0
,node/11035607130,9.0107497,Estifanos,38.7636411,0
,node/11035607131,9.0109263,Lideta Condominium,38.7386025,0
,node/11035662205,8.9882771,Zenebework,38.7080773,0
,node/11035734852,9.0165403,Darmar,38.7377271,0
,node/11035734855,8.9270084,Hana Maryam,38.7418753,0
,node/11035818337,9.058672,Bercheko Condominium,38.700756,0
,node/11035914858,8.9231915,Alem Gena,38.6529741,0
,node/11035914859,8.9494175,Noc,38.6701962,0
,node/11035914860,8.9490541,Noc,38.6699835,0
,node/11035914861,8.9665643,Welete Tele,38.6732105,0
,node/11035914862,8.9635929,Welete,38.6708945,0
,node/11035914863,8.9641803,Weleta,38.6707668,0
,node/11035914864,8.9666144,Weleta Tele,38.6731872,0
