stop_lat,stop_name,stop_id,stop_lon,location_type,parent_station
9.0210263001,C.M.C,way/604046026,38.8504558,0,
9.0209365501,C.M.C,way/604046027,38.85044875,0,
9.0206309001,Meri,way/604046028,38.86039005,0,
9.0205342501,Meri,way/604046029,38.86039745,0,
9.0212283001,Ayat,way/604046052,38.8717948,0,
9.0211369001,Ayat,way/604046053,38.87179745,0,
9.0213594001,St. Michael,way/758915882,38.8426211,0,
9.0214511001,St. Michael,way/758915883,38.8426345,0,
9.0208269001,Management Institute,way/758919087,38.8284090499,0,
9.0209051001,Management Institute,way/758919088,38.8283603999,0,
9.0216842501,Civil Service College,way/758919089,38.83479945,0,
9.0217686501,Civil Service College,way/758919090,38.83479775,0,
9.0104366001,Bambis,way/758922739,38.76879995,0,
9.0103406001,Bambis,way/758922740,38.76877485,0,
9.01099095,St. Urael,way/758922741,38.77470515,0,
9.0148321501,Hayahulet 2,way/758922742,38.7832101499,0,
9.0149132501,Hayahulet 2,way/758922743,38.7832128499,0,
9.0161997001,Hayahulet 1,way/758922744,38.7893457,0,
9.0162805001,Hayahulet 1,way/758922745,38.7893058,0,
9.0178812001,Lem Hotel,way/758922746,38.7959009999,0,
9.0179702501,Lem Hotel,way/758922747,38.7958714999,0,
9.0196319001,Megenagna,way/758922751,38.8026662,0,
9.0201812501,Gurd Sholla 2,way/758922752,38.81016615,0,
9.0202704501,Gurd Sholla 2,way/758922753,38.8101826,0,
9.0190550501,Gurd Sholla 1,way/758922754,38.8199118,0,
9.0191373501,Gurd Sholla 1,way/758922755,38.8199363,0,
9.0114466001,Tor Hailoch,way/758926923,38.7228792001,0,
9.0113509001,Tor Hailoch,way/758926924,38.7228400001,0,
9.0120903001,Cocacola,way/758926925,38.72925215,0,
9.0120082001,Cocacola,way/758926926,38.72924475,0,
9.0113260501,St. Lideta,way/758926927,38.7358812,0,
9.0114191001,St. Lideta,way/758926928,38.735902,0,
9.0104883001,Tegbared,way/758926929,38.74251165,0,
9.0105720501,Tegbared,way/758926930,38.74252605,0,
9.0110042001,Mexico,way/758926931,38.7486780499,0,
9.0111035001,Mexico,way/758926932,38.7486304499,0,
9.0118976001,Leghar,way/758926933,38.75364485,0,
9.0118055501,Leghar,way/758926934,38.7536616,0,
9.0119426001,Stadium,way/758926935,38.75765945,0,
9.0120396501,Stadium,way/758926936,38.75768125,0,
9.0110094501,St. Estifanos,way/758926937,38.7633933,0,
9.0110866501,St. Estifanos,way/758926938,38.7634148,0,
9.0341520001,Gojam Berenda,way/759354435,38.7383589,0,
9.0342421001,Gojam Berenda,way/759354436,38.73838775,0,
9.0345698501,Atikilt Tera,way/759354437,38.7469346,0,
9.0346634001,Atikilt Tera,way/759354438,38.7469217,0,
8.938011,Kality,way/759359409,38.7631070001,0,
8.93795435,Kality,way/759359410,38.7630034001,0,
8.94501825,Abo Junction,way/759359411,38.7663008501,0,
8.9449765,Abo Junction,way/759359412,38.7662190501,0,
8.9519971333,Saris,way/759359413,38.7634466333,0,
8.9519912333,Saris,way/759359414,38.7633591333,0,
8.9567954,Adey Abeba,way/759359415,38.76388145,0,
8.9568021,Adey Abeba,way/759359416,38.76379965,0,
8.9903485,Lancha,way/759359417,38.75926535,0,
8.9903366,Lancha,way/759359418,38.75916345,0,
8.9952452,Temenja Yazh,way/759359419,38.7598284334,0,
8.9952399,Temenja Yazh,way/759359420,38.7597271667,0,
9.0005732,Riche,way/759359421,38.7587088,0,
9.00058575,Riche,way/759359422,38.7586096,0,
9.00485825,Meshwalekya,way/759359423,38.7588805,0,
9.00486215,Meshwalekya,way/759359424,38.7587524,0,
9.0154149,Darmar,way/759359425,38.73475,0,
9.01542485,Darmar,way/759359426,38.73466315,0,
9.0212786,Abnet,way/759359427,38.73335125,0,
9.0212687,Abnet,way/759359428,38.73341865,0,
9.0283819,Sebategna,way/759359429,38.73298775,0,
9.0284011,Sebategna,way/759359430,38.7330763,0,
9.0340910501,Autobus Tera,way/759359431,38.7329878,0,
9.0340079501,Autobus Tera,way/759359432,38.7329908,0,
8.9731988,Nifas Silk 2,way/759365358,38.7607979501,0,
8.97316965,Nifas Silk 2,way/759365359,38.7606849501,0,
8.9657149,Nifas Silk 1,way/759365360,38.7629963,0,
8.96571355,Nifas Silk 1,way/759365361,38.7628904,0,
9.0165395,Beherawi Theatre,node/847244293,38.7525538,0,
9.0209237,Black Lion,node/847244423,38.7521415,0,
9.0344007,4 Kilo,node/4832025024,38.7632408,0,
9.0223057,Lamberet Terminal (Bus),node/4884374622,38.8158571,0,
8.9929728,Sar Bet (Roundabout),node/5248250425,38.738182,0,
9.0164409,Ambassador,node/5330678521,38.7553162,0,
9.0120865,Stadium,node/5736089088,38.7570615,0,
9.0295451,Mebrathail,node/6251054285,38.7146778,0,
9.0654733,Asko,node/6307600909,38.6928185,0,
8.9976331,Bole Printing Press,node/6373574986,38.7718334,0,
9.0331479,Arada,node/6728583386,38.7516761,0,
9.0094665,Mexico,node/6814022390,38.7444332,0,
8.9644773,Mebrat Condominium,node/6967142984,38.7438796,0,
8.9673396,Mebrat,node/6967165728,38.7486643,0,
8.9771232,Gofa Gebriel,node/6967179322,38.7491221,0,
8.9825519,Kera (Gofa Road),node/6967179323,38.7498599,0,
9.0277111,Tewodros Square,node/6967225474,38.7516602,0,
8.9655968,German Square,node/6967234177,38.732897,0,
8.9899905,Friendship Building,node/6967281153,38.7859995,0,
9.0319356,Piassa (Downtown Cafe),node/6967281241,38.7512565,0,
9.0330123,Piassa Arada (2),node/6967281242,38.7526242,0,
9.0418236,Gojo,node/6967318740,38.6217166,0,
9.0203188,Megenagna Terminal,node/7022361366,38.8026673,0,
8.9885373,Bole Millenium,node/7022397409,38.7897496,0,
8.9887535,Bole Millenium,node/7022397410,38.789886,0,
8.9937973,Goro School,node/7022397411,38.8267584,0,
8.9720161,Bole Arabsa,node/7022397416,38.8906061,0,
8.9732168,Bole Arabsa,node/7022397417,38.8903477,0,
9.0561038,Aba Kiros Roundabout,node/7022397418,38.8785675,0,
9.0689298,Yeka Abado,node/7022397420,38.875565,0,
9.0688377,Yeka Abado,node/7022397421,38.8756232,0,
9.0626109,Gurara,node/7037142410,38.7894476,0,
9.026427,Abuare Roundabout,node/7037142414,38.7757967,0,
9.026504,Abuare Roundabout,node/7037142415,38.7759255,0,
9.0224201,Marathon Motor (Megenagna),node/7037142417,38.8000289,0,
9.060739,Yeha,node/7037142419,38.7836264,0,
9.0608445,Tena Tabya,node/7037142420,38.7839285,0,
9.0598571,Biret Dildiy (Bono Wuha),node/7037142421,38.7811505,0,
9.0599927,Bret Dildy (Bono Wuha),node/7037142422,38.7810894,0,
9.0042786,Atlas,node/7037142423,38.7797667,0,
8.9983386,Bole Medhanialem,node/7037142424,38.7860596,0,
8.9984556,Bole Medhanialem,node/7037142426,38.7862428,0,
9.0098865,24,node/7037142427,38.800549,0,
9.0221273,Dinberwa Hospital,node/7037142428,38.7866932,0,
9.0345238,Kokebe Tsebah School,node/7037142430,38.7802113,0,
9.034441,Kokebe Tsebah School,node/7037142431,38.7799476,0,
9.031876,Belgium Embassy,node/7037142433,38.7839469,0,
9.0311083,British Embassy,node/7037142434,38.784892,0,
9.0309087,British Embassy,node/7037142435,38.7855544,0,
9.0287538,Abebe Sook,node/7037142436,38.7887162,0,
9.0250779,Shola Gebeya,node/7037142438,38.7952986,0,
9.0244101,Yeka Michael,node/7037142439,38.7961373,0,
9.0180934,Megenagna,node/7037142441,38.8021491,0,
9.0182711,Megenagna,node/7037142442,38.8017521,0,
8.8869301,Derartu,node/7037142443,38.7818835,0,
8.8857405,Gelan Condominium,node/7037142444,38.7838224,0,
8.8844269,08 Adarash,node/7037142445,38.785591,0,
8.8768791,Meshuwalekia Akaki,node/7037142446,38.7865961,0,
8.8738843,Akaki Beretaberet,node/7037142448,38.7887478,0,
8.870907,G7 (Tulu Dimtu),node/7037142450,38.8207065,0,
8.8552763,Tulu Dimtu,node/7037142454,38.8042339,0,
8.8556159,Tulu Dimtu,node/7037142455,38.8041524,0,
8.8597556,Akaki Korkoro,node/7037142456,38.7961539,0,
8.8668237,Belay Ab Moters (Alem Bank),node/7037142458,38.7987744,0,
8.8688691,Tulu Dimtu (Taf Gas Station),node/7037142459,38.8051915,0,
8.8722685,Arsema,node/7037142460,38.8136608,0,
8.8722281,Selam Sefer (Tapela Gar),node/7037142461,38.8140262,0,
8.8747821,Tulu Dimtu Adebabay,node/7037142462,38.8201689,0,
8.8658608,Project 12 Akababi,node/7037142464,38.8218482,0,
8.8592154,Mahiber Betoch,node/7037142465,38.8148895,0,
8.9869933,Bole Dildiy,node/7037142466,38.7912061,0,
9.02034,Megenagna / Zefmesh,node/7037142467,38.8000136,0,
9.0213214,Megenagna,node/7037142469,38.8010735,0,
9.0217137,Megenagna,node/7037142470,38.8015921,0,
9.0215363,Abysinia Cafe Area,node/7037142471,38.8100422,0,
9.0213396,Abysinia Cafe Area,node/7037142472,38.810853,0,
9.0196778,Century Mall,node/7037142474,38.8132781,0,
9.0187352,Gurd-shola,node/7037142475,38.8215105,0,
9.0239816,Menaheria,node/7037142476,38.8192066,0,
9.0238758,Menaheria,node/7037142477,38.8192354,0,
9.003632,Gerji Mebrat Haile,node/7037142479,38.814876,0,
9.0037638,Gerji Mebrat Haile,node/7037142483,38.8132574,0,
9.0253421,Lamberet,node/7037142484,38.8251916,0,
9.0258842,Lamberet Area,node/7037183485,38.8271787,0,
9.0260507,Lamberet Area,node/7037183486,38.8273076,0,
9.0259969,Lamberet Area,node/7037183487,38.8271189,0,
8.9913503,Yerer Goro,node/7037183490,38.8294063,0,
8.9913192,Yerer Goro,node/7037183491,38.8292171,0,
9.020263,Se'alite Mihret Church,node/7037183492,38.8265756,0,
9.0203852,Management Institute,node/7037183493,38.82686,0,
9.0203048,Sealite Mihret,node/7037183494,38.8273219,0,
9.0216167,Civil Service College,node/7037183495,38.8342032,0,
9.021312,St. Michael,node/7037183496,38.8414217,0,
9.0215489,St. Micheal Church,node/7037183497,38.8425033,0,
9.0283709,Salite Mihret,node/7037183498,38.8331954,0,
9.0285264,Hillside (Ethio-China Mebrathaile),node/7037183499,38.8333256,0,
9.030459,Wessen Michael,node/7037183501,38.838592,0,
9.0330948,Wessen,node/7037183504,38.8442968,0,
9.033228,Wessen,node/7037183505,38.8445812,0,
9.0330982,Wessen (Mariam),node/7037183507,38.8446898,0,
9.0342084,Kotebe Teachers College,node/7037183508,38.8466963,0,
9.0357649,Yabem Hotel,node/7037183509,38.8533863,0,
9.036101,Kotebe Gebriel,node/7037183510,38.8545188,0,
9.0207031,Yetebaberut,node/7037183515,38.8539074,0,
9.0207092,Meri,node/7037183516,38.8603565,0,
9.0205124,Meri (Yetebaberut),node/7037183518,38.8610727,0,
9.0208331,Ayat,node/7037183519,38.8686047,0,
9.0210633,Ayat Zone 2,node/7037183520,38.8678248,0,
9.0379427,Kara (Turn),node/7037183521,38.8606002,0,
9.0401552,Medhanalem Church,node/7037183523,38.8640163,0,
9.0106828,Safari,node/7037183525,38.852259,0,
9.0043876,Summit (MOHA),node/7037183527,38.8520658,0,
8.9941038,Tena Tabeya,node/7037183529,38.860685,0,
8.9863905,Summit Condominiums,node/7037183531,38.857405,0,
8.9894728,Gate 2,node/7037183532,38.8582866,0,
9.0213287,Ayat Train Station,node/7037183535,38.8719812,0,
9.0211208,CMC,node/7037183536,38.872594,0,
9.0212396,Ayat Square,node/7037183537,38.8767684,0,
9.0216916,Feres Bet,node/7037183538,38.8862575,0,
9.0170704,Police Tabia,node/7037183539,38.8946069,0,
9.0222555,Tsebel,node/7037183540,38.891209,0,
9.0219034,Bono Meskid,node/7037183541,38.8902931,0,
9.0113906,Ayat Chefe Condominium,node/7037183542,38.8946677,0,
9.0109368,Ayat Chefe Condominium,node/7037183543,38.8944878,0,
9.0023517,Nebu Mikael,node/7037183545,38.8767662,0,
8.9965746,Ayat Adebabay Hulet (2),node/7037183546,38.8851706,0,
8.9963324,Bole Arabsa (3),node/7037183547,38.8855436,0,
8.9841602,Bole Arabsa (2),node/7037183548,38.8851362,0,
8.9733148,Bole Arabsa,node/7037183550,38.8902717,0,
8.9654075,St. Gebereal,node/7037183551,38.8849449,0,
9.0354891,Yeka Condominium 1,node/7037183552,38.877919,0,
9.0381306,Tafo Gebrael,node/7037183554,38.8777819,0,
9.0505157,Tafo Condominium 1,node/7037183555,38.8779667,0,
9.0425957,Tafo Mebrathail,node/7037183557,38.8773973,0,
9.0427743,Tafo Mebrathail,node/7037183558,38.877866,0,
9.0465834,Tafo Condominium 2,node/7037183559,38.8779122,0,
9.0501511,Kara Condominium,node/7037183562,38.8705589,0,
9.0666282,Yeka Abado,node/7037183563,38.8647703,0,
9.0571811,Sara Ampol (Gedera),node/7037183565,38.8737753,0,
9.0580264,Sara Ampol,node/7037183567,38.8742538,0,
9.0606875,Aba Kiros,node/7037183569,38.8812971,0,
9.0630654,Makefafeya,node/7037183570,38.8841651,0,
9.0670494,Gari Tera,node/7037183571,38.8892044,0,
9.0707009,CCD,node/7037183572,38.8938058,0,
9.0718221,140,node/7037183573,38.8952147,0,
9.0818058,Legedadi Mission,node/7037183574,38.9074861,0,
9.0821737,Legedadi Mission,node/7037183575,38.90832,0,
8.8832064,Selam Building,node/7041052894,38.7771628,0,
8.8910809,Gojo Hotel,node/7041052895,38.7768265,0,
8.8958596,Kality Meneharia,node/7041052896,38.7717913,0,
8.9029458,Cheralia Factory,node/7041052897,38.7668359,0,
8.9029223,Cheralia Factory,node/7041052898,38.7667452,0,
8.9113422,Kality Gebriel,node/7041052900,38.7638335,0,
8.9124672,Kality Prison,node/7041052901,38.7633323,0,
8.928137,Hana Maryam,node/7041052912,38.7416641,0,
8.9274906,Tabelew,node/7041052914,38.6590102,0,
8.9230001,Alem Gena,node/7041052916,38.6526472,0,
8.9229882,Alem Gena,node/7041052917,38.652656,0,
8.9683942,Mekanisa (Old Revenues Office),node/7041052927,38.73129,0,
8.9656974,German Square,node/7041052928,38.7327236,0,
8.9556239,Gebriel Bridge,node/7041052932,38.7324437,0,
8.955596,Gebriel Bridge,node/7041052934,38.7327233,0,
8.9469471,Mebrathile (EEPCo),node/7041052935,38.7339608,0,
8.9790248,Mekanisa School,node/7041052936,38.7341955,0,
8.9785916,Abo,node/7041052937,38.7339384,0,
8.973373,Sheged Hotel,node/7041052938,38.7246092,0,
8.9673959,Jemo Michael,node/7041052939,38.720836,0,
8.966996,Jemo Michael,node/7041052940,38.7209392,0,
8.9614893,Jemo YBP (All Mart),node/7041052942,38.7152564,0,
8.9606358,Jemo 1,node/7041052944,38.7123763,0,
8.9604074,Jemo 1,node/7041052945,38.7124284,0,
8.9595125,Mestawet Fabrica,node/7041052946,38.7084697,0,
8.958513,Mestawet Fabrica,node/7041052948,38.7059934,0,
8.9564,Jemo 3,node/7041052949,38.6992718,0,
8.9556244,Jemo 3,node/7041052950,38.6985348,0,
8.9866742,Zenebework,node/7041052951,38.7077567,0,
8.9611777,Welete Maryam,node/7041052952,38.6713097,0,
8.9657858,Mickael Bridge,node/7041052953,38.7272059,0,
8.9813447,Gerar,node/7041052954,38.689429,0,
8.9793804,Repi (Gerar),node/7041052955,38.6852022,0,
8.9773403,Gebre Kirstos,node/7041052957,38.7220154,0,
8.9884304,Bisrate Gebrael,node/7041052958,38.7228933,0,
8.9753751,Gofa Gebriel (2),node/7041052959,38.7488548,0,
8.9822682,MOHA (Pepsi Factory),node/7041052965,38.7560783,0,
8.9555778,Addis Sefer (Gebriel),node/7041052966,38.7743852,0,
8.9555403,Addis Sefer (Gebriel),node/7041052967,38.77441,0,
8.9762662,Gotera (Oilibiya),node/7041052969,38.7600125,0,
8.976182,Gotera (Oilibiya),node/7041052970,38.7598239,0,
8.9697308,St. Joseph Church,node/7041052975,38.7620577,0,
8.9659447,kadisco Building,node/7041052977,38.7627885,0,
8.965927,kadisco Building,node/7041052978,38.762999,0,
8.9637596,Kadisco,node/7041052979,38.7630788,0,
8.9583017,Adey Abeba,node/7041052980,38.7640609,0,
8.9582595,Adey Abeba,node/7041052982,38.7638459,0,
8.9528662,Saris (CBE),node/7041071286,38.7635583,0,
8.9527596,Saris (CBE/Shoa Bakery),node/7041071287,38.7633266,0,
8.9450003,Abo Junction,node/7041071289,38.7661044,0,
8.9450733,Abo Junction,node/7041071290,38.7663069,0,
8.9380959,Customs (Train Station),node/7041071291,38.763132,0,
8.9323275,Kality Maseltegna,node/7041071295,38.766627,0,
8.9298185,Wehalemat,node/7041071296,38.7681616,0,
8.9331651,Werku Sefer,node/7041071297,38.775077,0,
8.9950292,Bulgaria Mazoria,node/7041071342,38.7478244,0,
8.9971703,Begtera,node/7041071344,38.7475059,0,
8.9990638,AU (Mikael) Rounrdabout,node/7041071347,38.7394459,0,
8.9990569,AU (Mikael) Rounrdabout,node/7041071348,38.7395945,0,
8.9937942,Bulgaria,node/7041071350,38.7478465,0,
8.9941475,Global Hotel,node/7041071352,38.7595772,0,
8.9941836,Global Hotel,node/7041071353,38.7598183,0,
8.9953383,Beklo Bet (Global),node/7041071354,38.7596352,0,
9.000141,Tele Garage,node/7041071355,38.7584812,0,
9.0043253,Riche,node/7041071356,38.7586986,0,
9.0166957,6th (Raddison Blu),node/7041071359,38.7669535,0,
9.017718,Filweha (Hotsprings),node/7041071360,38.7572645,0,
9.0175554,Filweha (Hotsprings),node/7041071362,38.7570579,0,
9.0138328,Ghion Hotel (Enterance),node/7041071364,38.7576145,0,
9.0098008,St. Joseph School,node/7041071367,38.7591876,0,
9.0104995,St. Joseph School,node/7041071370,38.7592761,0,
9.0105316,Admas University College,node/7041071371,38.7590434,0,
9.0118612,Lalibela Hotel,node/7041071372,38.7570112,0,
9.0121294,Stadium,node/7041071374,38.7560438,0,
9.011849,Legehar,node/7041071376,38.7545386,0,
9.0117857,Legehar,node/7041071377,38.7539285,0,
9.0109604,Legehar (Old Train Station),node/7041071378,38.7533069,0,
9.0105723,Legehar (Old Train Station),node/7041071379,38.7529712,0,
9.0097755,Mexico,node/7041071380,38.7461963,0,
9.0031416,African Union,node/7041071382,38.7414166,0,
9.0053059,Popolare,node/7041071383,38.7423863,0,
9.0046908,Guenet Hotel,node/7041071384,38.7466748,0,
9.0032786,Guenet Hotel,node/7041071385,38.74694,0,
9.0210743,Tikur Anbessa Hospital,node/7041071386,38.7488977,0,
9.0175858,Goma Quteba,node/7041071387,38.7464317,0,
9.0214263,Abenet,node/7041071388,38.7334947,0,
9.0132791,Lideta Condominium,node/7041071389,38.7345522,0,
9.0157856,Darmar,node/7041071390,38.7348248,0,
8.9939406,Austria Embassy,node/7041071392,38.7278809,0,
8.9936591,Mechare Meda,node/7041071393,38.727499,0,
8.9925902,3 Kutir Mazoriya (Total),node/7041071395,38.7152417,0,
8.995414,Minaye Building,node/7041071397,38.7184074,0,
8.9998642,Old Airport (Mobil),node/7041071399,38.7191221,0,
9.0099949,Tor Hailoch,node/7041071400,38.7206897,0,
9.0133411,Keranio Mewcha,node/7041071401,38.7100309,0,
9.0213057,Holand,node/7041071402,38.7159484,0,
9.0245409,Meseret Edget,node/7041071403,38.714954,0,
9.0278226,Teklehaymanot,node/7041071404,38.7440603,0,
9.0247481,Kebele 11,node/7041071405,38.7458014,0,
9.0262634,Tewodros Square,node/7041071406,38.75166,0,
9.0263826,Tewodros Square,node/7041071407,38.7517909,0,
9.0218352,Black Lion,node/7041071411,38.7521859,0,
9.0158768,National Theatre,node/7041071414,38.751592,0,
9.0156938,National Theatre,node/7041071415,38.7513097,0,
9.0139102,A.A. Commercial College,node/7041071416,38.7494881,0,
9.0138228,A.A. Commercial College,node/7041071418,38.7495568,0,
9.0114261,Buna Ena Shay,node/7041071419,38.7490599,0,
9.0105922,Buna Ena Shay,node/7041071420,38.7479733,0,
9.0119916,Mexico Shebelle Hotel,node/7041071423,38.7468862,0,
9.0105894,TVET College (Tegbare'd),node/7041071425,38.7429038,0,
9.0103865,Federal Police (Tegbare'd),node/7041071429,38.7426638,0,
9.0109303,Lideta (Balcha Hospital),node/7041071430,38.738603,0,
9.0111161,Lideta (Balcha Hospital),node/7041071431,38.7385604,0,
9.011233,Lideta Condominium,node/7041071432,38.7377815,0,
9.0041706,Lideta Tsebel,node/7041071433,38.733822,0,
9.0093091,Dessie Hotel,node/7041071434,38.7338119,0,
9.0108572,High Court,node/7041071435,38.7342297,0,
9.0115829,Lideta High Court,node/7041071437,38.733431,0,
9.0121559,Hintsa College,node/7041071439,38.7293132,0,
9.0119411,Coca Cafe,node/7041071441,38.7292339,0,
9.011282,Mekonenoch (Golf) Club,node/7041071444,38.7265458,0,
9.0115616,Tor Hailoch Junction,node/7041071446,38.7220202,0,
9.0119442,Torhailoch,node/7041071447,38.7216866,0,
9.0139112,Tor Hailoch,node/7041071448,38.7206478,0,
9.013939,Tor Hailoch,node/7041071449,38.7209168,0,
9.0194506,Keranio Bridge,node/7041071450,38.7089411,0,
9.0175679,Medhanialem,node/7041071451,38.7049748,0,
9.0176634,Keranio Adebabay,node/7041071452,38.7006446,0,
9.0180779,Kokebe,node/7041071453,38.6994971,0,
9.0195382,Yeshi Debele,node/7041071454,38.6954056,0,
9.0190748,Yeshi Debele,node/7041071455,38.6957701,0,
9.0231539,Mariam,node/7041071456,38.6884518,0,
9.021983,Anfo Meda,node/7041071458,38.6742682,0,
9.0110433,St. Urael Church,node/7041071459,38.7752596,0,
9.0104908,Salcost Apartments (NOC),node/7041071461,38.766397,0,
9.0118738,St. Estifanos Church,node/7041071462,38.7626376,0,
9.0199107,St. Gebriel,node/7041071464,38.7675809,0,
9.0193852,Zenebewerk Hotel,node/7041071465,38.7680315,0,
9.0206693,Meles Zenawi Foundation,node/7041071466,38.7715231,0,
9.0194316,Azmari Bet (Traditional Music Club),node/7041071468,38.770643,0,
9.0166401,Kazanchis (6th),node/7041071469,38.7702335,0,
9.0196382,Hilton Hotel (Apartments),node/7041071471,38.7638714,0,
9.0233468,Women Square,node/7041071473,38.7772342,0,
9.0234508,Women Square,node/7041071474,38.7771738,0,
9.0244322,Aware Bridge,node/7041071475,38.7765755,0,
9.0319312,Arat Kilo,node/7041071479,38.7633615,0,
9.0321438,Arat Kilo,node/7041071480,38.7652099,0,
9.032458,Bel Air,node/7041071481,38.7728461,0,
9.0324918,Addis View Hotel,node/7041071482,38.7730493,0,
9.0385863,Menlik II Hospital,node/7041071483,38.7730546,0,
9.0388201,Menlik Hospital,node/7041071484,38.7719268,0,
9.0365854,Piassa Arada,node/7041071579,38.7522655,0,
9.0363921,Piassa Arada,node/7041071580,38.7524177,0,
9.0354406,Piassa Arada,node/7041071592,38.7523243,0,
9.0352553,Habtegiorgis Bridge,node/7041071594,38.7491242,0,
9.0343899,Kurtu Building,node/7041071595,38.7438917,0,
9.0341887,Kurtu Building,node/7041071596,38.7437548,0,
9.0343321,Pharmacy,node/7041071597,38.7434135,0,
9.0343947,Gojam Berenda,node/7041071598,38.737968,0,
9.0342308,Autobis Tera (3),node/7041071599,38.7337775,0,
9.03371,Autobus Tera,node/7041071600,38.7298446,0,
9.0338533,Darsema Grosery,node/7041071601,38.7294433,0,
9.0408355,Millenium School,node/7041071602,38.7101875,0,
9.04636,Girum Hospital,node/7041071604,38.7200106,0,
9.0407262,Woreda 7 TVET,node/7041071605,38.7212396,0,
9.0366318,Sefere Salam,node/7041071606,38.7219216,0,
9.037044,Kolfe,node/7041071607,38.7173824,0,
9.0373422,Abysinia Coffee,node/7041071608,38.7164487,0,
9.0338162,Degu Hotel,node/7041071609,38.7151531,0,
9.0335338,18 Mazoria,node/7041071610,38.7130781,0,
9.0335825,18 Mazoria,node/7041071612,38.7135105,0,
9.0333303,Luwkanda,node/7041071614,38.7093322,0,
9.0340139,Comprensive,node/7041071615,38.704541,0,
9.0327975,Realstate,node/7041071616,38.6951186,0,
9.034058,Police Tabiya,node/7041071619,38.6888917,0,
9.0353789,Feli Doro (3),node/7041071622,38.6853297,0,
9.0389362,Ras Mekonene Bridge (Seba Dereja),node/7041071628,38.7568178,0,
9.0385989,5 Kilo (History Museum),node/7041071629,38.7625491,0,
9.0408311,5 Kilo University,node/7041071630,38.761951,0,
9.0427151,Lion Zoo (PEPSI Kiosk),node/7041071633,38.7615693,0,
9.0438891,Yekatit 12 Hospital,node/7041071636,38.7603878,0,
9.0436921,Yeatit 12 Hospital,node/7041071637,38.7593176,0,
9.0386136,Red-Cross (St. George Total),node/7041071638,38.7527639,0,
9.0386684,St. George Church (Total),node/7041071639,38.7517494,0,
9.0436522,Semen Hotel,node/7041071640,38.7488778,0,
9.0446929,Semen Hotel,node/7041071641,38.7482928,0,
9.0486023,Kelemwerk,node/7041071642,38.7461719,0,
9.0488673,Kelemwerk,node/7041071643,38.7458026,0,
9.0512494,Tibeb Ediget School,node/7041071645,38.7443439,0,
9.0523631,Semen Mazegaga,node/7041071646,38.7433813,0,
9.0537306,Semen Mazagaja,node/7041071647,38.7424925,0,
9.0541015,Shegole Bank,node/7041071648,38.7200104,0,
9.0474202,Pawlos Hospital,node/7041071649,38.7277601,0,
9.0514832,Finance,node/7041071650,38.7221677,0,
9.0513651,Medhanialem (TOTAL),node/7041071651,38.7220512,0,
9.0528369,Finance,node/7041071653,38.7201878,0,
9.0531245,Finance,node/7041071654,38.7199027,0,
9.0544244,Winget Chaf,node/7041071655,38.7149847,0,
9.051327,Mikili Land,node/7041071658,38.6987792,0,
9.0571703,Winget Adebabay,node/7041071659,38.7137033,0,
9.0576087,Awolia,node/7041071660,38.7116367,0,
9.0577975,Gulele Fana,node/7041071661,38.7067279,0,
9.0582376,Gulele Fana,node/7041071662,38.7065488,0,
9.0593548,Berchiko,node/7041071663,38.7034077,0,
9.0665816,Gebriel (Sansusi),node/7041071665,38.69045,0,
9.057952,Bono Weha,node/7041071718,38.7791204,0,
9.053538,Mezan,node/7041071719,38.7722233,0,
9.0470252,3rd Shaleka,node/7041071721,38.7690705,0,
9.0461753,6 kilo (University),node/7041071723,38.7615547,0,
9.0513004,Meksaye Hizunan Medhanialem,node/7041071725,38.7622054,0,
9.052326,Teferi Mekonen,node/7041071726,38.7622236,0,
9.0541533,Sebseba Maekel,node/7041071729,38.7625698,0,
9.0649811,Eyesus,node/7041071737,38.7715088,0,
9.0585516,Hamle 19,node/7041071738,38.7680987,0,
9.0692162,Selassie,node/7041071740,38.7607205,0,
9.0745256,Sanba Nekersa-Shiromeda,node/7041071741,38.7590628,0,
9.0777328,Kuskoam,node/7041071742,38.7572536,0,
9.0710894,Dil Ber,node/7041071749,38.7374397,0,
9.0638294,Anbessa Garage (Shegole),node/7041071753,38.7204079,0,
9.0691617,Kebt Beret,node/7041071754,38.7182194,0,
9.0843712,Entoto Kela,node/7041071755,38.7230011,0,
9.1051152,Weserbi Realestate,node/7041071758,38.7095299,0,
9.1095355,Classy Water,node/7041071759,38.7147037,0,
9.1100449,Medret Hotel,node/7041071760,38.7158285,0,
9.1176074,Kburea,node/7041071761,38.7300979,0,
9.1179357,Kenenisa,node/7041071762,38.7304557,0,
9.1273122,Shefunea,node/7041071763,38.7395293,0,
9.1277902,Shefine,node/7041071764,38.7397834,0,
9.1339361,Doro Erbata,node/7041071772,38.7522344,0,
9.1341343,Abo Gabriel,node/7041071773,38.7524529,0,
9.1408321,Tulu Fati,node/7041071774,38.7549356,0,
9.1449015,Ashewa,node/7041071775,38.7538733,0,
9.1560016,Tabya Hotel,node/7041071776,38.7542489,0,
8.9929589,Sar Bet (Roundabout),node/7047495429,38.738359,0,
9.0286142,United Bank (Ashewa Meda),node/7047495432,38.6600221,0,
8.9208064,Sefera,node/7047495433,38.7346499,0,
8.9473774,Lafto,node/7049122264,38.744323,0,
8.935835,Hana Mariam (2),node/7049122265,38.7440895,0,
8.9387647,Haile Garment,node/7049122266,38.7345586,0,
9.0304285,Yekiber Demena Church,node/7049921444,38.8779866,0,
9.0204726,Megenagna Terminal,node/7049921445,38.8024339,0,
9.0220882,Hill Bottom (Recreation),node/7049921447,38.8759579,0,
9.0304125,Zone 8,node/7049921448,38.8775474,0,
9.0570656,Aba Kiros (Tafo) Roundabout,node/7049921449,38.8779122,0,
9.0566049,Tafo Junction,node/7050234123,38.8790275,0,
9.0476858,6 Kilo,node/7054842410,38.7617178,0,
9.0476498,6 Kilo,node/7054842414,38.7617169,0,
9.0101478,Legehar (Old Train Station),node/7055060064,38.7533495,0,
9.0359897,Kotebe Gebriel,node/7055598734,38.8546711,0,
9.0269686,Ahmed Building,node/7055598736,38.8299268,0,
9.0363488,St. Mary Church,node/7055598738,38.7579049,0,
9.0335541,Piassa Arada,node/7055598739,38.7535483,0,
9.0327818,Piassa Arada,node/7055598742,38.7534018,0,
9.0363807,St. Mary Church,node/7055598743,38.7579442,0,
9.0274541,NOC End,node/7055598744,38.8307544,0,
9.0341209,Kotebe Teachers College,node/7056754511,38.8467717,0,
9.0630764,Meskelegna (Ababdo),node/7056754514,38.8732637,0,
9.020907,Megenagna,node/7056754516,38.8022361,0,
9.0041945,Atlas,node/7057002158,38.779674,0,
9.0329242,Piassa Arada,node/7057002161,38.7528717,0,
9.0389386,Ras Mekonene Bridge (Seba Dereja),node/7057002162,38.7568279,0,
9.0226675,Gibi Gebriel Church,node/7057002163,38.7626361,0,
8.9904207,Brass Clinic (Bole),node/7057187392,38.7929906,0,
8.9903142,Brass Clinic (Bole),node/7057187393,38.7932003,0,
9.0379471,St.Gorgis,node/7062689844,38.7519784,0,
9.0358742,St. George Church (2),node/7062689845,38.751629,0,
9.0345896,Piassa,node/7062689848,38.7549398,0,
9.0325203,Arat Kilo,node/7062689850,38.764362,0,
9.0344021,4 Kilo,node/7062689851,38.7630946,0,
9.0506154,Medhanialem,node/7062689852,38.7621098,0,
9.0441091,Education Bureau (6 Kilo),node/7062689854,38.7636034,0,
9.0471236,Jan Meda,node/7062689855,38.7690204,0,
9.0557922,Frensaye Kela,node/7062689856,38.7742742,0,
9.0551762,Frensaye Kela,node/7062689857,38.7736282,0,
9.0569998,Abo Mazoriya,node/7062689858,38.7777387,0,
9.0623294,Gurara,node/7062689859,38.7881845,0,
8.9730894,Mamo (NFSL TVET),node/7067942461,38.7608987,0,
8.988213,Agona Cinema,node/7067942462,38.7595747,0,
8.9882665,Agona Cinema,node/7067942463,38.7597959,0,
9.0004682,Tele Garage,node/7067942465,38.7587377,0,
9.0145395,Zerihun Building,node/7067990019,38.7824519,0,
9.0166971,6th (Raddison Blu),node/7067990020,38.7669539,0,
9.026432,National Palace,node/7070861695,38.7621456,0,
8.9897614,SNAP Building,node/7070861696,38.7872174,0,
8.9908557,Friendship,node/7070861697,38.7844888,0,
8.9917592,Heber Restaurant,node/7070861698,38.7822311,0,
8.992295,RWANDA (Werbek House),node/7070861699,38.7791533,0,
8.9924,Rwanda,node/7070861701,38.7798477,0,
8.9966227,Bole Printing Press,node/7070861702,38.7723732,0,
8.9976714,Bole Printing Press,node/7070861703,38.7715908,0,
8.9993469,Mega Printing Press,node/7070861704,38.7708659,0,
9.001132,Shewa Dabo,node/7070861705,38.7697078,0,
9.0014126,Getu Commercial Center,node/7070861706,38.7697673,0,
9.004953,Dembel City Center,node/7070861707,38.7678519,0,
9.0100482,Flamingo,node/7070861710,38.7634195,0,
9.0358425,Piassa Arada,node/7070861712,38.7527123,0,
9.0074376,Anbessa Garage,node/7070861713,38.8054033,0,
9.0221276,Ayat Roundabout,node/7070861714,38.876525,0,
9.0401288,Gebriel,node/7070861716,38.8777949,0,
9.0527134,Semen Mazegaja | ሰሜን ማዘጋጃ,node/7074233342,38.7433527,0,
9.0559007,Del Ber School,node/7074233343,38.7411604,0,
9.0592088,Adisu Gebeya,node/7074233344,38.7379037,0,
9.061605,Kelebat,node/7074233345,38.7355505,0,
9.0679367,Oilibiya (Dil Ber),node/7074233346,38.7347909,0,
9.0463006,Pastor,node/7074267433,38.7301845,0,
9.051161,Medhanialem,node/7074267434,38.7228618,0,
9.0554455,Winget,node/7074267435,38.7138884,0,
9.0576131,Kela,node/7074269464,38.6101592,0,
9.0576152,Kela,node/7074269465,38.6101611,0,
9.0452427,Semen Hotel,node/7074275407,38.7481339,0,
8.9866969,Kera,node/7074294627,38.7484333,0,
9.0653014,Asko,node/7074299254,38.6922669,0,
9.0286512,Sebategna,node/7074324043,38.733098,0,
9.0317912,Autobis Tera (2),node/7074324044,38.7324012,0,
9.0347276,Autobis Tera,node/7074324045,38.7321005,0,
8.9733512,Mekanisa,node/7074326525,38.7315967,0,
8.9822244,Abo Mazoria,node/7074326526,38.7343058,0,
8.9894962,Gate 2,node/7074330387,38.8580841,0,
8.9942098,Tena Tabeya,node/7074330389,38.8605382,0,
8.9984544,Condminium (Gate),node/7074330391,38.8602323,0,
9.0014062,Gomista,node/7074330392,38.8573283,0,
9.0040839,Summit (MOHA),node/7074330394,38.8517162,0,
9.0106601,Safari,node/7074330397,38.8518265,0,
8.999474,Alemayehu,node/7074330400,38.820944,0,
9.0005663,Alemayehu,node/7074330401,38.8196821,0,
9.0050845,Condominium,node/7074330403,38.8095474,0,
9.026612,Ethio-china,node/7074330407,38.8287819,0,
9.0403987,Kara,node/7074330409,38.8643277,0,
8.9654679,Project 15,node/7074332290,38.8850641,0,
8.9772657,Kela,node/7074332294,38.8845811,0,
9.0616842,Chereta,node/7074347184,38.7010211,0,
8.9813585,Gerar,node/7074353066,38.6894082,0,
9.0714186,Sansusi,node/7074387585,38.6891023,0,
9.0285405,Kersa (2),node/7074496216,38.6722328,0,
9.0326531,Ashewa Meda,node/7074496217,38.6653802,0,
9.0326414,Ashewa Meda,node/7074496218,38.6653823,0,
9.0258997,United Bank (Ashewa Meda),node/7074496219,38.6569665,0,
9.027689,St. Gebriel,node/7074496221,38.6515848,0,
9.0276843,St. Gebriel,node/7074496222,38.6515743,0,
9.0417975,Gojo,node/7074496225,38.6216778,0,
9.0010346,Alem Bank,node/7074504387,38.6776598,0,
8.9831093,Ayer Tena,node/7074504388,38.6982193,0,
9.0045877,Bethel,node/7074504390,38.6944335,0,
9.0149626,Mendida,node/7074504392,38.7004735,0,
8.9700751,Mebrat Nigist Hotel,node/7074525370,38.7486994,0,
9.0116457,Lideta Kefetega Firdbet,node/7074541084,38.7326808,0,
8.9368661,Haile Garment,node/7074561391,38.7363202,0,
8.9493593,Mebrathile (EEPCo),node/7074561392,38.7334502,0,
8.9309368,Hana Mariam,node/7074561393,38.7544146,0,
8.9361698,Hana Mariam (2),node/7074561394,38.7444615,0,
8.95299,Meskelgna,node/7074561395,38.7448233,0,
9.0357438,Piassa Arada,node/7074585943,38.7514315,0,
9.0324015,Arat Kilo,node/7074585944,38.7633143,0,
8.9953761,Beklo Bet (Global),node/7074599697,38.759835,0,
9.0055846,Dembel City Center,node/7074691520,38.7673017,0,
9.010735,Mexico,node/7074707878,38.7471393,0,
9.0127963,ERA Office (Big Mak),node/7074707880,38.7478601,0,
9.0092034,Saint Josphe School,node/7074707881,38.7591385,0,
9.0124825,St. Estifanos Church,node/7074707883,38.7628296,0,
8.9725713,Mamo (NFSL TVET),node/7074819178,38.7607684,0,
8.9339802,Kality Maseltegna,node/7074841188,38.7643672,0,
8.9585362,Dildiy Mariam,node/7075101457,38.7498569,0,
8.9837158,Kera (Gofa Stop),node/7075101459,38.7497528,0,
9.009717,Tor Hailoch,node/7075129253,38.7208842,0,
9.0117428,Torhayloch,node/7075129254,38.7207996,0,
9.0117788,Tor Hailoch,node/7075129255,38.7222467,0,
9.0043941,Riche,node/7076294502,38.7588986,0,
8.9645236,Mebrat Condominium,node/7076294503,38.7438551,0,
8.9638868,Kadisco,node/7076294504,38.7633289,0,
9.0089349,Flamingo,node/7076294505,38.7646677,0,
8.9984013,Condminium (Gate),node/7076294507,38.8601035,0,
9.0571285,Sara Ampol (Gedera),node/7076294508,38.8738883,0,
9.0418835,Michael (2),node/7076294509,38.7325725,0,
9.0622823,Shero Meda,node/7076294510,38.7612538,0,
9.0618175,Shero Meda,node/7076294511,38.7613619,0,
9.0716602,Dil Ber,node/7076294512,38.7369836,0,
9.0745282,Sanba Nekrsa,node/7076294514,38.7590251,0,
9.0692159,Shiromeda Selassie,node/7076294515,38.7607132,0,
9.0618235,Shero Meda,node/7076294516,38.7613887,0,
9.0447597,6 Kilo (Akim Genbata),node/7076310930,38.7612093,0,
9.0626379,Shero Meda,node/7076310931,38.7612397,0,
9.0507372,Medhanialem,node/7077424942,38.7619991,0,
9.0163885,Ambassador,node/7077601626,38.7551039,0,
9.0216085,Lamberet,node/7077785205,38.8139111,0,
9.0479009,Kara Condominium,node/7077785206,38.8692642,0,
9.0480304,Kara Condominium,node/7077785209,38.8695121,0,
9.031811,Autobis Tera (2),node/7077863009,38.7325536,0,
8.9960545,Tropical,node/7077863010,38.6833448,0,
9.0003767,Alem Bank,node/7077863012,38.6779208,0,
8.9965876,Tropical,node/7077863014,38.6830207,0,
8.9923549,Kidane Mihret,node/7077863015,38.6892387,0,
9.004479,Bethel,node/7077863016,38.6941906,0,
9.0151128,Mendida,node/7077863017,38.7004836,0,
9.019638,Abinet,node/7077863018,38.7327417,0,
9.0280905,Sebategna,node/7077863019,38.7329768,0,
9.0088714,Mexico,node/7078164250,38.7440208,0,
8.9381825,Haile Garment,node/7078164251,38.7349155,0,
8.9729343,Mekanisa,node/7078164254,38.7311018,0,
8.9820586,Abo Mazoria,node/7078164255,38.7345326,0,
9.0088201,Mexico,node/7078164256,38.7437936,0,
9.0330269,Autobis Tera (1),node/7078406225,38.7323925,0,
8.9876369,Zenebework,node/7078406227,38.7090191,0,
8.9822919,Ayer Tena,node/7078406228,38.6949214,0,
8.9755975,Kara Kore,node/7078406231,38.6817556,0,
8.9763865,Kara Kore,node/7078406235,38.6823873,0,
8.9822452,Ayer Tena (Gerar-Repi),node/7078406236,38.6939258,0,
8.9795411,Repi (Gerar),node/7078406237,38.6853377,0,
8.9852814,Zenebework (Crossing),node/7078406238,38.7051886,0,
8.992776,3 Kutir Mazoriya (Total),node/7078406239,38.715946,0,
9.0330007,Autobis Tera (1),node/7078406240,38.7322299,0,
9.0049451,Condominium,node/7080251773,38.8100534,0,
8.993889,Goro School,node/7080251774,38.8268744,0,
9.0071789,Anbessa Garage,node/7080251776,38.8056204,0,
9.0110366,Estifanos,node/7080440194,38.7636615,0,
9.0104866,BAMBIS,node/7080440195,38.7690578,0,
9.0115088,St. Urael Church,node/7080440196,38.7752996,0,
9.0147285,Lex Plaza,node/7080440197,38.7823039,0,
9.0164226,22 (Haya Hulet),node/7080440198,38.7896417,0,
9.0194097,Megenagna,node/7080440200,38.8004816,0,
9.019032,Megenagna,node/7080440203,38.8005914,0,
9.0177169,Lem Hotel,node/7080440204,38.7955696,0,
9.0162149,22 (Haya Hulet),node/7080440205,38.7896635,0,
9.0102033,BAMBIS,node/7080440206,38.7694936,0,
9.0104304,Mexico,node/7080440208,38.7467585,0,
9.0098462,Mexico,node/7080527282,38.7462899,0,
8.9863213,Kera,node/7080527284,38.7487773,0,
8.96688,Mebrat,node/7080611085,38.7487535,0,
9.0120423,Mexico Shebelle Hotel,node/7080611091,38.746773,0,
9.0412736,Michael,node/7080893992,38.7322629,0,
9.034717,Autobis Tera,node/7080893993,38.732023,0,
9.0460782,Pastor,node/7080893994,38.7306587,0,
9.0560646,Winget,node/7080893995,38.713458,0,
9.0613645,Chereta,node/7080893996,38.7009781,0,
9.0715888,Sansusi,node/7080894001,38.6891732,0,
9.0385658,5 Kilo (History Museum),node/7081034796,38.7624277,0,
9.0574672,Abo Mazoriya,node/7081034797,38.7785478,0,
9.0441923,Education Bureau (6 Kilo),node/7081034799,38.7640045,0,
9.0648091,Total (Dil Ber),node/7084255331,38.732915,0,
9.0341775,Piassa Arada,node/7084255333,38.7533521,0,
9.0594855,Addisu Gebeya,node/7084255334,38.7374497,0,
9.0638908,Tsion Cafe (Addisu Gebeya),node/7084255335,38.733166,0,
9.0653883,Total (Dil Ber),node/7084255336,38.7327389,0,
9.0337517,Ummar School,node/7084722454,38.7405402,0,
9.0341036,Autobis Tera (3),node/7084722456,38.7337992,0,
9.0341305,Gojam Berenda (Tefera Buillding),node/7084722457,38.7418327,0,
9.0404538,Dej. Wube (Ras Abebe School),node/7084722458,38.7533374,0,
9.0440672,Wube Bereha,node/7084722459,38.7544994,0,
9.0515491,Menen,node/7084722460,38.7588473,0,
9.0584002,Tsehay Chora (ShiroMeda),node/7084722461,38.7598297,0,
9.0274958,Sebategna (Taem Bakery),node/7084873006,38.7332661,0,
9.0188835,Mola Maru (Jos Hansen),node/7084873007,38.7380924,0,
9.0167149,Geja Sefer (Darmar),node/7084873008,38.7382054,0,
8.9856954,Kera (Green Market),node/7084873009,38.7486804,0,
8.9841757,Kera (Mexico Stop),node/7084873010,38.7518917,0,
8.9824212,MOHA (Pepsi Factory),node/7084873011,38.7560749,0,
8.9547202,Saris (Shoa Bakery),node/7084873012,38.7635412,0,
8.9844206,Kera (Saris Stop),node/7084873013,38.7509324,0,
9.002055,Guenet Hotel (Orbis),node/7084873014,38.7469466,0,
9.0111972,St. Lideta Church,node/7084873015,38.736541,0,
9.0192478,Abenet (Joshansen),node/7084873016,38.733649,0,
8.9951157,Canada Embassy,node/7084932737,38.7373207,0,
8.9973163,Mechare Meda,node/7084932738,38.7311778,0,
8.9892732,Bisrate Gebrael,node/7084932739,38.7239615,0,
8.9850622,Zenebework (Crossing),node/7084932740,38.705264,0,
8.9838697,Ayer Tena,node/7084932741,38.6960209,0,
8.9917639,Kidane Mihret (Roundabout),node/7084932742,38.6887357,0,
8.9910254,Kidane Mihret (2),node/7084932743,38.690106,0,
9.0056187,Augusta Bridge (Tor Hailoch),node/7084932745,38.7185689,0,
9.0114539,Mexico,node/7084932747,38.7445753,0,
8.9839859,Goro Roundabout,node/7098810331,38.8285018,0,
8.9678887,Kotebe Shet',node/7098810332,38.8370059,0,
8.9585287,Bole Lemi,node/7098810333,38.8352869,0,
8.9405669,Endorro 2,node/7098810334,38.8219339,0,
8.9007946,kilinto Right (Heniken),node/7098810335,38.8152364,0,
8.8947925,Koye Feche 4,node/7098810336,38.8240221,0,
8.8925887,Koye Feche 3,node/7098810337,38.8277372,0,
8.896302,Koye Feche 2,node/7098810338,38.8313712,0,
8.9837967,Goro Roundabout,node/7098810340,38.8289328,0,
8.9678046,Kotebe Shet',node/7098810341,38.8374461,0,
8.9573187,Bole Lemi,node/7098810342,38.8354629,0,
8.9393928,Endorro 2,node/7098810343,38.8217947,0,
8.9307029,Endorro 1,node/7098810344,38.820007,0,
8.9005132,kilinto (Heniken Brewery),node/7098810345,38.8155747,0,
9.0192718,Gurd-shola,node/7098833728,38.8196082,0,
9.021924,Civil Service College,node/7098833729,38.8331381,0,
9.021617,St. Michael,node/7098833730,38.8400876,0,
9.0193173,Sunshine Apartments,node/7098833731,38.8524287,0,
9.0019915,Gomista,node/7098833732,38.8575794,0,
8.9918735,Hasset Photo,node/7098833735,38.8588022,0,
9.0190988,Sunshine Apartments,node/7098833736,38.8521013,0,
9.0208488,CMC (Apartments),node/7098833737,38.8504565,0,
9.0213567,St. Michael,node/7098833738,38.8401568,0,
9.0337594,Merkato,node/7102193971,38.7312293,0,
9.0338552,Mesalemia (Area Police),node/7102193972,38.7254909,0,
9.0332635,Luwkanda,node/7102193973,38.7086533,0,
9.0338494,Comprensive,node/7102193974,38.7049566,0,
9.031909,Gefersa,node/7102193975,38.642409,0,
9.0563274,Gojo (Kela),node/7102193976,38.6117467,0,
9.0560454,Gojo (Kela),node/7102193977,38.6120244,0,
9.0375371,Gefersa (2),node/7102193978,38.6265192,0,
9.0356795,Gefersa,node/7102193979,38.6329501,0,
9.0328635,Ashewa Meda (1),node/7102193980,38.6674596,0,
9.0286003,Kersa (1),node/7102193981,38.6760437,0,
9.0343761,Feli Doro (2),node/7102193982,38.687173,0,
9.0344498,Mesalemia,node/7102193983,38.7244946,0,
9.0338637,Merkato,node/7102269985,38.7312074,0,
8.9821491,Ayer Tena,node/7103202615,38.6977085,0,
8.9647174,German Bridge,node/7103202616,38.7316085,0,
8.9470109,Mebrathile (EEPCo),node/7103202617,38.7342372,0,
8.9444277,Saris Abo,node/7103202619,38.7692016,0,
8.944353,Saris Abo,node/7103202620,38.7666082,0,
8.9336411,Kality Maseltegna,node/7103202621,38.7645892,0,
8.930547,Hana Mariam (Bridge),node/7103202622,38.7550031,0,
8.9653607,Mickael Bridge,node/7103202623,38.72738,0,
8.9820533,Ayer Tena,node/7103202625,38.6976219,0,
9.0323651,Bel Air,node/7104888674,38.7729637,0,
9.0211237,CMC (Apartments),node/7105158906,38.8506098,0,
9.0462589,Tafo Condominium 2,node/7105158907,38.8774831,0,
9.0502639,Tafo Condominium 1,node/7105158908,38.8775457,0,
8.9593839,Mebrat (Lafto),node/7105268824,38.7490031,0,
8.9587047,Dildiy Mariam,node/7105268825,38.7497551,0,
8.9537745,Lafto (Mickael),node/7105268826,38.7504407,0,
8.9465504,Lafto,node/7105268828,38.7493803,0,
8.9558865,Lafto (Primary School),node/7105268830,38.7450783,0,
9.0184923,Post Office (Ambassador),node/7105398617,38.753418,0,
9.0461705,6 kilo (University),node/7105398618,38.7614232,0,
9.0522977,Teferi Mekonen,node/7105398619,38.7623138,0,
9.022269,Marathon Motor (Megenagna),node/7105584907,38.7999868,0,
9.0332665,Arat Kilo,node/7105584908,38.762507,0,
9.0341288,Piassa Arada,node/7105584909,38.7532588,0,
9.0332715,Arat Kilo,node/7105584911,38.7625094,0,
9.0289345,Abebe Sook,node/7105584912,38.7888307,0,
9.0358919,Abune Petros,node/7105840324,38.7492708,0,
9.0424895,Yohannes,node/7105840325,38.745898,0,
9.0472271,Arbegnoch Primary School,node/7105840326,38.7421685,0,
9.0485317,Enqulal Fabrica,node/7105840327,38.7376837,0,
9.0434044,Yohannes,node/7105840330,38.7450108,0,
9.0481067,Enqulal Fabrica,node/7105840331,38.7373533,0,
8.9209077,Sefera,node/7107670562,38.7350358,0,
8.94963,Mebrathile (EEPCo),node/7107670563,38.7332384,0,
8.9829863,Mekanisa Abo,node/7107670564,38.7341183,0,
8.9606298,Jemmo 2,node/7107789218,38.6879228,0,
9.0319297,Piassa (Downtown Cafe),node/7107789219,38.7511477,0,
8.9605732,Jemmo 2,node/7107789220,38.6878636,0,
8.9860956,Kera,node/7108224469,38.7483037,0,
9.0166264,6th (Raddison Blu),node/7110438104,38.7675202,0,
9.0171928,Kazanchis (6th),node/7110438105,38.7701955,0,
9.0231177,Aware Roundabout,node/7110438106,38.7758778,0,
9.0234853,Signal,node/7110438107,38.7815333,0,
9.0221973,Dinberwa Hospital,node/7110438108,38.7867845,0,
9.0212061,Lem Hotel,node/7110438109,38.7940254,0,
9.022362,Lamberet (Queens),node/7110438110,38.8157252,0,
9.0348925,Kotebe 01,node/7110438111,38.8281186,0,
9.0349074,Kotebe 01,node/7110438113,38.8281855,0,
9.0217059,Shola (United Bank),node/7110438114,38.7948696,0,
9.021194,Sumeya Mosque,node/7110438115,38.792498,0,
9.023369,Signal,node/7110438116,38.7815645,0,
8.9104302,Kality Gebriel,node/7110725239,38.7640618,0,
8.9572931,Addis Sefer (Overpass),node/7110725240,38.7673729,0,
8.9799499,Bole Mickael (2),node/7110725241,38.7723221,0,
8.9867261,Bole Bridge,node/7110725242,38.7903601,0,
8.9948785,MOENCO,node/7110725243,38.7957512,0,
9.0009401,Sport Academy,node/7110725244,38.7988652,0,
9.0077883,Anbessa Garage,node/7110725245,38.8030776,0,
9.0158283,IVECO,node/7110725246,38.8026698,0,
9.0076034,Anbessa Garage,node/7110725247,38.8032793,0,
9.0037859,Emperial Hotel,node/7110725248,38.8009424,0,
8.9950941,MOENCO,node/7110725249,38.7961036,0,
8.9910443,Bole (Bora Amusement),node/7110725250,38.7946816,0,
8.9795995,Bole Mickael (2),node/7110725251,38.7721474,0,
8.9603711,Addis Sefer,node/7110725252,38.7676814,0,
8.9458024,Saris Abo,node/7110725253,38.7692055,0,
8.9234126,Kality (Correctional Facility),node/7110725254,38.7648588,0,
8.8959395,Kality Meneharia,node/7110725256,38.7718808,0,
9.0354591,Arat Kilo,node/7111821010,38.7588358,0,
9.0325113,Piassa (EPPCO),node/7111821011,38.7538404,0,
9.0317457,Autobis Tera,node/7111821013,38.7374552,0,
9.0301828,Autobis Tera,node/7111821015,38.7373348,0,
9.0216842,Dinberwa Hospital (1),node/7111821016,38.7887833,0,
9.0374493,Chid Tera,node/7112123457,38.721592,0,
9.0294949,Mebrathail,node/7112123458,38.7149359,0,
9.0173854,Kolfe Keranyo,node/7112123459,38.7177803,0,
9.0193846,Keranio Bridge,node/7112123460,38.708993,0,
9.0170237,Kolfe Keranyo,node/7112123462,38.7176821,0,
9.0370321,Abysinia Coffee,node/7112123463,38.7163686,0,
9.0376714,Chid Tera,node/7112123464,38.7208971,0,
8.9998854,Old Airport (Mobil),node/7112215078,38.7188624,0,
9.008471,Minaye (Shoa Supermarket),node/7112215079,38.7196192,0,
9.0208524,Holand,node/7112215080,38.7158287,0,
9.0361682,18 Mazoria (Atena Tera),node/7112215081,38.7141478,0,
9.0409736,Atena Tera,node/7112215082,38.7125982,0,
9.0491202,Winget TVET,node/7112215083,38.7116581,0,
9.0555289,Winget,node/7112215084,38.7124575,0,
9.0494004,Winget TVET,node/7112280389,38.7117843,0,
9.0448145,kolfe (Atena Tera),node/7112280390,38.7122352,0,
9.0414434,Atena Tera,node/7112280391,38.712721,0,
9.0362317,18 Mazoria (Atena Tera),node/7112280392,38.7143961,0,
9.0244809,Meseret Edget,node/7112280393,38.7152453,0,
9.0056155,Augusta Bridge (Tor Hailoch),node/7112280394,38.7188519,0,
8.8596281,Mahiber Betoch,node/7112648156,38.8146269,0,
8.865212,Project 12 Akababi,node/7112648157,38.8210444,0,
8.8701237,G7 (Tulu Dimtu),node/7112648158,38.8204129,0,
8.871336,Belay Ab Moters,node/7112648159,38.7965426,0,
8.8797285,Gelan Condominium,node/7112648160,38.7794514,0,
8.894811,Kality Total,node/7112648161,38.7728422,0,
8.8973286,Akaki Subcity Office (Menaheria),node/7112648162,38.770309,0,
8.9224149,Kality (Correctional Facility),node/7112648163,38.7641522,0,
8.9281178,Techtra Engineering,node/7112648164,38.7676362,0,
8.9572677,Adey Abeba,node/7112648165,38.7637599,0,
8.9323914,Kality Maseltegna,node/7112648166,38.7669427,0,
8.9298175,Wehalemat,node/7112648167,38.768315,0,
8.8837788,Awash Bank (Akaki Kality),node/7112648168,38.7768426,0,
8.8799589,Gelan Condominium,node/7112648169,38.7793211,0,
8.8716847,Belay Ab Moters,node/7112648170,38.7963837,0,
8.8675171,Belay Ab Moters (Alem Bank),node/7112648171,38.798439,0,
8.8705655,TAF Oil (Tulu Dimtu),node/7112648172,38.8091005,0,
8.9580023,Addis Sefer (NFSL W09),node/7112755336,38.7723166,0,
8.9590585,Addis Sefer,node/7112755337,38.7710152,0,
9.0278217,Teklehaymanot,node/7112755338,38.7439418,0,
9.0314996,Autobis Tera,node/7112755340,38.7376384,0,
9.0308454,Autobis Tera,node/7112755342,38.7381207,0,
9.0194238,Meteorology,node/7112755343,38.7468282,0,
9.0148435,Sengatera,node/7112755344,38.7468427,0,
8.9587021,Addis Sefer,node/7112755345,38.7706049,0,
9.0462468,Girum Hospital,node/7113004009,38.7199737,0,
9.0509733,Ras Hailu (Medhanialem),node/7113004010,38.7211613,0,
9.0572551,Awolia,node/7113004011,38.7114101,0,
9.0640587,Bercheko Fabrica (Asko),node/7113004012,38.6983516,0,
9.0598807,Gulele,node/7113004013,38.70588,0,
9.0507813,Ras Hailu (Medhanialem),node/7113004014,38.7210939,0,
9.040909,Woreda 7 TVET,node/7113004015,38.7212829,0,
9.0380466,Chid Tera,node/7113004016,38.7213725,0,
9.0312199,Autobis Tera,node/7113004018,38.7365754,0,
9.0426217,Michael (2),node/7113004020,38.73268,0,
9.0485205,Pawlos Hospital (Saba Mosque),node/7113004021,38.7261371,0,
9.0643796,Anbessa Garage (Shegole),node/7113004022,38.7205811,0,
9.0641379,Shegole (Mender 7),node/7113004024,38.7266132,0,
9.0641466,Shegole (Mender 7),node/7113004026,38.726699,0,
9.0589167,Hassen & Hussein Mosque (Shegole),node/7113004027,38.7189551,0,
9.0548351,Shegole Bank,node/7113004028,38.7198445,0,
9.0409541,Michael,node/7113004029,38.7321449,0,
9.0652655,Eyesus,node/7113158623,38.7712666,0,
8.9931107,Wello Sefer,node/7122983960,38.7741153,0,
8.9891423,Kassech Kitfo,node/7122983961,38.7720567,0,
8.9855755,Ambasel,node/7122983962,38.7679985,0,
8.9840055,WAGGA (Singer Liquior Store),node/7122983963,38.7662234,0,
8.9814923,Wengalawit,node/7122983964,38.7635127,0,
8.9817105,Wengalawit,node/7122983968,38.7636059,0,
8.9857381,MEDCO,node/7122983969,38.7680101,0,
8.98977,Tebaber Berta,node/7122983970,38.7723942,0,
8.9930626,Wello Sefer,node/7122983972,38.7739711,0,
9.0113972,Beshale Area,node/7123180286,38.8356151,0,
9.0185063,Megenagna,node/7123180287,38.802106,0,
9.0111777,Jacros,node/7123180289,38.821148,0,
9.0100121,Safari,node/7123180290,38.8526604,0,
9.0116739,Safari (Summit),node/7123180291,38.8657082,0,
9.0115148,Safari (Summit),node/7123180293,38.8657494,0,
9.0099646,Safari,node/7123180295,38.8513684,0,
9.011279,Beshale Area,node/7123180296,38.8356503,0,
9.0189315,Gurd Shola,node/7123180297,38.8201425,0,
9.0194519,Megenagna,node/7123180298,38.803506,0,
8.9882804,Meskel Flower,node/7123265052,38.7650036,0,
8.9911645,Loza (Adot),node/7123265053,38.7659652,0,
8.9934001,Nazra Hotel,node/7123265054,38.7663984,0,
8.9959487,Yetam Hotel,node/7123265055,38.7666123,0,
8.9980982,Kebele Kibeb,node/7123265056,38.7667571,0,
8.9999844,Mulu Shewa (Gazebo),node/7123265061,38.7669271,0,
8.9979306,Kebele Kibeb,node/7123265062,38.7668423,0,
8.9959132,Yetam Hotel,node/7123265063,38.7667132,0,
8.9937071,Nazra Hotel,node/7123265064,38.7665439,0,
8.9910552,Loza (Adot),node/7123265065,38.7660467,0,
8.9885268,Meskel Flower,node/7123265066,38.7652457,0,
8.9921561,Total 3 Kuter Mazoria,node/7182111861,38.7180191,0,
8.9865792,kera,node/7182111862,38.7468023,0,
9.0351361,4 Kilo Minilik School,node/7214490240,38.7629695,0,
8.8967488,Kality Menaheriya,node/7214490241,38.7708485,0,
8.9943894,3 Kutir (TZNA Area),node/10672961242,38.717673,0,
9.0117316,Lideta High Court,node/10672961244,38.7335924,0,
8.9839135,Ayer Tena,node/10750378219,38.7024743,0,
8.9925223,Sar Bet,node/10755917239,38.7394551,0,
8.9924619,Sar Bet,node/10755917241,38.7392871,0,
8.9859671,kera,node/10755917242,38.7469304,0,
8.9900132,Kera,node/10755917243,38.7418629,0,
8.995096,Sar Bet,node/10755917244,38.7376124,0,
8.9973975,karl Square,node/10755917245,38.7309965,0,
8.9970773,karl Square,node/10755917246,38.7302642,0,
8.9927368,Bisrate Gebrael,node/10755917247,38.7268512,0,
8.9914228,Bisrate Gebrael,node/10755917248,38.7255644,0,
8.9888937,Bisrate Gebrael,node/10755917249,38.7226976,0,
8.9922875,Total 3 Kuter Mazoria,node/10755917250,38.7175917,0,
8.8967652,kality Meneharia,node/10766121857,38.7708737,0,
8.9319554,kality Maseltegna,node/10766121859,38.7669453,0,
8.9632423,Kadisco Roundabout,node/10766121860,38.7668102,0,
8.9816305,Bole Mickael,node/10766121861,38.7761571,0,
8.9966149,Bole Printing Press,node/10766121862,38.7721247,0,
9.0100526,Flamingo,node/10766121863,38.7634141,0,
9.0125659,St. Estifanos,node/10766121864,38.7626278,0,
9.035146,4 Kilo (Menlik),node/10766121865,38.7629874,0,
9.0352952,4 Kilo (Menlik),node/10766121866,38.7631121,0,
9.0214342,Place Parking (Gibi Gebriel),node/10766121867,38.7641345,0,
9.01014,Flamingo,node/10766121868,38.7636218,0,
8.9944147,Wollo Sefer,node/10766121869,38.7743234,0,
8.9813203,Bole Mikael,node/10766121871,38.7765268,0,
8.9737518,Mamo (Nifas Silk),node/10766121872,38.765481,0,
8.9321192,kality Maseltegna,node/10766121873,38.7670877,0,
8.8957067,kality Meneharia,node/10766121874,38.7721261,0,
9.0056744,Olympia,node/10766454593,38.7674734,0,
8.9867247,Bole Roundabout,node/10766454594,38.7908923,0,
9.003043,African Union,node/10768858718,38.7411322,0,
9.0296176,Autobis Tera,node/10768858719,38.7370362,0,
9.0026517,Guenet Hotel (Orbis),node/10768858720,38.7470064,0,
8.9651822,German Square,node/10768858723,38.7340469,0,
9.0239162,Lamberet Menaheria,node/10781643820,38.8198728,0,
9.0322896,Arat Kilo,node/10781643821,38.7650098,0,
9.0328365,4 kilo (Children Theatre),node/10781643822,38.7666152,0,
9.0325481,Bel Air,node/10781643823,38.7736753,0,
9.0344084,Kebena,node/10781643824,38.7768069,0,
9.0350794,Kokebe Tsebah (Kebena),node/10781643825,38.7794124,0,
9.0324942,Kenya Embassy (Kebena),node/10781643826,38.7823515,0,
9.0309005,British Embassy,node/10781643827,38.785575,0,
9.0289673,Abebe Sook,node/10781643828,38.7888226,0,
9.0251295,Shola (Yeka Court),node/10781643829,38.7947497,0,
9.0232585,Shola Abyssinia Bank,node/10781643830,38.7984062,0,
9.0224046,Megenagna (Marathon Motors),node/10781643831,38.7997354,0,
9.0208971,Megenagna,node/10781643832,38.8010368,0,
9.0208722,Megenagna (Israel Embassy),node/10781643833,38.8048559,0,
9.0240444,Lamberet Menaheria,node/10781643834,38.8199227,0,
9.0297042,Kotebe,node/10781643835,38.836729,0,
9.0304539,Kotebe,node/10781643836,38.8385612,0,
9.0348007,Kotebe Teachers College,node/10781643837,38.8490303,0,
9.0363204,Kotebe Gebriel,node/10781643838,38.8553365,0,
9.0358505,Kotebe Gebriel,node/10781643839,38.8541265,0,
9.032918,Wessen Grocery,node/10781643840,38.8443436,0,
9.0407203,Kara,node/10781643841,38.8648947,0,
9.0411416,Kara,node/10781643842,38.8653607,0,
9.0287927,Abebe Sook,node/10781844855,38.788672,0,
9.0313214,British Embassy,node/10781844856,38.7843424,0,
9.038677,5 Kilo St. Mary,node/10781844857,38.7623866,0,
9.0462129,6 Kilo University,node/10781844858,38.7614003,0,
9.0462072,6 Kilo University,node/10781844859,38.7615945,0,
9.0430896,6 Kilo (Lion Zoo),node/10781844860,38.7615002,0,
9.032679,Kenya Embassy (Kebena),node/10781844861,38.7826601,0,
9.0250431,Shola (Yeka Court),node/10781844862,38.7953847,0,
9.0225097,Megenagna (Marathon Motors),node/10781844863,38.7998471,0,
9.0381854,Yeka 03,node/10823916391,38.8773834,0,
8.931276,Sefera Atkilt Tera,node/10842065101,38.7341685,0,
8.9358559,kality Maseltegna,node/10842065103,38.7646885,0,
8.9948043,Bulgaria,node/10842065104,38.7478806,0,
8.9379429,Kality Customs,node/10842129005,38.7628904,0,
8.9644696,Germen Square,node/10842129006,38.7330813,0,
8.93579,Hana Mariam,node/10842129008,38.7441345,0,
8.9373819,Gomista,node/10842129009,38.7703639,0,
8.948706,Nigd bank,node/10842129010,38.780123,0,
8.9342123,kality Maseltegna,node/10842129011,38.7642814,0,
8.9310906,Kadisco,node/10842129012,38.7585214,0,
8.9582797,Adey abeba,node/10842129013,38.7638648,0,
8.9457865,Saris abo,node/10842129015,38.7690665,0,
8.93876,Haile Garment,node/10842129016,38.7345583,0,
8.9546992,Saris,node/10842129017,38.7635479,0,
8.9834477,Bole Cargo,node/10842129019,38.7819099,0,
8.9944221,Bulgaria,node/10842129020,38.7483448,0,
8.9482742,Kore,node/10842129021,38.7765022,0,
8.9444276,Saris Abo,node/10842129022,38.7691994,0,
8.8973782,Kality Menaheria,node/10842129023,38.7704449,0,
8.9254109,Sefera Square,node/10842129024,38.7340982,0,
9.009032,Mexico,node/10842129025,38.7463895,0,
8.9092945,Kality Gebriel,node/10842129026,38.7644698,0,
8.8869211,Derartu,node/10842129027,38.7821218,0,
8.9836884,Bole Cargo,node/10842129028,38.7818039,0,
8.8948904,Kality Total,node/10842129029,38.7729402,0,
8.9927142,Noc,node/10842129030,38.748144,0,
8.9901397,Lancha,node/10842129031,38.7590821,0,
8.9375158,Haile Garment,node/10842129032,38.7359129,0,
8.9880834,Agona,node/10842129033,38.759633,0,
8.9336549,kality Maseltegna,node/10842129034,38.7646465,0,
8.9417644,Mesqelegna,node/10842129035,38.7214531,0,
8.9537651,Jemo,node/10842129037,38.6979529,0,
8.9577771,Adey abeba,node/10842129038,38.7640443,0,
8.9448318,Saris Abo,node/10842129040,38.7661797,0,
8.9457862,Mebrat hayle,node/10842129041,38.7343973,0,
8.9633984,Kadisco,node/10842129042,38.7669226,0,
8.9356798,Hana Mariam,node/10842129043,38.7453864,0,
8.9729895,Mamo (NFSL),node/10842129045,38.7609585,0,
8.9490785,Medhani alem,node/10842129046,38.7785848,0,
8.9047633,Mosque (Mesged),node/10842129047,38.7660661,0,
8.9093265,Kality Gebriel,node/10842129048,38.7645559,0,
8.9859342,Bole Roundabout,node/10842129051,38.7888143,0,
8.9295556,Wuhalimat,node/10842129052,38.7681435,0,
8.9361549,Hana Mariam,node/10842129053,38.7445142,0,
8.9797944,Bole Mickael,node/10842129054,38.7719673,0,
8.9192813,Sheger building,node/10842129055,38.7635639,0,
8.9705748,Yoseph,node/10842129056,38.7668114,0,
8.9947898,Bulgaria,node/10842129057,38.7477478,0,
8.9470316,Mebrathayil,node/10842129058,38.7342346,0,
8.9250202,Sefera Square,node/10842129059,38.7346011,0,
9.0000494,Tele Garage,node/10842129060,38.758701,0,
8.9469179,Mebrathayil,node/10842129061,38.7339445,0,
8.9376734,Haile garment,node/10842129062,38.7335906,0,
9.0058652,Meshualekia,node/10842129063,38.758986,0,
8.9571801,Adey abada,node/10842129066,38.7640108,0,
8.9755358,Menaheria (Zenebu Werk),node/10842129069,38.706617,0,
8.9602509,Adis sefer,node/10842129070,38.767446,0,
8.930883,Kadisco,node/10842129071,38.758758,0,
8.993831,Bulgaria,node/10842129072,38.7478486,0,
8.9661182,Kadisco,node/10842129073,38.7627716,0,
8.9517202,Bulbula,node/10842129074,38.7861393,0,
8.966096,Kadisko,node/10842129075,38.7629867,0,
8.9444437,Saris abo,node/10842129076,38.7700795,0,
8.8758561,Meshualekya,node/10842129077,38.7874349,0,
8.9871416,Agona,node/10842129078,38.7597928,0,
8.9771026,Gotera chaf,node/10842129079,38.7595824,0,
8.9528149,Saris,node/10842129080,38.7633358,0,
9.0106804,St. Joseph School,node/10842129082,38.7593422,0,
8.9321621,Kotari Condominium,node/10842129083,38.7338312,0,
8.9732793,Mamo,node/10842129084,38.7652695,0,
8.9448603,Saris Abo,node/10842129085,38.7664084,0,
8.9705442,Yosef,node/10842129086,38.7665547,0,
8.9068482,Kality Cheralia,node/10842129088,38.7654586,0,
8.9066965,Kality Cheralia,node/10842129089,38.7653555,0,
8.9906489,Lancha,node/10842129090,38.7593009,0,
8.9375024,Gomista,node/10842129091,38.7701062,0,
8.9375082,Haile Garment,node/10842129092,38.7331196,0,
9.0001174,Tele Garage,node/10842129093,38.7584826,0,
8.8840683,Selam Building,node/10842129094,38.7767083,0,
8.9453322,Medhani alem,node/10842129095,38.7769101,0,
8.8832033,Selam Building,node/10842129096,38.7771627,0,
8.8758518,Meshualekya,node/10842129097,38.7872182,0,
8.9531876,Saris,node/10842129098,38.7635911,0,
8.963723,Germen adebabay,node/10842129102,38.7328242,0,
8.972508,Mamo (NFSL),node/10842129103,38.7607874,0,
8.9875165,Kera,node/10842129105,38.7486365,0,
8.9867627,Agona,node/10842129106,38.7599766,0,
8.9446574,Saris abo,node/10842129107,38.7701231,0,
8.9860883,Kera,node/10842129108,38.7483211,0,
8.8790966,Gelan Condominium,node/10842129110,38.7666013,0,
8.9953066,Temenja yasi,node/10842129111,38.7596133,0,
9.0041803,Riche,node/10842129112,38.7588933,0,
8.9368154,Haile garment,node/10842129113,38.7364242,0,
8.9795749,Bole Mickael,node/10842129114,38.7720906,0,
8.9835322,Ayer Tena,node/10842129116,38.6971287,0,
8.9537239,Jemo,node/10842129117,38.6977027,0,
9.0052072,Land mark,node/10842129118,38.7467544,0,
8.9411484,Meskelegna,node/10842129119,38.7218311,0,
8.9381771,Haile Garment,node/10842129120,38.7349153,0,
9.0040548,Riche,node/10842129121,38.7586909,0,
8.9476648,Kore,node/10842129122,38.7841911,0,
8.8770203,Meshualekya,node/10842129124,38.7866008,0,
8.9518942,Bulbula,node/10842129125,38.7863461,0,
8.9357353,kality Maseltegna,node/10842129126,38.7643342,0,
8.9457601,Saris abo,node/10842129129,38.7692278,0,
8.9603252,Addis sefer,node/10842129131,38.7676873,0,
8.9352291,Hana mariam,node/10842129132,38.744852,0,
8.9866879,Kera,node/10842129133,38.7484325,0,
8.9757898,Gotera chaf,node/10842129134,38.7601404,0,
8.8972852,Akaki Subcity Office (Menaheria),node/10842129135,38.770318,0,
8.9411922,Condominium,node/10842129136,38.7717099,0,
8.8789992,Gelan Condominium,node/10842129137,38.7666701,0,
8.9295931,Wuhalimat,node/10842129139,38.7683276,0,
9.0098761,Mexico,node/10842129140,38.7461882,0,
9.0312472,Grand Anwar Mosque,node/10845731573,38.7413343,0,
9.0247282,kebele 11,node/10845731574,38.7457773,0,
9.0028738,Guenet hotel,node/10845731575,38.7468651,0,
8.9923344,Lancia,node/10845731576,38.7589891,0,
8.9825134,Pepsi,node/10845731577,38.755826,0,
8.9919399,Lancia,node/10845731578,38.7591215,0,
9.0279893,Tekle Haimanot,node/10845731579,38.7438378,0,
8.9441872,Saris Abo,node/10845731580,38.7666459,0,
9.0120319,Legehar,node/10845731581,38.7544517,0,
8.9841589,Kera,node/10845731582,38.7522272,0,
8.9380577,Kality Customs,node/10845731583,38.7631799,0,
9.0342603,Gojam Berenda,node/10845731584,38.7378007,0,
9.0343553,Gojam Berenda,node/10845731585,38.7381021,0,
8.8869148,Derartu,node/10845731586,38.7818893,0,
8.9824223,Pepsi,node/10845731587,38.7557408,0,
8.9943898,Global Hotel,node/10845731588,38.7596457,0,
8.9208636,Sheger Building,node/10845731589,38.7637542,0,
9.0343246,Autobus Tera,node/10845731590,38.734431,0,
9.0027786,Guenet hotel,node/10845731591,38.7469738,0,
9.0279685,Tekle Haimanot,node/10845731592,38.7439714,0,
8.9970419,Beg Tera,node/10845731593,38.7476261,0,
8.9943499,Global Hotel,node/10845731594,38.7598651,0,
8.9223845,Kality Correctional,node/10845731595,38.7641252,0,
8.9029367,Cheralia Factory,node/10845731596,38.7667306,0,
9.0246149,kebele 11,node/10845731597,38.7457421,0,
9.0310422,Grand Anwar Mosque,node/10845731598,38.7414003,0,
9.0165472,National Theatre,node/10845731599,38.7526758,0,
8.95346,Saris,node/10845731601,38.767986,0,
8.9968163,Beg Tera,node/10845731602,38.7475303,0,
9.014753,Sengatera,node/10845731603,38.7468099,0,
9.0096228,Mexico,node/10845731604,38.746301,0,
8.9937615,Bulgaria,node/10845749005,38.7479845,0,
8.8956285,kality Meneharia,node/10845840895,38.7720203,0,
8.9841307,Ayer Tena,node/10845840896,38.6966586,0,
8.9637758,Germen adebabay,node/10845840897,38.7330269,0,
8.8948231,Kality Total,node/10846106471,38.7728316,0,
8.9869946,Bole Bridge,node/10881147490,38.7912092,0,
8.9867302,Bole Bridge,node/10881147492,38.7903563,0,
9.0341009,Autobus Tera,node/10883106542,38.7338003,0,
8.907041,Bajaj Tera,node/10886135782,38.7415025,0,
8.904156,Chera,node/10886135783,38.7479978,0,
8.8772921,Gelan Condominium,node/10886135784,38.7622377,0,
8.8549158,Total,node/10886135785,38.7845626,0,
8.8737817,Tulu Dimtu,node/10886135787,38.8197795,0,
8.8738791,Tulu Dimtu,node/10886135789,38.8202354,0,
8.8709574,G7,node/10886135790,38.820802,0,
8.8541896,Total,node/10886135791,38.7847209,0,
8.8758233,Gelan Condominium,node/10886135793,38.7630121,0,
8.9906055,Bole Bridge,node/10886281950,38.7928534,0,
8.9955183,Bole Medhanyalem,node/10886281951,38.7887705,0,
8.9973425,Edna Mall Squar,node/10886281952,38.7870108,0,
9.0043569,Adey Ababa Stadium,node/10886281953,38.7892817,0,
9.0150262,22 Mazoria,node/10886281954,38.7872566,0,
9.0150056,22 Mazoria,node/10886281956,38.787438,0,
9.0082739,Freedom,node/10886281958,38.7887083,0,
9.0069454,Werku Building,node/10886281997,38.7890587,0,
9.0042976,Adey Ababa Stadium,node/10886281998,38.7893444,0,
8.9977034,Edna Mall Squar,node/10886281999,38.7869491,0,
8.995948,Bole Medhanyalem,node/10886282000,38.7885714,0,
8.9906936,Bole Bridge,node/10886282001,38.7929596,0,
9.0161537,22 Mazoria,node/10886427067,38.7881236,0,
9.017758,Lem Hotel,node/10886427068,38.7950715,0,
9.0198841,Megenagna,node/10886427069,38.8019786,0,
9.0191878,Gurd Shola,node/10886427070,38.8200261,0,
9.0218654,Civil Servis College,node/10886427071,38.8345374,0,
9.0209806,Yetebaberut,node/10886427072,38.8536095,0,
9.0214852,Ayat,node/10886427073,38.8750186,0,
9.0215577,Civil Servis College,node/10886427074,38.8350083,0,
9.0211711,Ayat,node/10886427075,38.8737977,0,
9.0204163,Meshageria,node/10886427076,38.8598848,0,
9.020619,Yetebaberut,node/10886427077,38.8535182,0,
8.9907378,Bole Bora Amusement,node/10886883544,38.7941243,0,
9.0185543,Megenagna,node/10886883546,38.8016982,0,
9.0078296,Anbessa Garage,node/10886883547,38.8034449,0,
9.0037737,Emperial Hotel,node/10886883548,38.8009392,0,
8.9950343,Hayat Hospital,node/10886883549,38.7961015,0,
8.9916604,Bole Bora Amusement,node/10886883550,38.7949793,0,
9.0199832,Sun shine,node/10886991025,38.852562,0,
9.0200202,Megenagna,node/10886991026,38.8042842,0,
9.021578,Meshualekia,node/10886991027,38.841553,0,
9.0110042,Safari,node/10886991028,38.8522797,0,
9.004015,Summit,node/10886991029,38.8519977,0,
9.004282,Summit,node/10886991031,38.8517386,0,
9.010941,Safari,node/10886991032,38.8519018,0,
9.0199154,Sun shine,node/10886991033,38.8520834,0,
9.021324,Meshualekia,node/10886991034,38.8415391,0,
9.021353,Michael,node/10886991035,38.8392942,0,
9.0187135,Gurd Shola,node/10886991036,38.8211275,0,
8.9948468,Hayat Hospital,node/10887120325,38.7956759,0,
9.0001969,Sport Accadamy,node/10887120326,38.798384,0,
9.0027661,Emperial Hotel,node/10887120327,38.8000262,0,
9.0187177,Mulugeta Building,node/10887120328,38.8016319,0,
8.9603848,93 Mazoria,node/10890083966,38.7855121,0,
8.9623057,Kaldisco,node/10890083967,38.7863684,0,
8.9642046,Key Afer,node/10890083968,38.7872114,0,
8.9901774,Bole Bridge,node/10890083969,38.7938035,0,
8.9642211,Key Afer,node/10890290096,38.7873203,0,
8.9604784,93 Mazoria,node/10890290097,38.785703,0,
8.9581348,Kebele,node/10890290098,38.7875752,0,
9.0080412,Anbessa Garage,node/10893030388,38.8031745,0,
9.0035488,Jacros,node/10893030389,38.8169267,0,
8.9993201,Alem Ayew Building,node/10893030390,38.8210973,0,
8.9923039,Goro,node/10893030392,38.8283586,0,
8.9917123,Goro,node/10893030394,38.8287738,0,
8.9939213,Goro School,node/10893030395,38.8266397,0,
8.9992455,Alem Ayew Building,node/10893030396,38.8210064,0,
9.0035377,Jacros,node/10893030397,38.8166485,0,
8.9999982,Sport Accadamy,node/10893030398,38.7986195,0,
8.9911487,Bole Bridge,node/10893030400,38.7947324,0,
9.0122741,Figa,node/10893316186,38.8336594,0,
9.0110639,Mesgid,node/10893316189,38.8366122,0,
9.0121764,Figa,node/10893316190,38.8335762,0,
8.984658,Bole Mickael,node/10898980600,38.7731313,0,
9.0162838,Ambasader,node/10898980601,38.7551282,0,
9.0069448,Dembel,node/10898980602,38.7662663,0,
9.0123922,Stadium,node/10898980603,38.7586647,0,
9.0192676,Metrology,node/10898980604,38.7466456,0,
9.0217285,Tikur Anbesa,node/10898986005,38.7476072,0,
9.0207753,Tikur Anbesa,node/10898986007,38.7476005,0,
9.0188878,Metrology,node/10898986008,38.7467207,0,
9.0164136,Ambasader,node/10898986009,38.7553118,0,
9.011485,Stadium,node/10898986010,38.760062,0,
9.0038396,Dembel,node/10898986011,38.7686303,0,
8.9979213,Bole Printing Press,node/10898986012,38.7717243,0,
8.9849144,Bole Mickael,node/10898986014,38.7734946,0,
9.0318094,Cinema Ras,node/10899009892,38.7413697,0,
9.0317766,Cinema Ras,node/10899009893,38.7414723,0,
8.992509,Rwanda,node/10899150564,38.7781683,0,
9.0017627,Shewa Dabo,node/10899150565,38.7693116,0,
9.0120704,St. Estifanos Church,node/10899150566,38.7626611,0,
9.0321752,Piassa Arada,node/10899150567,38.7511048,0,
9.0330229,Piassa Arada,node/10899150568,38.7525581,0,
9.0264157,Tewodros Square,node/10899150569,38.7517894,0,
9.0210948,Tikur Anbesa,node/10899150570,38.7522625,0,
9.019064,Post Office,node/10899150571,38.7529153,0,
9.0138467,Ghion Hotel,node/10899150572,38.7576138,0,
8.9885561,Bole Bridge,node/10899278324,38.7897689,0,
8.9908062,Friendship Building,node/10899278325,38.7840796,0,
8.9923825,Rwanda,node/10899278326,38.7798445,0,
8.9908613,Friendship Building,node/10899278327,38.7844715,0,
8.9887169,Bole Bridge,node/10899278328,38.7898626,0,
9.0084115,Anbessa Garage,node/10899524535,38.8038533,0,
9.0049309,Condominium - Gerji Mebrat hayle,node/10899524536,38.8100683,0,
9.0036683,Gerji Mebrat hayle,node/10899524537,38.814209,0,
8.9913434,Goro,node/10899524538,38.8294024,0,
8.900477,kilinto Right,node/10899524539,38.815561,0,
8.875391,Tulu Dimtu,node/10899524540,38.8197599,0,
8.900461,kilinto Right,node/10899524542,38.8150743,0,
8.9912832,Goro,node/10899524543,38.8292469,0,
9.0035919,Gerji Mebrat hayle,node/10899524544,38.8134376,0,
9.0050654,Condominium - Gerji Mebrat hayle,node/10899524545,38.8095948,0,
9.0071868,Anbessa Garage,node/10899524547,38.8055809,0,
9.011198,Mesgid,node/10899590290,38.8364067,0,
8.994461,Saint Georgis,node/10899590291,38.8518486,0,
8.994389,Saint Georgis,node/10899590293,38.8515329,0,
8.9493529,Mebrathile,node/10899652823,38.7332958,0,
8.9556186,Gebriel Bridge,node/10899652824,38.7324445,0,
8.965384,Mickael Bridge,node/10899652825,38.7273491,0,
8.9727473,Zenebewerk,node/10899652826,38.7121031,0,
8.975714,Chaina Camp,node/10899652827,38.7055213,0,
8.981635,Ayer Tena,node/10899652829,38.6982059,0,
8.9385233,Haile Garment,node/10901428140,38.7348966,0,
8.9201595,Sefera,node/10901428141,38.7353205,0,
8.9311784,Sefera Atkilt Tera,node/10901428142,38.7337094,0,
8.9208099,Sefera,node/10901428143,38.734667,0,
8.8870433,Mesalemia,node/10901522017,38.7519617,0,
8.9032086,Chera Medhanilem,node/10901522018,38.7484085,0,
8.935726,Haile Garment,node/10901522020,38.7346387,0,
8.9034769,Chera Medhanilem,node/10901522021,38.7491293,0,
8.8871115,Mesalemia,node/10901522022,38.7524365,0,
8.9530332,Saris,node/10901643508,38.7629397,0,
8.9431476,58 Mazoria,node/10901643510,38.7540078,0,
8.9405222,Kidane Mihret Stebel,node/10901643511,38.7500946,0,
9.0084289,Mexico,node/10902267327,38.7447143,0,
9.0084377,Mexico,node/10902267330,38.7448728,0,
8.9990666,AU (Mikael) Rounrdabout,node/10902267332,38.7393711,0,
8.9990162,AU (Mikael) Rounrdabout,node/10902267333,38.7395668,0,
8.9923567,Sar Bet,node/10902267334,38.7381301,0,
8.9923453,Sar Bet,node/10902267335,38.7383324,0,
8.9822679,Abo Mazoria,node/10902267336,38.7342938,0,
8.9823292,Abo Mazoria,node/10902267337,38.7344209,0,
8.9729293,Mekanisa,node/10902267338,38.7311351,0,
8.9728812,Mekanisa,node/10902267339,38.7312498,0,
8.9555964,Gebriel Bridge,node/10902267340,38.732719,0,
8.9432326,58 Mazoria,node/10903393900,38.7539257,0,
8.9487486,Varnelo Squer,node/10903398373,38.7267004,0,
8.9594798,Jemmo 1,node/10903398374,38.7117668,0,
8.9585188,Jemmo 1,node/10903398375,38.712128,0,
8.9524535,Jemmo Medhanialem,node/10903398376,38.7161087,0,
8.9525568,Jemmo Medhanialem,node/10903398377,38.7162235,0,
8.9490672,Kebele,node/10903398378,38.7221583,0,
8.9491872,Kebele,node/10903398379,38.7221797,0,
8.9488837,Varnelo Squer,node/10903398380,38.7267159,0,
8.9951163,Sar Bet,node/10904734315,38.7373285,0,
8.9936468,Austria Embassy,node/10904734316,38.7276618,0,
8.9922476,Total 3 Kuter Mazoria,node/10904734318,38.7177291,0,
9.0330017,Autobus Tera,node/10905160356,38.7322404,0,
9.033026,Autobus Tera,node/10905160357,38.7323851,0,
9.0282768,Sebategna,node/10905160358,38.7329553,0,
9.0283274,Sebategna,node/10905160359,38.7331326,0,
9.021201,Abenet,node/10905160360,38.7333187,0,
9.0196344,Abenet,node/10905160361,38.7335682,0,
9.0158211,Darmar,node/10905160362,38.7346366,0,
9.0154497,Darmar,node/10905160363,38.7347971,0,
9.0133778,Lideta Condominium,node/10905160364,38.7343382,0,
9.0133623,Lideta Condominium,node/10905160365,38.7345056,0,
9.0094187,Dessie Hotel,node/10905160366,38.7337879,0,
9.0093029,Dessie Hotel,node/10905160367,38.7339331,0,
9.0046165,Lideta,node/10905160368,38.7337058,0,
9.0041332,Lideta,node/10905160369,38.7338158,0,
9.0001611,AU (Mikael) Rounrdabout,node/10905160370,38.7393722,0,
8.9999889,AU (Mikael) Rounrdabout,node/10905160371,38.7400667,0,
8.9839514,Kera,node/10905641592,38.7518897,0,
8.9606229,Jemmo 1,node/10905771998,38.7123799,0,
8.9688439,Jemmo Mickael,node/10905771999,38.7216431,0,
9.0192423,Metrology,node/10905772000,38.7468034,0,
8.9969985,karl Square,node/10905772001,38.7304143,0,
8.9883364,Bisrate Gebrael,node/10905772002,38.7227062,0,
8.9687533,Jemmo Mickael,node/10905772003,38.7218663,0,
8.9604031,Jemmo 1,node/10905772004,38.7124299,0,
8.9493317,Noc,node/10905866700,38.6701812,0,
8.9339514,Alem Gena,node/10905876026,38.6639521,0,
8.933851,Alem Gena,node/10905876027,38.6640124,0,
8.9493415,Noc,node/10905876029,38.670031,0,
8.9538566,Jemmo 3 Squer,node/10905876030,38.6965362,0,
8.9552123,Jemmo 3 Squer,node/10905876031,38.697557,0,
9.0220649,Post Office,node/10905982178,38.7520387,0,
8.9652918,Germen Square,node/10905982179,38.732839,0,
8.9664306,Germen Square,node/10905982180,38.7325545,0,
8.9717027,Gofa,node/10906020778,38.7418952,0,
8.9716231,Gofa,node/10906020779,38.7419996,0,
8.9816221,Ayer Tena,node/10906074341,38.6979766,0,
8.9644965,Germen Square,node/10906074342,38.7320917,0,
8.9646595,Germen Square,node/10906074343,38.732112,0,
8.9883474,Mesked,node/10907679395,38.6922537,0,
8.9913753,Kidane Mihret,node/10907679396,38.6892908,0,
8.9958978,Tropical,node/10907679398,38.683541,0,
9.0003808,Alem Bank,node/10907679399,38.677926,0,
9.0010321,Alem Bank,node/10907679400,38.6776565,0,
8.9957016,Tropical,node/10907679401,38.6841485,0,
8.9915373,Kidane Mihret,node/10907679402,38.689491,0,
8.9884696,Mesked,node/10907679403,38.6925125,0,
8.9757717,Chaina Camp,node/10907679404,38.7060819,0,
8.9730472,Zenebewerk,node/10907725405,38.7121867,0,
8.9655559,Mickael Bridge,node/10907725406,38.7275949,0,
8.9648278,Germen Square,node/10907781477,38.7333383,0,
8.9844811,Kera,node/10907781478,38.7500865,0,
8.9842955,Kera,node/10907781479,38.750364,0,
8.9770976,Gofa Gebriel,node/10907781480,38.7490157,0,
8.9770919,Gofa Gebriel,node/10907781481,38.7491174,0,
8.9832814,Mekanisa Abo,node/10908143594,38.7343726,0,
8.9830621,Mekanisa Abo,node/10908143595,38.7341531,0,
9.0088673,Mexico,node/10908143596,38.7440188,0,
9.0088181,Mexico,node/10908143597,38.7438,0,
9.0263912,Tewodros Square,node/10908191497,38.7516402,0,
8.9739466,Mekanisa,node/10908191498,38.7321651,0,
8.9738507,Mekanisa,node/10908191499,38.7322539,0,
9.0187971,Post Office,node/10908191500,38.7524753,0,
8.9493572,Mebrathile,node/10908661149,38.7334477,0,
9.0159317,Coca Cola,node/10909186645,38.729496,0,
9.0294352,Merab Hotel,node/10909186646,38.735361,0,
9.0213907,Abenet,node/10909186647,38.7334955,0,
9.0293588,Merab Hotel,node/10909186648,38.7353749,0,
9.016555,Kolfe Keranyo,node/10909186649,38.7180312,0,
9.0203575,Holand,node/10909186650,38.7159578,0,
9.0204824,Holand,node/10909186651,38.7162551,0,
9.017036,Kolfe Keranyo,node/10909186652,38.7176312,0,
9.0171583,Kolfe Keranyo,node/10909186653,38.7179346,0,
9.0122446,Torhayloch,node/10909186654,38.7202541,0,
9.0120497,Torhayloch,node/10909186655,38.7202419,0,
9.0134653,Keranio Mewcha,node/10909186657,38.7097752,0,
9.0133225,Keranio Mewcha,node/10909186658,38.7097861,0,
9.0140592,Mewcha,node/10909186659,38.7049946,0,
9.0139288,Mewcha,node/10909186660,38.7050058,0,
9.0153041,Mendida,node/10909186661,38.699427,0,
9.0151509,Mendida,node/10909186662,38.6995858,0,
9.0037697,Betel,node/10909186663,38.6937692,0,
9.0036921,Betel,node/10909186664,38.6937746,0,
9.0017481,Alem Bank,node/10909186665,38.6775777,0,
9.0016995,Alem Bank,node/10909186666,38.677633,0,
8.9868549,Zenebewerk,node/10911198617,38.7080844,0,
8.9867824,Zenebewerk,node/10911198618,38.7081829,0,
8.9838764,Ayer Tena,node/10911198619,38.6960194,0,
9.0114518,Mexico Shebelle Hotel,node/10911242345,38.7446969,0,
9.0114526,Mexico Shebelle Hotel,node/10911242346,38.7445773,0,
9.0117415,Lideta,node/10911242347,38.7336365,0,
9.0115482,Lideta,node/10911242348,38.7336469,0,
9.001869,Alem Bank,node/10911242349,38.6772002,0,
9.0018954,Alem Bank,node/10911242350,38.6769434,0,
8.9834957,Ayer Tena,node/10911695404,38.7007283,0,
9.0044227,Betel,node/10911717876,38.6943792,0,
9.0043775,Betel,node/10911717877,38.6941796,0,
8.9831049,Ayer Tena,node/10911725505,38.6982237,0,
8.9879977,Zenebewerk,node/10912835918,38.7080303,0,
8.9880219,Zenebewerk,node/10912835920,38.7079594,0,
9.0295143,Mebrat Haile,node/10913852032,38.714679,0,
9.0294826,Mebrat Haile,node/10913852033,38.7149385,0,
9.0334554,18 Mazoria,node/10913852034,38.7146172,0,
9.0334598,18 Mazoria,node/10913852035,38.714468,0,
9.0196268,Abenet,node/10913863174,38.7327435,0,
9.0194053,Abenet,node/10913863175,38.7327231,0,
9.0159095,Coca Cola,node/10913863176,38.7296372,0,
9.0117875,Torhayloch,node/10913863177,38.7222401,0,
9.0096837,Torhayloch,node/10913863178,38.7208808,0,
9.0056583,Augusta Bridge,node/10913863179,38.7185634,0,
9.0055925,Augusta Bridge,node/10913863180,38.7188581,0,
9.0000925,Old Airport,node/10913863181,38.7188599,0,
8.9998426,Old Airport,node/10913863182,38.7191188,0,
8.9932525,3 Kutir Mazoriya (Total),node/10913863183,38.7170227,0,
8.9926315,3 Kutir Mazoriya (Total),node/10913863184,38.7158494,0,
8.9756363,Kara Kore,node/10913974717,38.6817486,0,
8.9754009,Kara Kore,node/10913974718,38.6814504,0,
8.9813701,Gerar,node/10913974719,38.6894126,0,
8.9813486,Gerar,node/10913974720,38.6894421,0,
8.9829716,Ayer Tena,node/10913974721,38.6982009,0,
9.0116587,Mexico,node/10914160973,38.746198,0,
9.0102476,Mexico,node/10914160974,38.7438026,0,
8.987734,Zenebewerk,node/10914160976,38.708928,0,
8.9849086,Zenebewerk,node/10914160977,38.7049751,0,
8.9853381,Zenebewerk Meneharia,node/10914680945,38.7053463,0,
8.9852574,Zenebewerk Meneharia,node/10914680946,38.7056363,0,
9.0417169,Atena Tera,node/10914784456,38.71237,0,
9.0414427,Atena Tera,node/10914784457,38.7127192,0,
9.028352,Tekle Haimanot,node/10915613002,38.7426711,0,
9.0281855,Tekle Haimanot,node/10915613003,38.742622,0,
9.0658063,Asko,node/10915905485,38.6937551,0,
9.065919,Asko,node/10915905486,38.6937141,0,
9.0612502,Chereta,node/10915905487,38.7010467,0,
9.0612523,Chereta,node/10915905488,38.7011727,0,
9.0575666,Gulele Fana,node/10915905489,38.7069671,0,
9.0576638,Gulele Fana,node/10915905490,38.7070447,0,
9.0572628,Awolia,node/10915905491,38.7114229,0,
9.0576104,Awolia,node/10915905492,38.7116493,0,
9.0555179,Winget,node/10915905493,38.7124522,0,
9.0554488,Winget,node/10915905494,38.7127252,0,
9.018116,Kokebe,node/10918141989,38.6993091,0,
9.0178995,Kokebe,node/10918141990,38.6991634,0,
9.0188526,Yeshi Debele,node/10918141991,38.6969603,0,
9.0185642,Yeshi Debele,node/10918141992,38.6971815,0,
9.0177704,Keranio Adebabay,node/10918141993,38.7017975,0,
9.0176675,Keranio Adebabay,node/10918141994,38.7006389,0,
9.0178222,Medhanalem,node/10918141995,38.7049143,0,
9.0175512,Medhanalem,node/10918141996,38.7047128,0,
9.0115804,Torhayloch,node/10918245686,38.7208703,0,
9.0099639,Torhayloch,node/10918245687,38.720685,0,
9.0114229,Torhayloch,node/10918314820,38.7225031,0,
9.0128836,Torhayloch,node/10918339958,38.7206095,0,
9.0118511,Legehar,node/10922141942,38.7544283,0,
9.0691686,Zebera,node/10923884107,38.7174162,0,
9.0630022,Addisu Gebeya,node/10923884109,38.7350114,0,
9.0625854,Addisu Gebeya,node/10923884110,38.7352489,0,
9.0670589,Bera Tera,node/10923884111,38.725597,0,
9.0689759,Zebera,node/10923884112,38.7174444,0,
9.0594889,Addisu Gebeya,node/10923941250,38.7374564,0,
9.059208,Addisu Gebeya,node/10923941251,38.7379019,0,
9.0528165,Semen Mazegaga,node/10923941252,38.7431266,0,
9.0528691,Semen Mazegaga,node/10923941253,38.7432318,0,
9.0483987,Shola,node/10923941254,38.7461562,0,
9.0484505,Shola,node/10923941255,38.7462522,0,
9.0446634,Semen Hotel,node/10923941256,38.7483104,0,
9.0446029,Semen Hotel,node/10923941257,38.7485012,0,
9.0425995,Yohanes,node/10923941258,38.745274,0,
9.0425158,Yohanes,node/10923941259,38.7453414,0,
9.0346843,Eritrea Hotel,node/10923941260,38.7394065,0,
9.0347991,Eritrea Hotel,node/10923941261,38.7393526,0,
9.0552727,Medhanalem,node/10924087993,38.7517928,0,
9.0552482,Medhanalem,node/10924087994,38.7518779,0,
9.0520868,Chelote,node/10924087995,38.7497489,0,
9.0521299,Chelote,node/10924087996,38.7496604,0,
9.0479898,Shola,node/10924087997,38.746423,0,
9.0480732,Shola,node/10924087998,38.7465175,0,
9.0385287,St. George Church,node/10924088002,38.7516855,0,
9.0385651,St. George Church,node/10924088003,38.7518109,0,
9.0365858,Piassa,node/10924088004,38.7522648,0,
9.0341764,Piassa,node/10924116805,38.7533491,0,
9.0650022,Kechenie,node/10924116806,38.7492165,0,
9.0652478,Kechenie,node/10924116808,38.7496684,0,
9.0639755,Shegole,node/10924211089,38.7268465,0,
9.0640548,Shegole,node/10924211090,38.7269586,0,
9.0590346,Rufael,node/10924211093,38.7274953,0,
9.0590438,Rufael,node/10924211094,38.7274376,0,
9.0544658,Tureta Deldy,node/10924211095,38.7329754,0,
9.054531,Tureta Deldy,node/10924211096,38.7330307,0,
9.0492619,Enqulal Fabrica,node/10924211097,38.7377403,0,
9.0492678,Enqulal Fabrica,node/10924211098,38.7378298,0,
9.0444679,Ras Desta,node/10924212637,38.7440337,0,
9.0444022,Ras Desta,node/10924212638,38.7439161,0,
9.0375917,Sebara Babur,node/10924212640,38.7483682,0,
9.0358617,Abune Petros,node/10924212641,38.749271,0,
9.0359205,Abune Petros,node/10924212642,38.7494119,0,
9.04258,Yohanes,node/10924212643,38.7458165,0,
9.0426863,Yohanes,node/10924212644,38.7459326,0,
9.0230837,Shola Abyssinia Bank,node/10924342466,38.79823,0,
9.0307347,British Embassy,node/10924342467,38.7854804,0,
9.0385815,Menlik Hospital,node/10924342468,38.7730502,0,
9.0385052,Menlik Hospital,node/10924342469,38.7728666,0,
9.0437484,6 Kilo,node/10924342470,38.7618512,0,
9.0453786,6 Kilo,node/10924342471,38.7613161,0,
9.0352542,Piassa,node/10924981547,38.7527884,0,
9.0168504,Kazanchis,node/10924981836,38.7714084,0,
9.0167816,Kazanchis,node/10924981837,38.7712817,0,
9.0199981,Meneharya,node/10924981839,38.767286,0,
9.0462061,6 Kilo,node/10924981840,38.7614317,0,
9.046202,6 Kilo,node/10924981841,38.7615616,0,
9.0430636,6 Kilo (Lion Zoo),node/10925096455,38.7613028,0,
9.0509212,Medhanalem,node/10925096457,38.7621679,0,
9.0609308,Shiromeda,node/10925096458,38.7616364,0,
9.0610296,Shiromeda,node/10925096459,38.7618074,0,
9.0350989,Abune Petros,node/10925161777,38.7493321,0,
9.0353615,Abune Petros,node/10925161778,38.7492809,0,
9.0385895,St. George Total,node/10925161780,38.7526253,0,
9.0338335,Raguel Church,node/10925161781,38.7411822,0,
9.0340374,Raguel Church,node/10925161782,38.7413278,0,
9.0352768,Piassa,node/10925161783,38.7491307,0,
9.0350881,Piassa,node/10925161784,38.749266,0,
9.0115722,Mexico,node/10925195639,38.7462619,0,
9.0572967,Winget,node/10925695034,38.7130281,0,
9.0576478,Winget,node/10925695035,38.7136024,0,
9.0630668,Shegole,node/10925835130,38.7201372,0,
9.0630348,Shegole,node/10925835131,38.7202097,0,
9.051016,Medhanalem,node/10925835153,38.7226821,0,
9.0512021,Medhanalem,node/10925835154,38.7228048,0,
9.047368,Pawlos Hospital,node/10925835155,38.7275912,0,
9.0474739,Pawlos Hospital,node/10925835156,38.7277025,0,
9.0462435,Pastor,node/10925835157,38.7306013,0,
9.0460773,Pastor,node/10925835158,38.7305979,0,
9.041653,Michael,node/10925835159,38.7324674,0,
9.0418749,Michael,node/10925835160,38.732621,0,
9.0356953,Autobus Tera,node/10925835161,38.731876,0,
9.0357033,Autobus Tera,node/10925835162,38.731937,0,
8.9844426,Summit Condominiums,node/10925946103,38.8548285,0,
8.9909634,Summit Condominiums,node/10925946104,38.8525995,0,
9.0206981,Meshageria,node/10925966505,38.8598883,0,
9.0212039,Derartu Adebabay,node/10925966506,38.8751635,0,
9.0215357,Derartu Adebabay,node/10925966507,38.8751433,0,
9.0403679,Gebreal,node/10925966508,38.8773377,0,
9.0402783,Gebreal,node/10925966509,38.8778174,0,
9.0556843,Aba Kiros,node/10925966510,38.8778648,0,
9.0561133,Aba Kiros,node/10925966511,38.878549,0,
8.9732139,Bole Arabsa,node/10926028111,38.8903446,0,
8.9726241,Bole Arabsa,node/10926028112,38.8904396,0,
8.9932453,Maseltegna,node/10926028113,38.8850892,0,
8.9932023,Maseltegna,node/10926028114,38.8854551,0,
9.0100814,Sun shine,node/10926028115,38.8780839,0,
9.0100956,Sun shine,node/10926028116,38.8779385,0,
9.0215285,Ayat,node/10926028117,38.8770142,0,
8.9875932,Mariam,node/10926040103,38.8848989,0,
8.9875847,Mariam,node/10926040104,38.8852531,0,
9.0212341,Ayat,node/10926074605,38.8767405,0,
8.9910294,Summit Condominiums,node/10926094674,38.8529201,0,
9.0195894,Megenagna,node/10926094675,38.8033659,0,
9.0203394,Megenagna,node/10926817920,38.8038784,0,
9.057063,Tafo Square,node/10926817921,38.8779123,0,
9.0566681,Tafo Square,node/10926817922,38.8780073,0,
9.0021737,Sun shine,node/10926849848,38.8763861,0,
9.0011674,Summit Chafe,node/10926849849,38.8537813,0,
9.0015569,Summit Chafe,node/10926849850,38.8537842,0,
8.9918731,Goro,node/10926849851,38.8299574,0,
8.9917492,Goro,node/10926849852,38.8303339,0,
9.0194791,Se'alite Mihret,node/10926896755,38.8256621,0,
9.0198404,Se'alite Mihret,node/10926896756,38.8254269,0,
9.0109362,Ayat Chefe Condominium,node/10926896757,38.8944977,0,
9.0113892,Ayat Chefe Condominium,node/10926896758,38.8946434,0,
9.0207778,Ayat,node/10928177661,38.8758009,0,
8.9846036,Summit Condominiums,node/10928876312,38.854445,0,
8.9844416,Summit Condominiums,node/10928876313,38.8548242,0,
9.0273248,Tewodros Square,node/10929299420,38.751565,0,
9.0273553,Tewodros Square,node/10929299421,38.7517149,0,
9.0209798,Tikur Anbesa,node/10929299422,38.7480915,0,
9.0105347,Mexico,node/10929337801,38.7449001,0,
9.0119557,Stadium,node/10929337802,38.7559408,0,
9.0121328,Stadium,node/10929337803,38.7559437,0,
9.0195364,Megenagna,node/10929412718,38.8009614,0,
9.0190569,Megenagna,node/10929412719,38.8005907,0,
9.0155693,22 Mazoria,node/10929412721,38.787267,0,
9.0211986,Lem Hotel,node/10929694820,38.7940688,0,
9.0210828,Lem Hotel,node/10929694821,38.7939939,0,
9.0235014,Signal,node/10929694822,38.7815067,0,
9.0233755,Signal,node/10929694823,38.781471,0,
9.0280712,Abuare Gebeya,node/10929694824,38.7718347,0,
9.0279894,Abuare Gebeya,node/10929694825,38.7718123,0,
9.0270034,Tewodros Square,node/10929694826,38.7520638,0,
9.0268625,Tewodros Square,node/10929694827,38.7520149,0,
9.0285216,Tekle Haimanot,node/10929694828,38.744541,0,
9.0284531,Tekle Haimanot,node/10929694829,38.74454,0,
9.020064,Megenagna,node/10929694830,38.8009431,0,
9.0200336,Megenagna,node/10929694831,38.8005994,0,
9.0127448,Torhayloch,node/10929752934,38.7209032,0,
9.0225048,Megenagna,node/10931788261,38.7998465,0,
9.021325,Megenagna,node/10931788262,38.8010821,0,
9.0303308,Kotebe,node/10931809323,38.8385778,0,
9.0284671,Se'alite Mihret,node/10931809324,38.8331547,0,
9.0283689,Se'alite Mihret,node/10931809325,38.833187,0,
9.0216042,Lamberet,node/10931809326,38.8139293,0,
9.0214909,Lamberet,node/10931809327,38.813953,0,
9.0404534,Kara,node/10931809328,38.8642169,0,
9.0404001,Kara,node/10931809329,38.864319,0,
9.0216983,Megenagna,node/10931809330,38.8015712,0,
9.0224128,Megenagna,node/10931850027,38.799743,0,
9.0344299,Kokebe Tsebah (Kebena),node/10931850028,38.7799581,0,
9.036142,4 Kilo,node/10931884718,38.7628341,0,
9.0571169,Ferensay,node/10931884719,38.7769686,0,
9.0570142,Ferensay,node/10931884720,38.7769596,0,
9.0535366,Mezan,node/10931884721,38.7722195,0,
9.0535794,Mezan,node/10931884722,38.7721316,0,
9.0470261,Jan Meda,node/10931884723,38.7690665,0,
9.0471196,Jan Meda,node/10931884724,38.7690208,0,
9.0180915,Megenagna,node/10931937848,38.8021444,0,
8.9633989,Kadisco,node/10931937849,38.766754,0,
9.0347501,Kebena,node/10931995346,38.776629,0,
9.0436018,6 Kilo,node/10932040828,38.7618304,0,
9.0386325,St. George Total,node/10932040829,38.7526555,0,
9.038614,St. George Total,node/10932040830,38.7527659,0,
9.017586,Lem Hotel,node/10932115661,38.7950974,0,
9.0239221,Lamberet,node/10932115662,38.8198719,0,
9.0107294,Mexico,node/10932115666,38.7471433,0,
9.0104411,Mexico,node/10932115667,38.7467607,0,
9.0249902,Shola Gebeya,node/10933668851,38.796095,0,
9.0253078,Shola Gebeya,node/10933668852,38.7963986,0,
9.0290044,Beg Tera,node/10933668868,38.8021516,0,
9.0289126,Beg Tera,node/10933668869,38.802143,0,
9.0315916,Zebera,node/10933668870,38.8093843,0,
9.0314928,Zebera,node/10933668871,38.8094344,0,
9.0355162,Kidane Mihret,node/10933668873,38.818742,0,
9.0355971,Kidane Mihret,node/10933668874,38.8186176,0,
9.0113969,St. Urael Church,node/10933970678,38.7750759,0,
9.0110384,St. Urael Church,node/10933970679,38.7752362,0,
9.004269,Atlas,node/10934121405,38.7797684,0,
9.0041884,Atlas,node/10934121406,38.779678,0,
9.0103387,St. Urael Church,node/10934121407,38.7748368,0,
9.0104642,St. Urael Church,node/10934121408,38.7749361,0,
8.9843274,Kera,node/10934142102,38.7518505,0,
8.9840695,Kera,node/10934142103,38.7515846,0,
9.0324426,4 Kilo,node/10934274056,38.7632997,0,
9.0324401,4 Kilo,node/10934274057,38.7635199,0,
9.012454,St. Estifanos,node/10934274058,38.762845,0,
9.0109591,Buna Ena Shay,node/10934274059,38.7482685,0,
9.0106827,Buna Ena Shay,node/10934274060,38.748215,0,
9.032283,4 Kilo,node/10936313832,38.7645933,0,
9.0323383,4 Kilo,node/10936313833,38.7648081,0,
9.0289759,Sebategna,node/10936490562,38.7321818,0,
9.028913,Sebategna,node/10936490563,38.7322093,0,
9.0258457,Amanuel Total,node/10936490564,38.7211312,0,
9.0258301,Amanuel Total,node/10936490565,38.721144,0,
9.0576027,Winget,node/10936621813,38.7131944,0,
9.0486146,Enqulal Fabrica,node/10936724096,38.7375414,0,
9.0485559,Enqulal Fabrica,node/10936724097,38.7377157,0,
8.9975486,karl Square,node/10937101933,38.731079,0,
9.0441444,6 Kilo,node/10937167108,38.7611528,0,
9.0441155,6 Kilo,node/10937167109,38.7613175,0,
8.9877236,Kera,node/10937209934,38.7484685,0,
9.0652302,Kechenie,node/10937271651,38.7497889,0,
9.0338624,Mesalemia,node/10961301939,38.7254794,0,
9.0339779,Mesalemia,node/10961301940,38.7255313,0,
9.0338527,Merkato,node/10961301941,38.7312096,0,
9.0337645,Merkato,node/10961301942,38.7312282,0,
9.028926,Tekle Haimanot,node/10961408041,38.7433286,0,
9.0264526,Abuare Roundabout,node/10961408042,38.7757907,0,
9.0265186,Abuare Roundabout,node/10961408043,38.7759091,0,
9.0178983,Keranio Adebabay,node/10961408397,38.7007101,0,
9.014972,Mendida,node/10961408398,38.7004401,0,
9.0151204,Mendida,node/10961408399,38.7004576,0,
8.9983425,Bole Medhanyalem,node/10963292174,38.7860616,0,
8.9984526,Bole Medhanyalem,node/10963292175,38.7862416,0,
9.0231558,Weybla Mariam,node/10963817572,38.688451,0,
9.0233344,Weybla Mariam,node/10963817573,38.6882249,0,
9.0159879,22 Mazoria,node/10963932669,38.7889432,0,
8.9884101,Bisrate Gebrael,node/10964879159,38.7226406,0,
9.0333084,Luwkanda,node/10970584167,38.7086432,0,
9.0332835,Luwkanda,node/10970584168,38.7086485,0,
9.0335266,18 Mazoria,node/10970584169,38.7126753,0,
9.0335023,18 Mazoria,node/10970584170,38.7126794,0,
9.0372905,Abysinia Coffee,node/10970584171,38.7164132,0,
9.037294,Abysinia Coffee,node/10970584172,38.7164416,0,
9.0337305,18 Mazoria,node/10970748190,38.7149465,0,
9.0515413,4 Menta Adebabay,node/10970748192,38.7087797,0,
9.0514981,4 Menta Adebabay,node/10970748193,38.7088057,0,
9.0503697,Tero Mosque,node/10970748194,38.7058937,0,
9.0503743,Tero Mosque,node/10970748195,38.7058901,0,
9.0294218,Sebategna,node/10970823802,38.7327781,0,
9.0294686,Sebategna,node/10970823803,38.732906,0,
9.0350955,Piassa Arada,node/10970829160,38.7492677,0,
9.033556,Piassa Arada,node/10970912911,38.7535518,0,
9.0542225,Rufael,node/10970912912,38.6992026,0,
9.0542148,Rufael,node/10970912913,38.6992201,0,
8.9922493,Selefia Mosque,node/10973319411,38.6737826,0,
8.9922388,Selefia Mosque,node/10973319412,38.6737682,0,
9.0343357,Piassa Arada,node/10973319413,38.7498429,0,
9.0343492,Piassa Arada,node/10973319414,38.749831,0,
9.0610285,Shiromeda,node/10973319416,38.7606274,0,
9.0610076,Shiromeda,node/10973319417,38.760666,0,
8.8697296,Akaki Gebeya,node/10973446898,38.7886493,0,
8.8697306,Akaki Gebeya,node/10973446899,38.7886284,0,
8.8769656,Meshualekya,node/10973446900,38.7865309,0,
8.9482942,Mebrathayil,node/10973631794,38.734517,0,
8.9481457,Mebrathayil,node/10973631795,38.7344951,0,
8.9473757,Lafto,node/10973631797,38.7443373,0,
8.8668288,Yeshi Total,node/10973672014,38.7987757,0,
8.866829,Yeshi Total,node/10973672015,38.798782,0,
9.0206661,Megenagna,node/10973929780,38.8028464,0,
9.0339313,Biretabret,node/10973929781,38.8234705,0,
9.0375694,Hanna Mariam,node/10973929783,38.8316053,0,
9.037593,Hanna Mariam,node/10973929784,38.8316071,0,
9.0374618,Kotebe Teachers College,node/10973929786,38.8388573,0,
9.0390977,Kotebe Gebriel,node/10973929787,38.8505525,0,
9.039072,Kotebe Gebriel,node/10973929788,38.8505551,0,
9.0357328,Kotebe,node/10973960231,38.8279461,0,
9.035744,Kotebe,node/10973960232,38.8279666,0,
9.0343234,Kebena,node/10973960233,38.7769466,0,
9.0637787,Yeka Abado,node/10974036529,38.8735567,0,
9.0638007,Yeka Abado,node/10974036530,38.8734371,0,
8.9948109,Taxi Tera,node/10989247669,38.8092174,0,
8.9888758,Bole Bridge,node/10989247670,38.7944031,0,
9.0048732,Summit,node/10989247671,38.8517594,0,
9.0050343,Summit,node/10989247672,38.8520615,0,
8.9791887,Bole Mickael,node/10989306740,38.7737291,0,
8.979439,Bole Mickael,node/10989306742,38.7732491,0,
8.9647488,Riventy,node/10989306744,38.798111,0,
8.9647649,Riventy,node/10989306745,38.7981165,0,
9.0436398,Lomi Meda,node/10989322787,38.6992761,0,
9.0437269,Lomi Meda,node/10989322788,38.6991228,0,
9.0423415,Philiphs,node/10989322789,38.7046602,0,
9.0423608,Philiphs,node/10989322790,38.7046575,0,
9.0417374,Atena Tera,node/10989322793,38.7116317,0,
9.041685,Atena Tera,node/10989322794,38.7113214,0,
9.0418861,Atena Tera,node/10989352901,38.7128543,0,
9.0419946,Atena Tera,node/10989352903,38.7136815,0,
9.037404,Kolfe,node/10989352904,38.7169566,0,
9.0373552,Kolfe,node/10989388405,38.7170428,0,
9.0376969,Chid Tera,node/10989388406,38.7213864,0,
9.0375624,Chid Tera,node/10989388407,38.7215618,0,
9.0339795,Tourist Hotel,node/10989495135,38.760933,0,
9.0331899,Tourist Hotel,node/10989495136,38.7627083,0,
9.0365548,St. George Church,node/10989495137,38.752267,0,
9.0365649,St. George Church,node/10989495138,38.7523885,0,
9.0280891,Amanuel Church,node/10989606497,38.723026,0,
9.0280827,Amanuel Church,node/10989606498,38.7230514,0,
9.0330957,Mesalemia,node/10989606501,38.7246409,0,
9.0330994,Mesalemia,node/10989606502,38.7246228,0,
9.0170151,Coca Cola,node/10989606503,38.729182,0,
9.0169029,Coca Cola,node/10989606504,38.7293902,0,
9.0216869,Tikur Anbesa,node/10989700748,38.7477611,0,
9.0214822,Tikur Anbesa,node/10989700750,38.7476433,0,
9.0198621,Megenagna,node/10989765272,38.8028176,0,
9.0331305,Tourist Hotel,node/10991706244,38.7619614,0,
9.018399,Ambasader,node/10991706246,38.7538719,0,
9.0182782,Ambasader,node/10991706247,38.7539744,0,
9.0515112,Manen,node/10991763449,38.7588533,0,
9.0515112,Manen,node/10991763450,38.7588598,0,
8.8840593,Selam Building,node/10992050085,38.7766907,0,
8.944348,Saris Abo,node/10992073740,38.7693473,0,
8.8832126,Selam Building,node/10992247910,38.7771744,0,
8.8801893,Gelan Condominium,node/10992247911,38.768463,0,
8.8801651,Gelan Condominium,node/10992247913,38.7684764,0,
8.8738823,Breta bret,node/10994789635,38.7887302,0,
8.867782,Akaki CBE,node/10994942333,38.7888076,0,
8.8679415,Akaki CBE,node/10994942334,38.7887141,0,
9.0098456,Mexico,node/10995013009,38.7462885,0,
8.9470636,Lafto,node/10995013010,38.7443751,0,
8.9537702,Lafto (Mickael),node/10995013013,38.7504178,0,
9.0051854,Woyira Sefer,node/10995113524,38.7070388,0,
9.0050595,Woyira Sefer,node/10995113525,38.7068721,0,
8.9932233,Total 3 Kutir mazoria,node/10996939227,38.7170312,0,
8.9671943,Mebrat,node/10997112356,38.7486669,0,
8.9671522,Mebrat,node/10997112357,38.7487468,0,
8.9621911,Biharetsege,node/10997112358,38.7515775,0,
8.9622089,Biharetsege,node/10997112359,38.7515885,0,
8.9576758,Adey Abeba,node/10997112361,38.7631284,0,
8.9576954,Adey Abeba,node/10997112362,38.7631332,0,
8.9758799,Gofa Gebriel,node/10997112364,38.7488713,0,
8.9758721,Gofa Gebriel,node/10997112365,38.7489751,0,
9.0196301,Abenet,node/10997125769,38.7332825,0,
8.963665,Weleta,node/10997242295,38.6708623,0,
8.9636677,Weleta,node/10997242296,38.6708779,0,
8.9666342,Weleta Tele,node/10997242298,38.6731812,0,
8.9764681,Repi Highschool,node/10997242299,38.6774372,0,
8.9765185,Repi Highschool,node/10997242300,38.6774017,0,
9.0576594,Sara Ampol,node/10997243557,38.8741609,0,
9.0575648,Sara Ampol,node/10997243558,38.874351,0,
9.0480764,Kara Condominium,node/10997243559,38.8693718,0,
9.0480356,Kara Condominium,node/10997243560,38.8695015,0,
9.0107982,Torhayloch,node/10997360870,38.7207531,0,
9.0114511,Mexico,node/10997382833,38.7447026,0,
9.0114533,Mexico,node/10997382834,38.7445835,0,
9.01285,Mexico,node/10997495133,38.7440492,0,
9.01282,Mexico,node/10997495134,38.74405,0,
9.0163639,Darmar,node/10997495135,38.7345884,0,
9.0329801,Piassa Arada,node/10998041498,38.7545702,0,
9.0334582,Piassa Arada,node/10998041499,38.7537202,0,
9.025295,Shola,node/10998041503,38.7949306,0,
9.0251357,Shola,node/10998041504,38.7947575,0,
8.8954024,Kality Meneharia,node/11033818190,38.7722516,0,
8.9361085,Kality Maseltegna,node/11033818192,38.7642099,0,
8.9994656,AU (Mikael) Rounrdabout,node/11033818193,38.7406449,0,
9.0089885,Mexico,node/11033818195,38.7438741,0,
9.0089241,Mexico,node/11033818196,38.7440373,0,
8.9945922,Bulgaria Mazoria,node/11033818197,38.7474194,0,
9.0316048,Autobis Tera,node/11033818199,38.7373077,0,
9.0299591,Autobis Tera,node/11033818200,38.7377146,0,
8.9864921,Kera,node/11033903482,38.7483364,0,
8.9450016,Saris Abo,node/11034015157,38.7661068,0,
9.0331054,Piassa Arada,node/11034015158,38.7522899,0,
9.0321742,Piassa Arada,node/11034015159,38.7511155,0,
9.03055,Autobis Tera,node/11034031010,38.7370369,0,
9.0626384,Shero Meda,node/11034031011,38.7612633,0,
9.0583756,Tsehay Chora (ShiroMeda),node/11034031012,38.7598757,0,
9.0351037,Abune Petros,node/11034031013,38.7493262,0,
9.0305604,Autobis Tera,node/11034031014,38.7370571,0,
9.0777204,Kuskoam,node/11034054993,38.7572407,0,
9.0321373,Arat Kilo,node/11034209866,38.7654122,0,
8.9753965,Kara Kore,node/11034280233,38.6806691,0,
8.9825611,Ayer Tena,node/11034280234,38.6960927,0,
8.9753861,Kara Kore,node/11034280236,38.6805349,0,
9.0426561,Lion Zoo (PEPSI Kiosk),node/11034427397,38.7614325,0,
9.0571131,Abo Mazoriya,node/11034427398,38.777181,0,
9.0608545,Yeha,node/11034427399,38.7835816,0,
9.0622785,Gurara,node/11034427400,38.7880233,0,
9.0624066,Gurara,node/11034427401,38.7888027,0,
8.9535755,Saris,node/11034511605,38.7634093,0,
8.9535945,Saris,node/11034511606,38.7636248,0,
9.0296904,Autobis Tera,node/11034611751,38.7371486,0,
9.0221498,Megenagna,node/11034647605,38.8004821,0,
9.0385859,Menlik Hospital,node/11035234708,38.773054,0,
9.0115667,Torhailoch,node/11035234709,38.7220211,0,
9.0408403,Millenium School,node/11035240259,38.710203,0,
9.0376857,Chid Tera,node/11035240260,38.7214866,0,
9.0338468,Degu Hotel,node/11035240261,38.7151236,0,
9.0423792,Philiphs (Lomi Meda),node/11035240263,38.7051066,0,
9.0423523,Philiphs (Lomi Meda),node/11035240264,38.7051082,0,
8.9837379,Ayer Tena,node/11035502832,38.6971291,0,
8.9836981,Ayer Tena,node/11035502833,38.7015659,0,
8.9914198,Bisrate Gebrael,node/11035532608,38.7255627,0,
9.0191017,Zenebewerk Hotel,node/11035607129,38.7682089,0,
9.0107497,Estifanos,node/11035607130,38.7636411,0,
9.0109263,Lideta Condominium,node/11035607131,38.7386025,0,
8.9882771,Zenebework,node/11035662205,38.7080773,0,
9.0165403,Darmar,node/11035734852,38.7377271,0,
8.9270084,Hana Maryam,node/11035734855,38.7418753,0,
9.058672,Bercheko Condominium,node/11035818337,38.700756,0,
8.9231915,Alem Gena,node/11035914858,38.6529741,0,
8.9494175,Noc,node/11035914859,38.6701962,0,
8.9490541,Noc,node/11035914860,38.6699835,0,
8.9666123,Weleta Tele,node/11035914861,38.6735724,0,
8.9635929,Weleta,node/11035914862,38.6708945,0,
8.9641803,Weleta,node/11035914863,38.6707668,0,
8.9666144,Weleta Tele,node/11035914864,38.6731872,0,
8.9834038,Ayer Tena,node/11035914865,38.6967597,0,
8.9825038,Ayer Tena,node/11035914869,38.6960161,0,
9.0404548,Kara,node/11036026882,38.8642175,0,
8.9444406,Saris Abo,node/11036079238,38.7693583,0,
8.9328577,Werku Sefer,node/11036079239,38.7750063,0,
8.9846712,Kera,node/11036079243,38.7499581,0,
8.9856933,Kera,node/11036079245,38.7486833,0,
9.0221266,Anfo Meda,node/11036753217,38.6744385,0,
8.8736134,Tulu Dimtu Adebabay,node/11036769860,38.819824,0,
8.9458383,Saris Abo,node/11036769861,38.7659694,0,
8.8675083,Belay Ab Moters (Alem Bank),node/11036769863,38.7984235,0,
8.9591869,Mestawet Fabrica,node/11036961231,38.7083476,0,
9.0713656,Dil Ber,node/11037128648,38.7375586,0,
8.9213766,Mama,node/11037149942,38.6466135,0,
