stop_lon,stop_id,stop_lat,stop_name,parent_station,location_type
38.8504558,way/604046026,9.0210263001,C.M.C,,0
38.85044875,way/604046027,9.0209365501,C.M.C,,0
38.86039005,way/604046028,9.0206309001,Meri,,0
38.86039745,way/604046029,9.0205342501,Meri,,0
38.8717948,way/604046052,9.0212283001,Ayat,,0
38.87179745,way/604046053,9.0211369001,Ayat,,0
38.8426211,way/758915882,9.0213594001,St. Michael,,0
38.8426345,way/758915883,9.0214511001,St. Michael,,0
38.8284090499,way/758919087,9.0208269001,Management Institute,,0
38.8283603999,way/758919088,9.0209051001,Management Institute,,0
38.83479945,way/758919089,9.0216842501,Civil Service College,,0
38.83479775,way/758919090,9.0217686501,Civil Service College,,0
38.76879995,way/758922739,9.0104366001,Bambis,,0
38.76877485,way/758922740,9.0103406001,Bambis,,0
38.77470515,way/758922741,9.01099095,St. Urael,,0
38.7832101499,way/758922742,9.0148321501,Hayahulet 2,,0
38.7832128499,way/758922743,9.0149132501,Hayahulet 2,,0
38.7893457,way/758922744,9.0161997001,Hayahulet 1,,0
38.7893058,way/758922745,9.0162805001,Hayahulet 1,,0
38.7959009999,way/758922746,9.0178812001,Lem Hotel,,0
38.7958714999,way/758922747,9.0179702501,Lem Hotel,,0
38.8026662,way/758922751,9.0196319001,Megenagna,,0
38.81016615,way/758922752,9.0201812501,Gurd Sholla 2,,0
38.8101826,way/758922753,9.0202704501,Gurd Sholla 2,,0
38.8199118,way/758922754,9.0190550501,Gurd Sholla 1,,0
38.8199363,way/758922755,9.0191373501,Gurd Sholla 1,,0
38.7228792001,way/758926923,9.0114466001,Tor Hailoch,,0
38.7228400001,way/758926924,9.0113509001,Tor Hailoch,,0
38.72925215,way/758926925,9.0120903001,Cocacola,,0
38.72924475,way/758926926,9.0120082001,Cocacola,,0
38.7358812,way/758926927,9.0113260501,St. Lideta,,0
38.735902,way/758926928,9.0114191001,St. Lideta,,0
38.74251165,way/758926929,9.0104883001,Tegbared,,0
38.74252605,way/758926930,9.0105720501,Tegbared,,0
38.7486780499,way/758926931,9.0110042001,Mexico,,0
38.7486304499,way/758926932,9.0111035001,Mexico,,0
38.75364485,way/758926933,9.0118976001,Leghar,,0
38.7536616,way/758926934,9.0118055501,Leghar,,0
38.75765945,way/758926935,9.0119426001,Stadium,,0
38.75768125,way/758926936,9.0120396501,Stadium,,0
38.7633918,way/758926937,9.0109756501,St. Estifanos,,0
38.7634133,way/758926938,9.0110528501,St. Estifanos,,0
38.7383589,way/759354435,9.0341520001,Gojam Berenda,,0
38.73838775,way/759354436,9.0342421001,Gojam Berenda,,0
38.7469346,way/759354437,9.0345698501,Atikilt Tera,,0
38.7469217,way/759354438,9.0346634001,Atikilt Tera,,0
38.7631070001,way/759359409,8.938011,Kality,,0
38.7630034001,way/759359410,8.93795435,Kality,,0
38.7663008501,way/759359411,8.94501825,Abo Junction,,0
38.7662190501,way/759359412,8.9449765,Abo Junction,,0
38.7634466333,way/759359413,8.9519971333,Saris,,0
38.7633591333,way/759359414,8.9519912333,Saris,,0
38.76388145,way/759359415,8.9567954,Adey Abeba,,0
38.76379965,way/759359416,8.9568021,Adey Abeba,,0
38.75926535,way/759359417,8.9903485,Lancha,,0
38.75916345,way/759359418,8.9903366,Lancha,,0
38.7598284334,way/759359419,8.9952452,Temenja Yazh,,0
38.7597271667,way/759359420,8.9952399,Temenja Yazh,,0
38.7587088,way/759359421,9.0005732,Riche,,0
38.7586096,way/759359422,9.00058575,Riche,,0
38.7588805,way/759359423,9.00485825,Meshwalekya,,0
38.7587524,way/759359424,9.00486215,Meshwalekya,,0
38.73475,way/759359425,9.0154149,Darmar,,0
38.73466315,way/759359426,9.01542485,Darmar,,0
38.73335125,way/759359427,9.0212786,Abnet,,0
38.73341865,way/759359428,9.0212687,Abnet,,0
38.73298775,way/759359429,9.0283819,Sebategna,,0
38.7330763,way/759359430,9.0284011,Sebategna,,0
38.7329878,way/759359431,9.0340910501,Autobus Tera,,0
38.7329908,way/759359432,9.0340079501,Autobus Tera,,0
38.7607979501,way/759365358,8.9731988,Nifas Silk 2,,0
38.7606849501,way/759365359,8.97316965,Nifas Silk 2,,0
38.7629963,way/759365360,8.9657149,Nifas Silk 1,,0
38.7628904,way/759365361,8.96571355,Nifas Silk 1,,0
38.7525538,node/847244293,9.0165395,Beherawi Theatre,,0
38.7521415,node/847244423,9.0209237,Black Lion,,0
38.7632408,node/4832025024,9.0344007,4 Kilo,,0
38.8158571,node/4884374622,9.0223057,Lamberet Terminal (Bus),,0
38.738182,node/5248250425,8.9929728,Sar Bet (Roundabout),,0
38.7553162,node/5330678521,9.0164409,Ambassador,,0
38.7570321,node/5736089088,9.0120276,Stadium,,0
38.7146778,node/6251054285,9.0295451,Mebrathail,,0
38.6928185,node/6307600909,9.0654733,Asko,,0
38.7718334,node/6373574986,8.9976331,Bole Printing Press,,0
38.7516761,node/6728583386,9.0331479,Arada,,0
38.771456,node/6728599185,9.0167914,Kazanchis,,0
38.7444332,node/6814022390,9.0094665,Mexico,,0
38.7438796,node/6967142984,8.9644773,Mebrat Condominium,,0
38.7486643,node/6967165728,8.9673396,Mebrat,,0
38.7491221,node/6967179322,8.9771232,Gofa Gebriel,,0
38.7498599,node/6967179323,8.9825519,Kera (Gofa Road),,0
38.7516602,node/6967225474,9.0277111,Tewodros Square,,0
38.732897,node/6967234177,8.9655968,German Square,,0
38.7859995,node/6967281153,8.9899905,Friendship Building,,0
38.7512565,node/6967281241,9.0319356,Piassa (Downtown Cafe),,0
38.7526242,node/6967281242,9.0330123,Piassa Arada (2),,0
38.6217166,node/6967318740,9.0418236,Gojo,,0
38.8026673,node/7022361366,9.0203188,Megenagna Terminal,,0
38.7897496,node/7022397409,8.9885373,Bole Millenium,,0
38.789886,node/7022397410,8.9887535,Bole Millenium,,0
38.8267584,node/7022397411,8.9937973,Goro School,,0
38.8569434,node/7022397413,8.9842788,Summit Condominiums,,0
38.857122,node/7022397414,8.9842364,Summit Condominiums,,0
38.8906061,node/7022397416,8.9720161,Bole Arabsa,,0
38.8903477,node/7022397417,8.9732168,Bole Arabsa,,0
38.8785675,node/7022397418,9.0561038,Aba Kiros Roundabout,,0
38.875565,node/7022397420,9.0689298,Yeka Abado,,0
38.8756232,node/7022397421,9.0688377,Yeka Abado,,0
38.7894476,node/7037142410,9.0626109,Gurara,,0
38.7757967,node/7037142414,9.026427,Abuare Roundabout,,0
38.7759255,node/7037142415,9.026504,Abuare Roundabout,,0
38.8000289,node/7037142417,9.0224201,Marathon Motor (Megenagna),,0
38.7836264,node/7037142419,9.060739,Yeha,,0
38.7839285,node/7037142420,9.0608445,Tena Tabya,,0
38.7811505,node/7037142421,9.0598571,Biret Dildiy (Bono Wuha),,0
38.7810894,node/7037142422,9.0599927,Bret Dildy (Bono Wuha),,0
38.7797667,node/7037142423,9.0042786,Atlas,,0
38.7860596,node/7037142424,8.9983386,Bole Medhanialem,,0
38.7862428,node/7037142426,8.9984556,Bole Medhanialem,,0
38.800549,node/7037142427,9.0098865,24,,0
38.7866932,node/7037142428,9.0221273,Dinberwa Hospital,,0
38.7802113,node/7037142430,9.0345238,Kokebe Tsebah School,,0
38.7799476,node/7037142431,9.034441,Kokebe Tsebah School,,0
38.7839469,node/7037142433,9.031876,Belgium Embassy,,0
38.784892,node/7037142434,9.0311083,British Embassy,,0
38.7855544,node/7037142435,9.0309087,British Embassy,,0
38.7887162,node/7037142436,9.0287538,Abebe Sook,,0
38.7952986,node/7037142438,9.0250779,Shola Gebeya,,0
38.7961373,node/7037142439,9.0244101,Yeka Michael,,0
38.8021491,node/7037142441,9.0180934,Megenagna,,0
38.8017521,node/7037142442,9.0182711,Megenagna,,0
38.7818835,node/7037142443,8.8869301,Derartu,,0
38.7838224,node/7037142444,8.8857405,Gelan Condominium,,0
38.785591,node/7037142445,8.8844269,08 Adarash,,0
38.7865253,node/7037142446,8.8767985,Meshuwalekia Akaki,,0
38.7887478,node/7037142448,8.8738843,Akaki Beretaberet,,0
38.8207065,node/7037142450,8.870907,G7 (Tulu Dimtu),,0
38.8042339,node/7037142454,8.8552763,Tulu Dimtu,,0
38.8041524,node/7037142455,8.8556159,Tulu Dimtu,,0
38.7961539,node/7037142456,8.8597556,Akaki Korkoro,,0
38.8051915,node/7037142459,8.8688691,Tulu Dimtu (Taf Gas Station),,0
38.8136608,node/7037142460,8.8722685,Arsema,,0
38.8140262,node/7037142461,8.8722281,Selam Sefer (Tapela Gar),,0
38.8201689,node/7037142462,8.8747821,Tulu Dimtu Adebabay,,0
38.8218482,node/7037142464,8.8658608,Project 12 Akababi,,0
38.8148895,node/7037142465,8.8592154,Mahiber Betoch,,0
38.7912061,node/7037142466,8.9869933,Bole Dildiy,,0
38.8000136,node/7037142467,9.02034,Megenagna / Zefmesh,,0
38.8010735,node/7037142469,9.0213214,Megenagna,,0
38.8015921,node/7037142470,9.0217137,Megenagna,,0
38.8100422,node/7037142471,9.0215363,Abysinia Cafe Area,,0
38.810853,node/7037142472,9.0213396,Abysinia Cafe Area,,0
38.8132781,node/7037142474,9.0196778,Century Mall,,0
38.8215105,node/7037142475,9.0187352,Gurd-shola,,0
38.8192066,node/7037142476,9.0239816,Menaheria,,0
38.8192354,node/7037142477,9.0238758,Menaheria,,0
38.814876,node/7037142479,9.003632,Gerji Mebrat Haile,,0
38.8132574,node/7037142483,9.0037638,Gerji Mebrat Haile,,0
38.8251916,node/7037142484,9.0253421,Lamberet,,0
38.8271787,node/7037183485,9.0258842,Lamberet Area,,0
38.8273076,node/7037183486,9.0260507,Lamberet Area,,0
38.8271189,node/7037183487,9.0259969,Lamberet Area,,0
38.8294063,node/7037183490,8.9913503,Yerer Goro,,0
38.8292171,node/7037183491,8.9913192,Yerer Goro,,0
38.8265756,node/7037183492,9.020263,Se'alite Mihret Church,,0
38.82686,node/7037183493,9.0203852,Management Institute,,0
38.8273219,node/7037183494,9.0203048,Sealite Mihret,,0
38.8342032,node/7037183495,9.0216167,Civil Service College,,0
38.8414217,node/7037183496,9.021312,St. Michael,,0
38.8425033,node/7037183497,9.0215489,St. Micheal Church,,0
38.8331954,node/7037183498,9.0283709,Salite Mihret,,0
38.8333256,node/7037183499,9.0285264,Hillside (Ethio-China Mebrathaile),,0
38.838592,node/7037183501,9.030459,Wessen Michael,,0
38.8442968,node/7037183504,9.0330948,Wessen,,0
38.8445812,node/7037183505,9.033228,Wessen,,0
38.8446898,node/7037183507,9.0330982,Wessen (Mariam),,0
38.8466963,node/7037183508,9.0342084,Kotebe Teachers College,,0
38.8533863,node/7037183509,9.0357649,Yabem Hotel,,0
38.8545188,node/7037183510,9.036101,Kotebe Gebriel,,0
38.8526027,node/7037183513,9.0201901,Yetebaberut,,0
38.8539074,node/7037183515,9.0207031,Yetebaberut,,0
38.8603565,node/7037183516,9.0207092,Meri,,0
38.8610727,node/7037183518,9.0205124,Meri (Yetebaberut),,0
38.8686047,node/7037183519,9.0208331,Ayat,,0
38.8678248,node/7037183520,9.0210633,Ayat Zone 2,,0
38.8606002,node/7037183521,9.0379427,Kara (Turn),,0
38.8640163,node/7037183523,9.0401552,Medhanalem Church,,0
38.852259,node/7037183525,9.0106828,Safari,,0
38.8520658,node/7037183527,9.0043876,Summit (MOHA),,0
38.8513132,node/7037183528,8.9955228,Saint Georgis,,0
38.860685,node/7037183529,8.9941038,Tena Tabeya,,0
38.8582866,node/7037183532,8.9894728,Gate 2,,0
38.8544474,node/7037183533,8.9846055,Summit Condominiums,,0
38.8719812,node/7037183535,9.0213287,Ayat Train Station,,0
38.872594,node/7037183536,9.0211208,CMC,,0
38.8767684,node/7037183537,9.0212396,Ayat Square,,0
38.8862575,node/7037183538,9.0216916,Feres Bet,,0
38.8946069,node/7037183539,9.0170704,Police Tabia,,0
38.891209,node/7037183540,9.0222555,Tsebel,,0
38.8902931,node/7037183541,9.0219034,Bono Meskid,,0
38.8946677,node/7037183542,9.0113906,Ayat Chefe Condominium,,0
38.8944878,node/7037183543,9.0109368,Ayat Chefe Condominium,,0
38.8767662,node/7037183545,9.0023517,Nebu Mikael,,0
38.8851706,node/7037183546,8.9965746,Ayat Adebabay Hulet (2),,0
38.8855436,node/7037183547,8.9963324,Bole Arabsa (3),,0
38.8851362,node/7037183548,8.9841602,Bole Arabsa (2),,0
38.8902717,node/7037183550,8.9733148,Bole Arabsa,,0
38.8849449,node/7037183551,8.9654075,St. Gebereal,,0
38.877919,node/7037183552,9.0354891,Yeka Condominium 1,,0
38.8777819,node/7037183554,9.0381306,Tafo Gebrael,,0
38.8779667,node/7037183555,9.0505157,Tafo Condominium 1,,0
38.8773973,node/7037183557,9.0425957,Tafo Mebrathail,,0
38.877866,node/7037183558,9.0427743,Tafo Mebrathail,,0
38.8779122,node/7037183559,9.0465834,Tafo Condominium 2,,0
38.8705589,node/7037183562,9.0501511,Kara Condominium,,0
38.8647703,node/7037183563,9.0666282,Yeka Abado,,0
38.8737753,node/7037183565,9.0571811,Sara Ampol (Gedera),,0
38.8742538,node/7037183567,9.0580264,Sara Ampol,,0
38.8812971,node/7037183569,9.0606875,Aba Kiros,,0
38.8841651,node/7037183570,9.0630654,Makefafeya,,0
38.8892044,node/7037183571,9.0670494,Gari Tera,,0
38.8938058,node/7037183572,9.0707009,CCD,,0
38.8952147,node/7037183573,9.0718221,140,,0
38.9074861,node/7037183574,9.0818058,Legedadi Mission,,0
38.90832,node/7037183575,9.0821737,Legedadi Mission,,0
38.7771574,node/7041052894,8.8832831,Selam Building,,0
38.7768265,node/7041052895,8.8910809,Gojo Hotel,,0
38.7717913,node/7041052896,8.8958596,Kality Meneharia,,0
38.7668359,node/7041052897,8.9029458,Cheralia Factory,,0
38.7667452,node/7041052898,8.9029223,Cheralia Factory,,0
38.7638335,node/7041052900,8.9113422,Kality Gebriel,,0
38.7633323,node/7041052901,8.9124672,Kality Prison,,0
38.7416641,node/7041052912,8.928137,Hana Maryam,,0
38.6590102,node/7041052914,8.9274906,Tabelew,,0
38.6526472,node/7041052916,8.9230001,Alem Gena,,0
38.652656,node/7041052917,8.9229882,Alem Gena,,0
38.73129,node/7041052927,8.9683942,Mekanisa (Old Revenues Office),,0
38.7327236,node/7041052928,8.9656974,German Square,,0
38.7324437,node/7041052932,8.9556239,Gebriel Bridge,,0
38.7327233,node/7041052934,8.955596,Gebriel Bridge,,0
38.7339608,node/7041052935,8.9469471,Mebrathile (EEPCo),,0
38.7341955,node/7041052936,8.9790248,Mekanisa School,,0
38.7339384,node/7041052937,8.9785916,Abo,,0
38.7246092,node/7041052938,8.973373,Sheged Hotel,,0
38.720836,node/7041052939,8.9673959,Jemo Michael,,0
38.7209392,node/7041052940,8.966996,Jemo Michael,,0
38.7152564,node/7041052942,8.9614893,Jemo YBP (All Mart),,0
38.7123763,node/7041052944,8.9606358,Jemo 1,,0
38.7124284,node/7041052945,8.9604074,Jemo 1,,0
38.7084697,node/7041052946,8.9595125,Mestawet Fabrica,,0
38.7059934,node/7041052948,8.958513,Mestawet Fabrica,,0
38.6992718,node/7041052949,8.9564,Jemo 3,,0
38.6985348,node/7041052950,8.9556244,Jemo 3,,0
38.7077567,node/7041052951,8.9866742,Zenebework,,0
38.6713097,node/7041052952,8.9611777,Welete Maryam,,0
38.7272059,node/7041052953,8.9657858,Mickael Bridge,,0
38.689429,node/7041052954,8.9813447,Gerar,,0
38.6852022,node/7041052955,8.9793804,Repi (Gerar),,0
38.7220154,node/7041052957,8.9773403,Gebre Kirstos,,0
38.7228933,node/7041052958,8.9884304,Bisrate Gebrael,,0
38.7488548,node/7041052959,8.9753751,Gofa Gebriel (2),,0
38.7560783,node/7041052965,8.9822682,MOHA (Pepsi Factory),,0
38.7743852,node/7041052966,8.9555778,Addis Sefer (Gebriel),,0
38.77441,node/7041052967,8.9555403,Addis Sefer (Gebriel),,0
38.7600125,node/7041052969,8.9762662,Gotera (Oilibiya),,0
38.7598239,node/7041052970,8.976182,Gotera (Oilibiya),,0
38.7620577,node/7041052975,8.9697308,St. Joseph Church,,0
38.7627885,node/7041052977,8.9659447,kadisco Building,,0
38.762999,node/7041052978,8.965927,kadisco Building,,0
38.7630788,node/7041052979,8.9637596,Kadisco,,0
38.7640609,node/7041052980,8.9583017,Adey Abeba,,0
38.7638459,node/7041052982,8.9582595,Adey Abeba,,0
38.7635583,node/7041071286,8.9528662,Saris (CBE),,0
38.7633266,node/7041071287,8.9527596,Saris (CBE/Shoa Bakery),,0
38.7661044,node/7041071289,8.9450003,Abo Junction,,0
38.7663069,node/7041071290,8.9450733,Abo Junction,,0
38.763132,node/7041071291,8.9380959,Customs (Train Station),,0
38.766627,node/7041071295,8.9323275,Kality Maseltegna,,0
38.7681616,node/7041071296,8.9298185,Wehalemat,,0
38.775077,node/7041071297,8.9331651,Werku Sefer,,0
38.7478244,node/7041071342,8.9950292,Bulgaria Mazoria,,0
38.7475059,node/7041071344,8.9971703,Begtera,,0
38.7394459,node/7041071347,8.9990638,AU (Mikael) Rounrdabout,,0
38.7395945,node/7041071348,8.9990569,AU (Mikael) Rounrdabout,,0
38.7478465,node/7041071350,8.9937942,Bulgaria,,0
38.7595772,node/7041071352,8.9941475,Global Hotel,,0
38.7598183,node/7041071353,8.9941836,Global Hotel,,0
38.7596352,node/7041071354,8.9953383,Beklo Bet (Global),,0
38.7584812,node/7041071355,9.000141,Tele Garage,,0
38.7586986,node/7041071356,9.0043253,Riche,,0
38.7669535,node/7041071359,9.0166957,6th (Raddison Blu),,0
38.7572645,node/7041071360,9.017718,Filweha (Hotsprings),,0
38.7570579,node/7041071362,9.0175554,Filweha (Hotsprings),,0
38.7576145,node/7041071364,9.0138328,Ghion Hotel (Enterance),,0
38.7591876,node/7041071367,9.0098008,St. Joseph School,,0
38.7592761,node/7041071370,9.0104995,St. Joseph School,,0
38.7590434,node/7041071371,9.0105316,Admas University College,,0
38.7570112,node/7041071372,9.0118612,Lalibela Hotel,,0
38.7560438,node/7041071374,9.0121294,Stadium,,0
38.7545386,node/7041071376,9.011849,Legehar,,0
38.7539285,node/7041071377,9.0117857,Legehar,,0
38.7533069,node/7041071378,9.0109604,Legehar (Old Train Station),,0
38.7461963,node/7041071380,9.0097755,Mexico,,0
38.7414166,node/7041071382,9.0031416,African Union,,0
38.7423863,node/7041071383,9.0053059,Popolare,,0
38.7466748,node/7041071384,9.0046908,Guenet Hotel,,0
38.74694,node/7041071385,9.0032786,Guenet Hotel,,0
38.7488977,node/7041071386,9.0210743,Tikur Anbessa Hospital,,0
38.7464631,node/7041071387,9.0175836,Goma Quteba,,0
38.7334947,node/7041071388,9.0214263,Abenet,,0
38.7345522,node/7041071389,9.0132791,Lideta Condominium,,0
38.7348248,node/7041071390,9.0157856,Darmar,,0
38.7278809,node/7041071392,8.9939406,Austria Embassy,,0
38.727499,node/7041071393,8.9936591,Mechare Meda,,0
38.7152417,node/7041071395,8.9925902,3 Kutir Mazoriya (Total),,0
38.7184074,node/7041071397,8.995414,Minaye Building,,0
38.7191221,node/7041071399,8.9998642,Old Airport (Mobil),,0
38.7206897,node/7041071400,9.0099949,Tor Hailoch,,0
38.7100309,node/7041071401,9.0133411,Keranio Mewcha,,0
38.7159484,node/7041071402,9.0213057,Holand,,0
38.714954,node/7041071403,9.0245409,Meseret Edget,,0
38.7440603,node/7041071404,9.0278226,Teklehaymanot,,0
38.7458014,node/7041071405,9.0247481,Kebele 11,,0
38.75166,node/7041071406,9.0262634,Tewodros Square,,0
38.7517909,node/7041071407,9.0263826,Tewodros Square,,0
38.7521859,node/7041071411,9.0218352,Black Lion,,0
38.751592,node/7041071414,9.0158768,National Theatre,,0
38.7513097,node/7041071415,9.0156938,National Theatre,,0
38.7494881,node/7041071416,9.0139102,A.A. Commercial College,,0
38.7495568,node/7041071418,9.0138228,A.A. Commercial College,,0
38.7490599,node/7041071419,9.0114261,Buna Ena Shay,,0
38.7479733,node/7041071420,9.0105922,Buna Ena Shay,,0
38.7468862,node/7041071423,9.0119916,Mexico Shebelle Hotel,,0
38.7429038,node/7041071425,9.0105894,TVET College (Tegbare'd),,0
38.7426638,node/7041071429,9.0103865,Federal Police (Tegbare'd),,0
38.738603,node/7041071430,9.0109303,Lideta (Balcha Hospital),,0
38.7385604,node/7041071431,9.0111161,Lideta (Balcha Hospital),,0
38.7377815,node/7041071432,9.011233,Lideta Condominium,,0
38.733822,node/7041071433,9.0041706,Lideta Tsebel,,0
38.7338119,node/7041071434,9.0093091,Dessie Hotel,,0
38.7342297,node/7041071435,9.0108572,High Court,,0
38.733431,node/7041071437,9.0115829,Lideta High Court,,0
38.7293132,node/7041071439,9.0121559,Hintsa College,,0
38.7292339,node/7041071441,9.0119411,Coca Cafe,,0
38.7265458,node/7041071444,9.011282,Mekonenoch (Golf) Club,,0
38.7220202,node/7041071446,9.0115616,Tor Hailoch Junction,,0
38.7216866,node/7041071447,9.0119442,Torhailoch,,0
38.7206478,node/7041071448,9.0139112,Tor Hailoch,,0
38.7209168,node/7041071449,9.013939,Tor Hailoch,,0
38.7089411,node/7041071450,9.0194506,Keranio Bridge,,0
38.7049748,node/7041071451,9.0175679,Medhanialem,,0
38.7006446,node/7041071452,9.0176634,Keranio Adebabay,,0
38.6994971,node/7041071453,9.0180779,Kokebe,,0
38.6954056,node/7041071454,9.0195382,Yeshi Debele,,0
38.6957701,node/7041071455,9.0190748,Yeshi Debele,,0
38.6884518,node/7041071456,9.0231539,Mariam,,0
38.6742682,node/7041071458,9.021983,Anfo Meda,,0
38.7752596,node/7041071459,9.0110433,St. Urael Church,,0
38.766397,node/7041071461,9.0104908,Salcost Apartments (NOC),,0
38.7626376,node/7041071462,9.0118738,St. Estifanos Church,,0
38.7675809,node/7041071464,9.0199107,St. Gebriel,,0
38.7680315,node/7041071465,9.0193852,Zenebewerk Hotel,,0
38.7715231,node/7041071466,9.0206693,Meles Zenawi Foundation,,0
38.770643,node/7041071468,9.0194316,Azmari Bet (Traditional Music Club),,0
38.7702335,node/7041071469,9.0166401,Kazanchis (6th),,0
38.7638714,node/7041071471,9.0196382,Hilton Hotel (Apartments),,0
38.7772342,node/7041071473,9.0233468,Women Square,,0
38.7771738,node/7041071474,9.0234508,Women Square,,0
38.7765755,node/7041071475,9.0244322,Aware Bridge,,0
38.7633615,node/7041071479,9.0319312,Arat Kilo,,0
38.7652099,node/7041071480,9.0321438,Arat Kilo,,0
38.7728461,node/7041071481,9.032458,Bel Air,,0
38.7730493,node/7041071482,9.0324918,Addis View Hotel,,0
38.7730556,node/7041071483,9.0385857,Menelik II Hospital,,0
38.7719268,node/7041071484,9.0388201,Menlik Hospital,,0
38.7522029,node/7041071579,9.0365871,Piassa Arada,,0
38.7524445,node/7041071580,9.0363947,Piassa Arada,,0
38.7523164,node/7041071592,9.035363,Piassa Arada,,0
38.7491242,node/7041071594,9.0352553,Habtegiorgis Bridge,,0
38.7438917,node/7041071595,9.0343899,Kurtu Building,,0
38.7437548,node/7041071596,9.0341887,Kurtu Building,,0
38.7434135,node/7041071597,9.0343321,Pharmacy,,0
38.737968,node/7041071598,9.0343947,Gojam Berenda,,0
38.7337775,node/7041071599,9.0342308,Autobis Tera (3),,0
38.7298446,node/7041071600,9.03371,Autobus Tera,,0
38.7294433,node/7041071601,9.0338533,Darsema Grosery,,0
38.7101875,node/7041071602,9.0408355,Millenium School,,0
38.7200106,node/7041071604,9.04636,Girum Hospital,,0
38.7212396,node/7041071605,9.0407262,Woreda 7 TVET,,0
38.7219216,node/7041071606,9.0366318,Sefere Salam,,0
38.7173824,node/7041071607,9.037044,Kolfe,,0
38.7164487,node/7041071608,9.0373422,Abysinia Coffee,,0
38.7151531,node/7041071609,9.0338162,Degu Hotel,,0
38.7130781,node/7041071610,9.0335338,18 Mazoria,,0
38.7135105,node/7041071612,9.0335825,18 Mazoria,,0
38.7093322,node/7041071614,9.0333303,Luwkanda,,0
38.704541,node/7041071615,9.0340139,Comprensive,,0
38.6951186,node/7041071616,9.0327975,Realstate,,0
38.6888917,node/7041071619,9.034058,Police Tabiya,,0
38.6875252,node/7041071620,9.0342811,Feli Doro (1),,0
38.6853297,node/7041071622,9.0353789,Feli Doro,,0
38.7505925,node/7041071623,9.0328103,Arada,,0
38.7568178,node/7041071628,9.0389362,Ras Mekonene Bridge (Seba Dereja),,0
38.7625491,node/7041071629,9.0385989,5 Kilo (History Museum),,0
38.761951,node/7041071630,9.0408311,5 Kilo University,,0
38.7615693,node/7041071633,9.0427151,Lion Zoo (PEPSI Kiosk),,0
38.7603878,node/7041071636,9.0438891,Yekatit 12 Hospital,,0
38.7593176,node/7041071637,9.0436921,Yeatit 12 Hospital,,0
38.7527639,node/7041071638,9.0386136,Red-Cross (St. George Total),,0
38.7517494,node/7041071639,9.0386684,St. George Church (Total),,0
38.7488778,node/7041071640,9.0436522,Semen Hotel,,0
38.7482928,node/7041071641,9.0446929,Semen Hotel,,0
38.7461719,node/7041071642,9.0486023,Kelemwerk,,0
38.7458026,node/7041071643,9.0488673,Kelemwerk,,0
38.7443439,node/7041071645,9.0512494,Tibeb Ediget School,,0
38.7433813,node/7041071646,9.0523631,Semen Mazegaga,,0
38.7424925,node/7041071647,9.0537306,Semen Mazagaja,,0
38.7200104,node/7041071648,9.0541015,Shegole Bank,,0
38.7277601,node/7041071649,9.0474202,Pawlos Hospital,,0
38.7221677,node/7041071650,9.0514832,Finance,,0
38.7220512,node/7041071651,9.0513651,Medhanialem (TOTAL),,0
38.7201878,node/7041071653,9.0528369,Finance,,0
38.7199027,node/7041071654,9.0531245,Finance,,0
38.7149847,node/7041071655,9.0544244,Winget Chaf,,0
38.6987792,node/7041071658,9.051327,Mikili Land,,0
38.7137033,node/7041071659,9.0571703,Winget Adebabay,,0
38.7116367,node/7041071660,9.0576087,Awolia,,0
38.7067279,node/7041071661,9.0577975,Gulele Fana,,0
38.7065488,node/7041071662,9.0582376,Gulele Fana,,0
38.7034077,node/7041071663,9.0593548,Berchiko,,0
38.69045,node/7041071665,9.0665816,Gebriel (Sansusi),,0
38.7791204,node/7041071718,9.057952,Bono Weha,,0
38.7722233,node/7041071719,9.053538,Mezan,,0
38.7690705,node/7041071721,9.0470252,3rd Shaleka,,0
38.7615547,node/7041071723,9.0461753,6 Kilo (University),,0
38.7622054,node/7041071725,9.0513004,Meksaye Hizunan Medhanialem,,0
38.7622236,node/7041071726,9.052326,Teferi Mekonen,,0
38.7625698,node/7041071729,9.0541533,Sebseba Maekel,,0
38.7715088,node/7041071737,9.0649811,Eyesus,,0
38.7680987,node/7041071738,9.0585516,Hamle 19,,0
38.7607205,node/7041071740,9.0692162,Selassie,,0
38.7590628,node/7041071741,9.0745256,Sanba Nekersa-Shiromeda,,0
38.7572536,node/7041071742,9.0777328,Kuskoam,,0
38.7374397,node/7041071749,9.0710894,Dil Ber,,0
38.7204079,node/7041071753,9.0638294,Anbessa Garage (Shegole),,0
38.7182194,node/7041071754,9.0691617,Kebt Beret,,0
38.7230011,node/7041071755,9.0843712,Entoto Kela,,0
38.7095299,node/7041071758,9.1051152,Weserbi Realestate,,0
38.7147037,node/7041071759,9.1095355,Classy Water,,0
38.7158285,node/7041071760,9.1100449,Medret Hotel,,0
38.7300979,node/7041071761,9.1176074,Kburea,,0
38.7304557,node/7041071762,9.1179357,Kenenisa,,0
38.7395293,node/7041071763,9.1273122,Shefunea,,0
38.7397834,node/7041071764,9.1277902,Shefine,,0
38.7522344,node/7041071772,9.1339361,Doro Erbata,,0
38.7524529,node/7041071773,9.1341343,Abo Gabriel,,0
38.7549356,node/7041071774,9.1408321,Tulu Fati,,0
38.7538733,node/7041071775,9.1449015,Ashewa,,0
38.7542489,node/7041071776,9.1560016,Tabya Hotel,,0
38.738359,node/7047495429,8.9929589,Sar Bet (Roundabout),,0
38.6600221,node/7047495432,9.0286142,United Bank (Ashewa Meda),,0
38.7346499,node/7047495433,8.9208064,Sefera,,0
38.744323,node/7049122264,8.9473774,Lafto,,0
38.7440895,node/7049122265,8.935835,Hana Mariam (2),,0
38.7345586,node/7049122266,8.9387647,Haile Garment,,0
38.8779866,node/7049921444,9.0304285,Yekiber Demena Church,,0
38.8024339,node/7049921445,9.0204726,Megenagna Terminal,,0
38.8759579,node/7049921447,9.0220882,Hill Bottom (Recreation),,0
38.8775474,node/7049921448,9.0304125,Zone 8,,0
38.8779122,node/7049921449,9.0570656,Aba Kiros (Tafo) Roundabout,,0
38.8790275,node/7050234123,9.0566049,Tafo Junction,,0
38.8021323,node/7050327664,9.020626,Megenagna Terminal,,0
38.7617178,node/7054842410,9.0476858,6 Kilo,,0
38.7617169,node/7054842414,9.0476498,6 Kilo,,0
38.7532161,node/7055060064,9.0106346,Legehar (Old Train Station),,0
38.8546711,node/7055598734,9.0359897,Kotebe Gebriel,,0
38.8299268,node/7055598736,9.0269686,Ahmed Building,,0
38.7579049,node/7055598738,9.0363488,St. Mary Church,,0
38.7535483,node/7055598739,9.0335541,Piassa Arada,,0
38.7534018,node/7055598742,9.0327818,Piassa Arada,,0
38.7579442,node/7055598743,9.0363807,St. Mary Church,,0
38.8307544,node/7055598744,9.0274541,NOC End,,0
38.8467717,node/7056754511,9.0341209,Kotebe Teachers College,,0
38.8732637,node/7056754514,9.0630764,Meskelegna (Ababdo),,0
38.8022361,node/7056754516,9.020907,Megenagna,,0
38.779674,node/7057002158,9.0041945,Atlas,,0
38.7528717,node/7057002161,9.0329242,Piassa Arada,,0
38.7568279,node/7057002162,9.0389386,Ras Mekonene Bridge (Seba Dereja),,0
38.7626361,node/7057002163,9.0226675,Gibi Gebriel Church,,0
38.7929906,node/7057187392,8.9904207,Brass Clinic (Bole),,0
38.7932003,node/7057187393,8.9903142,Brass Clinic (Bole),,0
38.7519784,node/7062689844,9.0379471,St.Gorgis,,0
38.751629,node/7062689845,9.0358742,St. George Church (2),,0
38.7549398,node/7062689848,9.0345896,Piassa,,0
38.764362,node/7062689850,9.0325203,Arat Kilo,,0
38.7630946,node/7062689851,9.0344021,4 Kilo,,0
38.7621098,node/7062689852,9.0506154,Medhanialem,,0
38.7635923,node/7062689854,9.044142,Education Bureau (6 Kilo),,0
38.7690204,node/7062689855,9.0471236,Jan Meda,,0
38.7742742,node/7062689856,9.0557922,Frensaye Kela,,0
38.7736282,node/7062689857,9.0551762,Frensaye Kela,,0
38.7777387,node/7062689858,9.0569998,Abo Mazoriya,,0
38.7881845,node/7062689859,9.0623294,Gurara,,0
38.7608987,node/7067942461,8.9730894,Mamo (NFSL TVET),,0
38.7595747,node/7067942462,8.988213,Agona Cinema,,0
38.7597959,node/7067942463,8.9882665,Agona Cinema,,0
38.7587377,node/7067942465,9.0004682,Tele Garage,,0
38.7824519,node/7067990019,9.0145395,Zerihun Building,,0
38.7669539,node/7067990020,9.0166971,6th (Raddison Blu),,0
38.7621456,node/7070861695,9.026432,National Palace,,0
38.7872174,node/7070861696,8.9897614,SNAP Building,,0
38.7844888,node/7070861697,8.9908557,Friendship,,0
38.7822311,node/7070861698,8.9917592,Heber Restaurant,,0
38.7791533,node/7070861699,8.992295,RWANDA (Werbek House),,0
38.7798477,node/7070861701,8.9924,Rwanda,,0
38.7723732,node/7070861702,8.9966227,Bole Printing Press,,0
38.7715908,node/7070861703,8.9976714,Bole Printing Press,,0
38.7708659,node/7070861704,8.9993469,Mega Printing Press,,0
38.7697078,node/7070861705,9.001132,Shewa Dabo,,0
38.7697673,node/7070861706,9.0014126,Getu Commercial Center,,0
38.7678519,node/7070861707,9.004953,Dembel City Center,,0
38.7634195,node/7070861710,9.0100482,Flamingo,,0
38.7528459,node/7070861712,9.0358386,Piassa Arada,,0
38.8054033,node/7070861713,9.0074376,Anbessa Garage,,0
38.876525,node/7070861714,9.0221276,Ayat Roundabout,,0
38.8777949,node/7070861716,9.0401288,Gebriel,,0
38.7433527,node/7074233342,9.0527134,Semen Mazegaja | ሰሜን ማዘጋጃ,,0
38.7411604,node/7074233343,9.0559007,Del Ber School,,0
38.7379037,node/7074233344,9.0592088,Adisu Gebeya,,0
38.7355505,node/7074233345,9.061605,Kelebat,,0
38.7347909,node/7074233346,9.0679367,Oilibiya (Dil Ber),,0
38.7301845,node/7074267433,9.0463006,Pastor,,0
38.7228618,node/7074267434,9.051161,Medhanialem,,0
38.7138884,node/7074267435,9.0554455,Winget,,0
38.6101592,node/7074269464,9.0576131,Kela,,0
38.6101611,node/7074269465,9.0576152,Kela,,0
38.7481339,node/7074275407,9.0452427,Semen Hotel,,0
38.7484333,node/7074294627,8.9866969,Kera,,0
38.6922669,node/7074299254,9.0653014,Asko,,0
38.733098,node/7074324043,9.0286512,Sebategna,,0
38.7324012,node/7074324044,9.0317912,Autobis Tera (2),,0
38.7321005,node/7074324045,9.0347276,Autobis Tera,,0
38.7315967,node/7074326525,8.9733512,Mekanisa,,0
38.7343058,node/7074326526,8.9822244,Abo Mazoria,,0
38.8580841,node/7074330387,8.9894962,Gate 2,,0
38.8605382,node/7074330389,8.9942098,Tena Tabeya,,0
38.8602323,node/7074330391,8.9984544,Condminium (Gate),,0
38.8573283,node/7074330392,9.0014062,Gomista,,0
38.8517162,node/7074330394,9.0040839,Summit (MOHA),,0
38.8518265,node/7074330397,9.0106601,Safari,,0
38.820944,node/7074330400,8.999474,Alemayehu,,0
38.8196821,node/7074330401,9.0005663,Alemayehu,,0
38.8095474,node/7074330403,9.0050845,Condominium,,0
38.8287819,node/7074330407,9.026612,Ethio-china,,0
38.8643277,node/7074330409,9.0403987,Kara,,0
38.8850641,node/7074332290,8.9654679,Project 15,,0
38.8845811,node/7074332294,8.9772657,Kela,,0
38.7010211,node/7074347184,9.0616842,Chereta,,0
38.6894082,node/7074353066,8.9813585,Gerar,,0
38.6891023,node/7074387585,9.0714186,Sansusi,,0
38.6722328,node/7074496216,9.0285405,Kersa (2),,0
38.6653802,node/7074496217,9.0326531,Ashewa Meda,,0
38.6653823,node/7074496218,9.0326414,Ashewa Meda,,0
38.6569665,node/7074496219,9.0258997,United Bank (Ashewa Meda),,0
38.6515848,node/7074496221,9.027689,St. Gebriel,,0
38.6515743,node/7074496222,9.0276843,St. Gebriel,,0
38.6216778,node/7074496225,9.0417975,Gojo,,0
38.6776598,node/7074504387,9.0010346,Alem Bank,,0
38.6982193,node/7074504388,8.9831093,Ayer Tena,,0
38.6944335,node/7074504390,9.0045877,Bethel,,0
38.7004735,node/7074504392,9.0149626,Mendida,,0
38.7486994,node/7074525370,8.9700751,Mebrat Nigist Hotel,,0
38.7326808,node/7074541084,9.0116457,Lideta Kefetega Firdbet,,0
38.7363202,node/7074561391,8.9368661,Haile Garment,,0
38.7334502,node/7074561392,8.9493593,Mebrathile (EEPCo),,0
38.7544146,node/7074561393,8.9309368,Hana Mariam,,0
38.7444615,node/7074561394,8.9361698,Hana Mariam (2),,0
38.7448233,node/7074561395,8.95299,Meskelgna,,0
38.7514315,node/7074585943,9.0357438,Piassa Arada,,0
38.7633143,node/7074585944,9.0324015,Arat Kilo,,0
38.759835,node/7074599697,8.9953761,Beklo Bet (Global),,0
38.7672511,node/7074691520,9.0055741,Dembel City Center,,0
38.7471393,node/7074707878,9.010735,Mexico,,0
38.7478601,node/7074707880,9.0127963,ERA Office (Big Mak),,0
38.7591385,node/7074707881,9.0092034,Saint Josphe School,,0
38.7628296,node/7074707883,9.0124825,St. Estifanos Church,,0
38.7607684,node/7074819178,8.9725713,Mamo (NFSL TVET),,0
38.7643672,node/7074841188,8.9339802,Kality Maseltegna,,0
38.7498569,node/7075101457,8.9585362,Dildiy Mariam,,0
38.7497528,node/7075101459,8.9837158,Kera (Gofa Stop),,0
38.7208842,node/7075129253,9.009717,Tor Hailoch,,0
38.7207996,node/7075129254,9.0117428,Torhayloch,,0
38.7222467,node/7075129255,9.0117788,Tor Hailoch,,0
38.7588986,node/7076294502,9.0043941,Riche,,0
38.7438551,node/7076294503,8.9645236,Mebrat Condominium,,0
38.7633289,node/7076294504,8.9638868,Kadisco,,0
38.7646677,node/7076294505,9.0089349,Flamingo,,0
38.8601035,node/7076294507,8.9984013,Condminium (Gate),,0
38.8738883,node/7076294508,9.0571285,Sara Ampol (Gedera),,0
38.7325725,node/7076294509,9.0418835,Michael (2),,0
38.7612538,node/7076294510,9.0622823,Shero Meda,,0
38.7613619,node/7076294511,9.0618175,Shero Meda,,0
38.7369836,node/7076294512,9.0716602,Dil Ber,,0
38.7590251,node/7076294514,9.0745282,Sanba Nekrsa,,0
38.7607132,node/7076294515,9.0692159,Shiromeda Selassie,,0
38.7613887,node/7076294516,9.0618235,Shero Meda,,0
38.7612093,node/7076310930,9.0447597,6 Kilo (Akim Genbata),,0
38.7612397,node/7076310931,9.0626379,Shero Meda,,0
38.7619991,node/7077424942,9.0507372,Medhanialem,,0
38.7551039,node/7077601626,9.0163885,Ambassador,,0
38.8139111,node/7077785205,9.0216085,Lamberet,,0
38.8692642,node/7077785206,9.0479009,Kara Condominium,,0
38.8695121,node/7077785209,9.0480304,Kara Condominium,,0
38.7325536,node/7077863009,9.031811,Autobis Tera (2),,0
38.6833448,node/7077863010,8.9960545,Tropical,,0
38.6779208,node/7077863012,9.0003767,Alem Bank,,0
38.6830207,node/7077863014,8.9965876,Tropical,,0
38.6892387,node/7077863015,8.9923549,Kidane Mihret,,0
38.6941906,node/7077863016,9.004479,Bethel,,0
38.7004836,node/7077863017,9.0151128,Mendida,,0
38.7327417,node/7077863018,9.019638,Abinet,,0
38.7329768,node/7077863019,9.0280905,Sebategna,,0
38.7440208,node/7078164250,9.0088714,Mexico,,0
38.7349155,node/7078164251,8.9381825,Haile Garment,,0
38.7311018,node/7078164254,8.9729343,Mekanisa,,0
38.7345326,node/7078164255,8.9820586,Abo Mazoria,,0
38.7437936,node/7078164256,9.0088201,Mexico,,0
38.7323925,node/7078406225,9.0330269,Autobis Tera (1),,0
38.7090191,node/7078406227,8.9876369,Zenebework,,0
38.6949214,node/7078406228,8.9822919,Ayer Tena,,0
38.6817556,node/7078406231,8.9755975,Kara Kore,,0
38.6823873,node/7078406235,8.9763865,Kara Kore,,0
38.6939258,node/7078406236,8.9822452,Ayer Tena (Gerar-Repi),,0
38.6853377,node/7078406237,8.9795411,Repi (Gerar),,0
38.7051886,node/7078406238,8.9852814,Zenebework (Crossing),,0
38.715946,node/7078406239,8.992776,3 Kutir Mazoriya (Total),,0
38.7322299,node/7078406240,9.0330007,Autobis Tera (1),,0
38.8100534,node/7080251773,9.0049451,Condominium,,0
38.8268744,node/7080251774,8.993889,Goro School,,0
38.8056204,node/7080251776,9.0071789,Anbessa Garage,,0
38.76366,node/7080440194,9.0110028,Estifanos,,0
38.7690578,node/7080440195,9.0104866,BAMBIS,,0
38.7752996,node/7080440196,9.0115088,St. Urael Church,,0
38.7823039,node/7080440197,9.0147285,Lex Plaza,,0
38.7896417,node/7080440198,9.0164226,22 (Haya Hulet),,0
38.8004816,node/7080440200,9.0194097,Megenagna,,0
38.8005914,node/7080440203,9.019032,Megenagna,,0
38.7955696,node/7080440204,9.0177169,Lem Hotel,,0
38.7896635,node/7080440205,9.0162149,22 (Haya Hulet),,0
38.7694936,node/7080440206,9.0102033,BAMBIS,,0
38.7467585,node/7080440208,9.0104304,Mexico,,0
38.7462899,node/7080527282,9.0098462,Mexico,,0
38.7487773,node/7080527284,8.9863213,Kera,,0
38.7487535,node/7080611085,8.96688,Mebrat,,0
38.746773,node/7080611091,9.0120423,Mexico Shebelle Hotel,,0
38.7322629,node/7080893992,9.0412736,Michael,,0
38.732023,node/7080893993,9.034717,Autobis Tera,,0
38.7306587,node/7080893994,9.0460782,Pastor,,0
38.713458,node/7080893995,9.0560646,Winget,,0
38.7009781,node/7080893996,9.0613645,Chereta,,0
38.6891732,node/7080894001,9.0715888,Sansusi,,0
38.7624277,node/7081034796,9.0385658,5 Kilo (History Museum),,0
38.7785478,node/7081034797,9.0574672,Abo Mazoriya,,0
38.7640045,node/7081034799,9.0441923,Education Bureau (6 Kilo),,0
38.732915,node/7084255331,9.0648091,Total (Dil Ber),,0
38.7533521,node/7084255333,9.0341775,Piassa Arada,,0
38.7374497,node/7084255334,9.0594855,Addisu Gebeya,,0
38.733166,node/7084255335,9.0638908,Tsion Cafe (Addisu Gebeya),,0
38.7327389,node/7084255336,9.0653883,Total (Dil Ber),,0
38.7405402,node/7084722454,9.0337517,Ummar School,,0
38.7337992,node/7084722456,9.0341036,Autobis Tera (3),,0
38.7418327,node/7084722457,9.0341305,Gojam Berenda (Tefera Buillding),,0
38.7533374,node/7084722458,9.0404538,Dej. Wube (Ras Abebe School),,0
38.7544994,node/7084722459,9.0440672,Wube Bereha,,0
38.7588473,node/7084722460,9.0515491,Menen,,0
38.7598297,node/7084722461,9.0584002,Tsehay Chora (ShiroMeda),,0
38.7332661,node/7084873006,9.0274958,Sebategna (Taem Bakery),,0
38.7380924,node/7084873007,9.0188835,Mola Maru (Jos Hansen),,0
38.7382054,node/7084873008,9.0167149,Geja Sefer (Darmar),,0
38.7486804,node/7084873009,8.9856954,Kera (Green Market),,0
38.7518917,node/7084873010,8.9841757,Kera (Mexico Stop),,0
38.7560749,node/7084873011,8.9824212,MOHA (Pepsi Factory),,0
38.7635412,node/7084873012,8.9547202,Saris (Shoa Bakery),,0
38.7509324,node/7084873013,8.9844206,Kera (Saris Stop),,0
38.7469466,node/7084873014,9.002055,Guenet Hotel (Orbis),,0
38.736541,node/7084873015,9.0111972,St. Lideta Church,,0
38.733649,node/7084873016,9.0192478,Abenet (Joshansen),,0
38.7373207,node/7084932737,8.9951157,Canada Embassy,,0
38.7311778,node/7084932738,8.9973163,Mechare Meda,,0
38.7239615,node/7084932739,8.9892732,Bisrate Gebrael,,0
38.705264,node/7084932740,8.9850622,Zenebework (Crossing),,0
38.6960209,node/7084932741,8.9838697,Ayer Tena,,0
38.6887357,node/7084932742,8.9917639,Kidane Mihret (Roundabout),,0
38.690106,node/7084932743,8.9910254,Kidane Mihret (2),,0
38.7185689,node/7084932745,9.0056187,Augusta Bridge (Tor Hailoch),,0
38.7445753,node/7084932747,9.0114539,Mexico,,0
38.8285018,node/7098810331,8.9839859,Goro Roundabout,,0
38.8370059,node/7098810332,8.9678887,Kotebe Shet',,0
38.8352869,node/7098810333,8.9585287,Bole Lemi,,0
38.8219339,node/7098810334,8.9405669,Endorro 2,,0
38.8152364,node/7098810335,8.9007946,Kilinto Right (Heniken),,0
38.8240221,node/7098810336,8.8947925,Koye Feche 4,,0
38.8277372,node/7098810337,8.8925887,Koye Feche 3,,0
38.8313712,node/7098810338,8.896302,Koye Feche 2,,0
38.8289328,node/7098810340,8.9837967,Goro Roundabout,,0
38.8374461,node/7098810341,8.9678046,Kotebe Shet',,0
38.8354629,node/7098810342,8.9573187,Bole Lemi,,0
38.8217947,node/7098810343,8.9393928,Endorro 2,,0
38.820007,node/7098810344,8.9307029,Endorro 1,,0
38.8155747,node/7098810345,8.9005132,kilinto (Heniken Brewery),,0
38.8196082,node/7098833728,9.0192718,Gurd-shola,,0
38.8331381,node/7098833729,9.021924,Civil Service College,,0
38.8400876,node/7098833730,9.021617,St. Michael,,0
38.8524287,node/7098833731,9.0193173,Sunshine Apartments,,0
38.8575794,node/7098833732,9.0019915,Gomista,,0
38.8588022,node/7098833735,8.9918735,Hasset Photo,,0
38.8521013,node/7098833736,9.0190988,Sunshine Apartments,,0
38.8504565,node/7098833737,9.0208488,CMC (Apartments),,0
38.8401568,node/7098833738,9.0213567,St. Michael,,0
38.7312293,node/7102193971,9.0337594,Merkato,,0
38.7254909,node/7102193972,9.0338552,Mesalemia (Area Police),,0
38.7086533,node/7102193973,9.0332635,Luwkanda,,0
38.7049566,node/7102193974,9.0338494,Comprensive,,0
38.642409,node/7102193975,9.031909,Gefersa,,0
38.6117467,node/7102193976,9.0563274,Gojo (Kela),,0
38.6120244,node/7102193977,9.0560454,Gojo (Kela),,0
38.6265192,node/7102193978,9.0375371,Gefersa (2),,0
38.6329501,node/7102193979,9.0356795,Gefersa,,0
38.6674596,node/7102193980,9.0328635,Ashewa Meda (1),,0
38.6760437,node/7102193981,9.0286003,Kersa (1),,0
38.687173,node/7102193982,9.0343761,Feli Doro (2),,0
38.7244946,node/7102193983,9.0344498,Mesalemia,,0
38.7312074,node/7102269985,9.0338637,Merkato,,0
38.6977085,node/7103202615,8.9821491,Ayer Tena,,0
38.7316085,node/7103202616,8.9647174,German Bridge,,0
38.7342372,node/7103202617,8.9470109,Mebrathile (EEPCo),,0
38.7692016,node/7103202619,8.9444277,Saris Abo,,0
38.7666082,node/7103202620,8.944353,Saris Abo,,0
38.7645892,node/7103202621,8.9336411,Kality Maseltegna,,0
38.7550031,node/7103202622,8.930547,Hana Mariam (Bridge),,0
38.72738,node/7103202623,8.9653607,Mickael Bridge,,0
38.6976219,node/7103202625,8.9820533,Ayer Tena,,0
38.7729637,node/7104888674,9.0323651,Bel Air,,0
38.8506098,node/7105158906,9.0211237,CMC (Apartments),,0
38.8774831,node/7105158907,9.0462589,Tafo Condominium 2,,0
38.8775457,node/7105158908,9.0502639,Tafo Condominium 1,,0
38.7490031,node/7105268824,8.9593839,Mebrat (Lafto),,0
38.7497551,node/7105268825,8.9587047,Dildiy Mariam,,0
38.7504407,node/7105268826,8.9537745,Lafto (Mickael),,0
38.7493803,node/7105268828,8.9465504,Lafto,,0
38.7450783,node/7105268830,8.9558865,Lafto (Primary School),,0
38.7534558,node/7105398617,9.0185243,Post Office (Ambassador),,0
38.7614232,node/7105398618,9.0461705,6 Kilo (University),,0
38.7623138,node/7105398619,9.0522977,Teferi Mekonen,,0
38.7999868,node/7105584907,9.022269,Marathon Motor (Megenagna),,0
38.762507,node/7105584908,9.0332665,Arat Kilo,,0
38.7532588,node/7105584909,9.0341288,Piassa Arada,,0
38.7625094,node/7105584911,9.0332715,Arat Kilo,,0
38.7888307,node/7105584912,9.0289345,Abebe Sook,,0
38.7492708,node/7105840324,9.0358919,Abune Petros,,0
38.745898,node/7105840325,9.0424895,Yohannes,,0
38.7421685,node/7105840326,9.0472271,Arbegnoch Primary School,,0
38.7376837,node/7105840327,9.0485317,Enqulal Fabrica,,0
38.7450108,node/7105840330,9.0434044,Yohannes,,0
38.7373533,node/7105840331,9.0481067,Enqulal Fabrica,,0
38.7350358,node/7107670562,8.9209077,Sefera,,0
38.7332384,node/7107670563,8.94963,Mebrathile (EEPCo),,0
38.7341183,node/7107670564,8.9829863,Mekanisa Abo,,0
38.6879228,node/7107789218,8.9606298,Jemmo 2,,0
38.7511477,node/7107789219,9.0319297,Piassa (Downtown Cafe),,0
38.6878636,node/7107789220,8.9605732,Jemmo 2,,0
38.7483037,node/7108224469,8.9860956,Kera,,0
38.7675202,node/7110438104,9.0166264,6th (Raddison Blu),,0
38.7701955,node/7110438105,9.0171928,Kazanchis (6th),,0
38.7758778,node/7110438106,9.0231177,Aware Roundabout,,0
38.7815333,node/7110438107,9.0234853,Signal,,0
38.7867845,node/7110438108,9.0221973,Dinberwa Hospital,,0
38.7940254,node/7110438109,9.0212061,Lem Hotel,,0
38.8157252,node/7110438110,9.022362,Lamberet (Queens),,0
38.8281186,node/7110438111,9.0348925,Kotebe 01,,0
38.8281855,node/7110438113,9.0349074,Kotebe 01,,0
38.7948696,node/7110438114,9.0217059,Shola (United Bank),,0
38.792498,node/7110438115,9.021194,Sumeya Mosque,,0
38.7815645,node/7110438116,9.023369,Signal,,0
38.7640618,node/7110725239,8.9104302,Kality Gebriel,,0
38.7673729,node/7110725240,8.9572931,Addis Sefer (Overpass),,0
38.7723221,node/7110725241,8.9799499,Bole Mickael (2),,0
38.7903601,node/7110725242,8.9867261,Bole Bridge,,0
38.7957512,node/7110725243,8.9948785,MOENCO,,0
38.7988652,node/7110725244,9.0009401,Sport Academy,,0
38.8030776,node/7110725245,9.0077883,Anbessa Garage,,0
38.8026698,node/7110725246,9.0158283,IVECO,,0
38.8032793,node/7110725247,9.0076034,Anbessa Garage,,0
38.8009424,node/7110725248,9.0037859,Emperial Hotel,,0
38.7961036,node/7110725249,8.9950941,MOENCO,,0
38.7946816,node/7110725250,8.9910443,Bole (Bora Amusement),,0
38.7721474,node/7110725251,8.9795995,Bole Mickael (2),,0
38.7676814,node/7110725252,8.9603711,Addis Sefer,,0
38.7692055,node/7110725253,8.9458024,Saris Abo,,0
38.7648588,node/7110725254,8.9234126,Kality (Correctional Facility),,0
38.7718808,node/7110725256,8.8959395,Kality Meneharia,,0
38.7588358,node/7111821010,9.0354591,Arat Kilo,,0
38.7538404,node/7111821011,9.0325113,Piassa (EPPCO),,0
38.7374552,node/7111821013,9.0317457,Autobis Tera,,0
38.7373348,node/7111821015,9.0301828,Autobis Tera,,0
38.7887833,node/7111821016,9.0216842,Dinberwa Hospital (1),,0
38.721592,node/7112123457,9.0374493,Chid Tera,,0
38.7149359,node/7112123458,9.0294949,Mebrathail,,0
38.7177803,node/7112123459,9.0173854,Kolfe Keranyo,,0
38.708993,node/7112123460,9.0193846,Keranio Bridge,,0
38.7176821,node/7112123462,9.0170237,Kolfe Keranyo,,0
38.7163686,node/7112123463,9.0370321,Abysinia Coffee,,0
38.7208971,node/7112123464,9.0376714,Chid Tera,,0
38.7188624,node/7112215078,8.9998854,Old Airport (Mobil),,0
38.7196192,node/7112215079,9.008471,Minaye (Shoa Supermarket),,0
38.7158287,node/7112215080,9.0208524,Holand,,0
38.7141478,node/7112215081,9.0361682,18 Mazoria (Atena Tera),,0
38.7125982,node/7112215082,9.0409736,Atena Tera,,0
38.7116581,node/7112215083,9.0491202,Winget TVET,,0
38.7124575,node/7112215084,9.0555289,Winget,,0
38.7117843,node/7112280389,9.0494004,Winget TVET,,0
38.7122352,node/7112280390,9.0448145,kolfe (Atena Tera),,0
38.712721,node/7112280391,9.0414434,Atena Tera,,0
38.7143961,node/7112280392,9.0362317,18 Mazoria (Atena Tera),,0
38.7152453,node/7112280393,9.0244809,Meseret Edget,,0
38.7188519,node/7112280394,9.0056155,Augusta Bridge (Tor Hailoch),,0
38.8146269,node/7112648156,8.8596281,Mahiber Betoch,,0
38.8210444,node/7112648157,8.865212,Project 12 Akababi,,0
38.8204129,node/7112648158,8.8701237,G7 (Tulu Dimtu),,0
38.7965426,node/7112648159,8.871336,Belay Ab Moters,,0
38.7794514,node/7112648160,8.8797285,Gelan Condominium,,0
38.7728422,node/7112648161,8.894811,Kality Total,,0
38.770309,node/7112648162,8.8973286,Akaki Subcity Office (Menaheria),,0
38.7641522,node/7112648163,8.9224149,Kality (Correctional Facility),,0
38.7676362,node/7112648164,8.9281178,Techtra Engineering,,0
38.7637599,node/7112648165,8.9572677,Adey Abeba,,0
38.7669427,node/7112648166,8.9323914,Kality Maseltegna,,0
38.768315,node/7112648167,8.9298175,Wehalemat,,0
38.7768426,node/7112648168,8.8837788,Awash Bank (Akaki Kality),,0
38.7793211,node/7112648169,8.8799589,Gelan Condominium,,0
38.7963837,node/7112648170,8.8716847,Belay Ab Moters,,0
38.8091005,node/7112648172,8.8705655,TAF Oil (Tulu Dimtu),,0
38.7723166,node/7112755336,8.9580023,Addis Sefer (NFSL W09),,0
38.7710152,node/7112755337,8.9590585,Addis Sefer,,0
38.7439418,node/7112755338,9.0278217,Teklehaymanot,,0
38.7376384,node/7112755340,9.0314996,Autobis Tera,,0
38.7381207,node/7112755342,9.0308454,Autobis Tera,,0
38.7468282,node/7112755343,9.0194238,Meteorology,,0
38.7468427,node/7112755344,9.0148435,Sengatera,,0
38.7706049,node/7112755345,8.9587021,Addis Sefer,,0
38.7199737,node/7113004009,9.0462468,Girum Hospital,,0
38.7211613,node/7113004010,9.0509733,Ras Hailu (Medhanialem),,0
38.7114101,node/7113004011,9.0572551,Awolia,,0
38.6983516,node/7113004012,9.0640587,Bercheko Fabrica (Asko),,0
38.70588,node/7113004013,9.0598807,Gulele,,0
38.7210939,node/7113004014,9.0507813,Ras Hailu (Medhanialem),,0
38.7212829,node/7113004015,9.040909,Woreda 7 TVET,,0
38.7213725,node/7113004016,9.0380466,Chid Tera,,0
38.7365754,node/7113004018,9.0312199,Autobis Tera,,0
38.73268,node/7113004020,9.0426217,Michael (2),,0
38.7261371,node/7113004021,9.0485205,Pawlos Hospital (Saba Mosque),,0
38.7205811,node/7113004022,9.0643796,Anbessa Garage (Shegole),,0
38.7266132,node/7113004024,9.0641379,Shegole (Mender 7),,0
38.726699,node/7113004026,9.0641466,Shegole (Mender 7),,0
38.7189551,node/7113004027,9.0589167,Hassen & Hussein Mosque (Shegole),,0
38.7198445,node/7113004028,9.0548351,Shegole Bank,,0
38.7321449,node/7113004029,9.0409541,Michael,,0
38.7712666,node/7113158623,9.0652655,Eyesus,,0
38.7741153,node/7122983960,8.9931107,Wello Sefer,,0
38.7720567,node/7122983961,8.9891423,Kassech Kitfo,,0
38.7679985,node/7122983962,8.9855755,Ambasel,,0
38.7662234,node/7122983963,8.9840055,WAGGA (Singer Liquior Store),,0
38.7635127,node/7122983964,8.9814923,Wengalawit,,0
38.7636059,node/7122983968,8.9817105,Wengalawit,,0
38.7680101,node/7122983969,8.9857381,MEDCO,,0
38.7723942,node/7122983970,8.98977,Tebaber Berta,,0
38.7739711,node/7122983972,8.9930626,Wello Sefer,,0
38.8356151,node/7123180286,9.0113972,Beshale Area,,0
38.802106,node/7123180287,9.0185063,Megenagna,,0
38.821148,node/7123180289,9.0111777,Jacros,,0
38.8526604,node/7123180290,9.0100121,Safari,,0
38.8657082,node/7123180291,9.0116739,Safari (Summit),,0
38.8657494,node/7123180293,9.0115148,Safari (Summit),,0
38.8513684,node/7123180295,9.0099646,Safari,,0
38.8356503,node/7123180296,9.011279,Beshale Area,,0
38.8201425,node/7123180297,9.0189315,Gurd Shola,,0
38.803506,node/7123180298,9.0194519,Megenagna,,0
38.7650036,node/7123265052,8.9882804,Meskel Flower,,0
38.7659652,node/7123265053,8.9911645,Loza (Adot),,0
38.7663984,node/7123265054,8.9934001,Nazra Hotel,,0
38.7666123,node/7123265055,8.9959487,Yetam Hotel,,0
38.7667571,node/7123265056,8.9980982,Kebele Kibeb,,0
38.7669271,node/7123265061,8.9999844,Mulu Shewa (Gazebo),,0
38.7668423,node/7123265062,8.9979306,Kebele Kibeb,,0
38.7667132,node/7123265063,8.9959132,Yetam Hotel,,0
38.7665439,node/7123265064,8.9937071,Nazra Hotel,,0
38.7660467,node/7123265065,8.9910552,Loza (Adot),,0
38.7652457,node/7123265066,8.9885268,Meskel Flower,,0
38.7180191,node/7182111861,8.9921561,Total 3 Kuter Mazoria,,0
38.7468023,node/7182111862,8.9865792,Kera,,0
38.7629695,node/7214490240,9.0351361,4 Kilo Minilik School,,0
38.7708485,node/7214490241,8.8967488,Kality Menaheriya,,0
38.8085926,node/10672721751,8.8504983,Delta Fuel Station,,0
38.8243789,node/10672739809,8.8412588,Sidama Awash NOC,,0
38.8396009,node/10672739811,8.8314833,Atlas Resort,,0
38.818065,node/10672739815,8.8447465,ODDA Fuel Station,,0
38.717673,node/10672961242,8.9943894,3 Kutir (TZNA Area),,0
38.7335924,node/10672961244,9.0117316,Lideta High Court,,0
38.7024743,node/10750378219,8.9839135,Ayer Tena,,0
38.7394551,node/10755917239,8.9925223,Sar Bet,,0
38.7392871,node/10755917241,8.9924619,Sar Bet,,0
38.7469304,node/10755917242,8.9859671,Kera,,0
38.7418629,node/10755917243,8.9900132,Kera,,0
38.7376124,node/10755917244,8.995096,Sar Bet,,0
38.7309965,node/10755917245,8.9973975,karl Square,,0
38.7302642,node/10755917246,8.9970773,karl Square,,0
38.7268512,node/10755917247,8.9927368,Bisrate Gebrael,,0
38.7255644,node/10755917248,8.9914228,Bisrate Gebrael,,0
38.7226976,node/10755917249,8.9888937,Bisrate Gebrael,,0
38.7175917,node/10755917250,8.9922875,Total 3 Kuter Mazoria,,0
38.7708737,node/10766121857,8.8967652,kality Meneharia,,0
38.7669453,node/10766121859,8.9319554,kality Maseltegna,,0
38.7668102,node/10766121860,8.9632423,Kadisco Roundabout,,0
38.7761571,node/10766121861,8.9816305,Bole Mickael,,0
38.7721247,node/10766121862,8.9966149,Bole Printing Press,,0
38.7634141,node/10766121863,9.0100526,Flamingo,,0
38.7626278,node/10766121864,9.0125659,St. Estifanos,,0
38.7629874,node/10766121865,9.035146,4 Kilo (Menlik),,0
38.7631121,node/10766121866,9.0352952,4 Kilo (Menlik),,0
38.7641345,node/10766121867,9.0214342,Place Parking (Gibi Gebriel),,0
38.7636218,node/10766121868,9.01014,Flamingo,,0
38.7743234,node/10766121869,8.9944147,Wollo Sefer,,0
38.7761469,node/10766121871,8.9812653,Bole Mikael,,0
38.765481,node/10766121872,8.9737518,Mamo (Nifas Silk),,0
38.7670877,node/10766121873,8.9321192,kality Maseltegna,,0
38.7721261,node/10766121874,8.8957067,kality Meneharia,,0
38.7674734,node/10766454593,9.0056744,Olympia,,0
38.7908923,node/10766454594,8.9867247,Bole Roundabout,,0
38.7411322,node/10768858718,9.003043,African Union,,0
38.7370362,node/10768858719,9.0296176,Autobis Tera,,0
38.7470064,node/10768858720,9.0026517,Guenet Hotel (Orbis),,0
38.7340469,node/10768858723,8.9651822,German Square,,0
38.8198728,node/10781643820,9.0239162,Lamberet Menaheria,,0
38.7650098,node/10781643821,9.0322896,Arat Kilo,,0
38.7666152,node/10781643822,9.0328365,4 kilo (Children Theatre),,0
38.7736753,node/10781643823,9.0325481,Bel Air,,0
38.7768069,node/10781643824,9.0344084,Kebena,,0
38.7794124,node/10781643825,9.0350794,Kokebe Tsebah (Kebena),,0
38.7823515,node/10781643826,9.0324942,Kenya Embassy (Kebena),,0
38.785575,node/10781643827,9.0309005,British Embassy,,0
38.7888226,node/10781643828,9.0289673,Abebe Sook,,0
38.7947497,node/10781643829,9.0251295,Shola (Yeka Court),,0
38.7984062,node/10781643830,9.0232585,Shola Abyssinia Bank,,0
38.7997354,node/10781643831,9.0224046,Megenagna (Marathon Motors),,0
38.8010368,node/10781643832,9.0208971,Megenagna,,0
38.8048559,node/10781643833,9.0208722,Megenagna (Israel Embassy),,0
38.8199227,node/10781643834,9.0240444,Lamberet Menaheria,,0
38.836729,node/10781643835,9.0297042,Kotebe,,0
38.8385612,node/10781643836,9.0304539,Kotebe,,0
38.8490303,node/10781643837,9.0348007,Kotebe Teachers College,,0
38.8553365,node/10781643838,9.0363204,Kotebe Gebriel,,0
38.8541265,node/10781643839,9.0358505,Kotebe Gebriel,,0
38.8443436,node/10781643840,9.032918,Wessen Grocery,,0
38.8648947,node/10781643841,9.0407203,Kara,,0
38.8653607,node/10781643842,9.0411416,Kara,,0
38.788672,node/10781844855,9.0287927,Abebe Sook,,0
38.7843424,node/10781844856,9.0313214,British Embassy,,0
38.7623866,node/10781844857,9.038677,5 Kilo St. Mary,,0
38.7614003,node/10781844858,9.0462129,6 Kilo University,,0
38.7615945,node/10781844859,9.0462072,6 Kilo University,,0
38.7615002,node/10781844860,9.0430896,6 Kilo (Lion Zoo),,0
38.7826601,node/10781844861,9.032679,Kenya Embassy (Kebena),,0
38.7953847,node/10781844862,9.0250431,Shola (Yeka Court),,0
38.7998471,node/10781844863,9.0225097,Megenagna (Marathon Motors),,0
38.8773834,node/10823916391,9.0381854,Yeka 03,,0
38.7341685,node/10842065101,8.931276,Sefera Atkilt Tera,,0
38.7646885,node/10842065103,8.9358559,kality Maseltegna,,0
38.7478806,node/10842065104,8.9948043,Bulgaria,,0
38.7628904,node/10842129005,8.9379429,Kality Customs,,0
38.7330813,node/10842129006,8.9644696,Germen Square,,0
38.7441345,node/10842129008,8.93579,Hana Mariam,,0
38.7703639,node/10842129009,8.9373819,Gomista,,0
38.780123,node/10842129010,8.948706,Nigd bank,,0
38.7642814,node/10842129011,8.9342123,kality Maseltegna,,0
38.7585214,node/10842129012,8.9310906,Kadisco,,0
38.7638648,node/10842129013,8.9582797,Adey abeba,,0
38.7690665,node/10842129015,8.9457865,Saris abo,,0
38.7345583,node/10842129016,8.93876,Haile Garment,,0
38.7635479,node/10842129017,8.9546992,Saris,,0
38.7819099,node/10842129019,8.9834477,Bole Cargo,,0
38.7483448,node/10842129020,8.9944221,Bulgaria,,0
38.7765022,node/10842129021,8.9482742,Kore,,0
38.7691994,node/10842129022,8.9444276,Saris Abo,,0
38.7704449,node/10842129023,8.8973782,Kality Menaheria,,0
38.7340982,node/10842129024,8.9254109,Sefera Square,,0
38.7463895,node/10842129025,9.009032,Mexico,,0
38.7644698,node/10842129026,8.9092945,Kality Gebriel,,0
38.7821218,node/10842129027,8.8869211,Derartu,,0
38.7818039,node/10842129028,8.9836884,Bole Cargo,,0
38.7729402,node/10842129029,8.8948904,Kality Total,,0
38.748144,node/10842129030,8.9927142,Noc,,0
38.7590821,node/10842129031,8.9901397,Lancha,,0
38.7359129,node/10842129032,8.9375158,Haile Garment,,0
38.759633,node/10842129033,8.9880834,Agona,,0
38.7646465,node/10842129034,8.9336549,kality Maseltegna,,0
38.7214531,node/10842129035,8.9417644,Mesqelegna,,0
38.6979529,node/10842129037,8.9537651,Jemo,,0
38.7640443,node/10842129038,8.9577771,Adey abeba,,0
38.7661797,node/10842129040,8.9448318,Saris Abo,,0
38.7343973,node/10842129041,8.9457862,Mebrat hayle,,0
38.7669226,node/10842129042,8.9633984,Kadisco,,0
38.7453864,node/10842129043,8.9356798,Hana Mariam,,0
38.7609585,node/10842129045,8.9729895,Mamo (NFSL),,0
38.7785848,node/10842129046,8.9490785,Medhani alem,,0
38.7660661,node/10842129047,8.9047633,Mosque (Mesged),,0
38.7645559,node/10842129048,8.9093265,Kality Gebriel,,0
38.7888143,node/10842129051,8.9859342,Bole Roundabout,,0
38.7681435,node/10842129052,8.9295556,Wuhalimat,,0
38.7445142,node/10842129053,8.9361549,Hana Mariam,,0
38.7719673,node/10842129054,8.9797944,Bole Mickael,,0
38.7635639,node/10842129055,8.9192813,Sheger building,,0
38.7668114,node/10842129056,8.9705748,Yoseph,,0
38.7477478,node/10842129057,8.9947898,Bulgaria,,0
38.7342346,node/10842129058,8.9470316,Mebrathayil,,0
38.7346011,node/10842129059,8.9250202,Sefera Square,,0
38.758701,node/10842129060,9.0000494,Tele Garage,,0
38.7339445,node/10842129061,8.9469179,Mebrathayil,,0
38.7335906,node/10842129062,8.9376734,Haile garment,,0
38.758986,node/10842129063,9.0058652,Meshualekia,,0
38.7640108,node/10842129066,8.9571801,Adey abada,,0
38.706617,node/10842129069,8.9755358,Menaheria (Zenebu Werk),,0
38.767446,node/10842129070,8.9602509,Adis sefer,,0
38.758758,node/10842129071,8.930883,Kadisco,,0
38.7478486,node/10842129072,8.993831,Bulgaria,,0
38.7627716,node/10842129073,8.9661182,Kadisco,,0
38.7861393,node/10842129074,8.9517202,Bulbula,,0
38.7629867,node/10842129075,8.966096,Kadisko,,0
38.7700795,node/10842129076,8.9444437,Saris abo,,0
38.7875287,node/10842129077,8.8759809,Meshualekya,,0
38.7597928,node/10842129078,8.9871416,Agona,,0
38.7595824,node/10842129079,8.9771026,Gotera chaf,,0
38.7633358,node/10842129080,8.9528149,Saris,,0
38.7593422,node/10842129082,9.0106804,St. Joseph School,,0
38.7338312,node/10842129083,8.9321621,Kotari Condominium,,0
38.7652695,node/10842129084,8.9732793,Mamo,,0
38.7664084,node/10842129085,8.9448603,Saris Abo,,0
38.7665547,node/10842129086,8.9705442,Yosef,,0
38.7654586,node/10842129088,8.9068482,Kality Cheralia,,0
38.7653555,node/10842129089,8.9066965,Kality Cheralia,,0
38.7593009,node/10842129090,8.9906489,Lancha,,0
38.7701062,node/10842129091,8.9375024,Gomista,,0
38.7331196,node/10842129092,8.9375082,Haile Garment,,0
38.7584826,node/10842129093,9.0001174,Tele Garage,,0
38.7767338,node/10842129094,8.8840544,Selam Building,,0
38.7769101,node/10842129095,8.9453322,Medhani alem,,0
38.7772259,node/10842129096,8.8831855,Selam Building,,0
38.7872182,node/10842129097,8.8759552,Meshualekya,,0
38.7635911,node/10842129098,8.9531876,Saris,,0
38.7328242,node/10842129102,8.963723,Germen adebabay,,0
38.7607874,node/10842129103,8.972508,Mamo (NFSL),,0
38.7486365,node/10842129105,8.9875165,Kera,,0
38.7599766,node/10842129106,8.9867627,Agona,,0
38.7701231,node/10842129107,8.9446574,Saris abo,,0
38.7483211,node/10842129108,8.9860883,Kera,,0
38.7666013,node/10842129110,8.8790966,Gelan Condominium,,0
38.7596133,node/10842129111,8.9953066,Temenja yasi,,0
38.7588933,node/10842129112,9.0041803,Riche,,0
38.7364242,node/10842129113,8.9368154,Haile garment,,0
38.7720906,node/10842129114,8.9795749,Bole Mickael,,0
38.6971287,node/10842129116,8.9835322,Ayer Tena,,0
38.6977027,node/10842129117,8.9537239,Jemo,,0
38.7467544,node/10842129118,9.0052072,Land mark,,0
38.7218311,node/10842129119,8.9411484,Meskelegna,,0
38.7349153,node/10842129120,8.9381771,Haile Garment,,0
38.7586909,node/10842129121,9.0040548,Riche,,0
38.7841911,node/10842129122,8.9476648,Kore,,0
38.7866845,node/10842129124,8.8770606,Meshualekya,,0
38.7863461,node/10842129125,8.9518942,Bulbula,,0
38.7643342,node/10842129126,8.9357353,kality Maseltegna,,0
38.7692278,node/10842129129,8.9457601,Saris abo,,0
38.7676873,node/10842129131,8.9603252,Addis sefer,,0
38.744852,node/10842129132,8.9352291,Hana mariam,,0
38.7484325,node/10842129133,8.9866879,Kera,,0
38.7601404,node/10842129134,8.9757898,Gotera chaf,,0
38.770318,node/10842129135,8.8972852,Akaki Subcity Office (Menaheria),,0
38.7717099,node/10842129136,8.9411922,Condominium,,0
38.7666701,node/10842129137,8.8789992,Gelan Condominium,,0
38.7683276,node/10842129139,8.9295931,Wuhalimat,,0
38.7461882,node/10842129140,9.0098761,Mexico,,0
38.7413343,node/10845731573,9.0312472,Grand Anwar Mosque,,0
38.7457773,node/10845731574,9.0247282,Kebele 11,,0
38.7468651,node/10845731575,9.0028738,Guenet hotel,,0
38.7589891,node/10845731576,8.9923344,Lancia,,0
38.755826,node/10845731577,8.9825134,Pepsi,,0
38.7591215,node/10845731578,8.9919399,Lancia,,0
38.7438378,node/10845731579,9.0279893,Tekle Haimanot,,0
38.7666459,node/10845731580,8.9441872,Saris Abo,,0
38.7544517,node/10845731581,9.0120319,Legehar,,0
38.7522272,node/10845731582,8.9841589,Kera,,0
38.7631799,node/10845731583,8.9380577,Kality Customs,,0
38.7378007,node/10845731584,9.0342603,Gojam Berenda,,0
38.7381021,node/10845731585,9.0343553,Gojam Berenda,,0
38.7818893,node/10845731586,8.8869148,Derartu,,0
38.7557408,node/10845731587,8.9824223,Pepsi,,0
38.7596457,node/10845731588,8.9943898,Global Hotel,,0
38.7637542,node/10845731589,8.9208636,Sheger Building,,0
38.734431,node/10845731590,9.0343246,Autobus Tera,,0
38.7469738,node/10845731591,9.0027786,Guenet hotel,,0
38.7439714,node/10845731592,9.0279685,Tekle Haimanot,,0
38.7476261,node/10845731593,8.9970419,Beg Tera,,0
38.7598651,node/10845731594,8.9943499,Global Hotel,,0
38.7641252,node/10845731595,8.9223845,Kality Correctional,,0
38.7667306,node/10845731596,8.9029367,Cheralia Factory,,0
38.7457421,node/10845731597,9.0246149,Kebele 11,,0
38.7414003,node/10845731598,9.0310422,Grand Anwar Mosque,,0
38.7526758,node/10845731599,9.0165472,National Theatre,,0
38.767986,node/10845731601,8.95346,Saris,,0
38.7475303,node/10845731602,8.9968163,Beg Tera,,0
38.7468099,node/10845731603,9.014753,Sengatera,,0
38.746301,node/10845731604,9.0096228,Mexico,,0
38.7479845,node/10845749005,8.9937615,Bulgaria,,0
38.7720203,node/10845840895,8.8956285,kality Meneharia,,0
38.6966586,node/10845840896,8.9841307,Ayer Tena,,0
38.7330269,node/10845840897,8.9637758,Germen adebabay,,0
38.7728316,node/10846106471,8.8948231,Kality Total,,0
38.7912092,node/10881147490,8.9869946,Bole Bridge,,0
38.7903563,node/10881147492,8.9867302,Bole Bridge,,0
38.7338003,node/10883106542,9.0341009,Autobus Tera,,0
38.7415025,node/10886135782,8.907041,Bajaj Tera,,0
38.7479978,node/10886135783,8.904156,Chera,,0
38.7622377,node/10886135784,8.8772921,Gelan Condominium,,0
38.7845626,node/10886135785,8.8549158,Total,,0
38.8197795,node/10886135787,8.8737817,Tulu Dimtu,,0
38.8202354,node/10886135789,8.8738791,Tulu Dimtu,,0
38.820802,node/10886135790,8.8709574,G7,,0
38.7847209,node/10886135791,8.8541896,Total,,0
38.7630121,node/10886135793,8.8758233,Gelan Condominium,,0
38.7928534,node/10886281950,8.9906055,Bole Bridge,,0
38.7887705,node/10886281951,8.9955183,Bole Medhanyalem,,0
38.7870108,node/10886281952,8.9973425,Edna Mall Squar,,0
38.7892817,node/10886281953,9.0043569,Adey Ababa Stadium,,0
38.7872566,node/10886281954,9.0150262,22 Mazoria,,0
38.787438,node/10886281956,9.0150056,22 Mazoria,,0
38.7887083,node/10886281958,9.0082739,Freedom,,0
38.7890587,node/10886281997,9.0069454,Werku Building,,0
38.7893444,node/10886281998,9.0042976,Adey Ababa Stadium,,0
38.7869491,node/10886281999,8.9977034,Edna Mall Squar,,0
38.7885714,node/10886282000,8.995948,Bole Medhanyalem,,0
38.7929596,node/10886282001,8.9906936,Bole Bridge,,0
38.7881236,node/10886427067,9.0161537,22 Mazoria,,0
38.7950715,node/10886427068,9.017758,Lem Hotel,,0
38.8019786,node/10886427069,9.0198841,Megenagna,,0
38.8200261,node/10886427070,9.0191878,Gurd Shola,,0
38.8345374,node/10886427071,9.0218654,Civil Servis College,,0
38.8536095,node/10886427072,9.0209806,Yetebaberut,,0
38.8750186,node/10886427073,9.0214852,Ayat,,0
38.8350083,node/10886427074,9.0215577,Civil Servis College,,0
38.8737977,node/10886427075,9.0211711,Ayat,,0
38.8598848,node/10886427076,9.0204163,Meshageria,,0
38.8535182,node/10886427077,9.020619,Yetebaberut,,0
38.7941243,node/10886883544,8.9907378,Bole Bora Amusement,,0
38.8016982,node/10886883546,9.0185543,Megenagna,,0
38.8034449,node/10886883547,9.0078296,Anbessa Garage,,0
38.8009392,node/10886883548,9.0037737,Emperial Hotel,,0
38.7961015,node/10886883549,8.9950343,Hayat Hospital,,0
38.7949793,node/10886883550,8.9916604,Bole Bora Amusement,,0
38.852562,node/10886991025,9.0199832,Sun shine,,0
38.8042842,node/10886991026,9.0200202,Megenagna,,0
38.841553,node/10886991027,9.021578,Meshualekia,,0
38.8522797,node/10886991028,9.0110042,Safari,,0
38.8519977,node/10886991029,9.004015,Summit,,0
38.8517386,node/10886991031,9.004282,Summit,,0
38.8519018,node/10886991032,9.010941,Safari,,0
38.8520834,node/10886991033,9.0199154,Sun shine,,0
38.8415391,node/10886991034,9.021324,Meshualekia,,0
38.8392942,node/10886991035,9.021353,Michael,,0
38.8211275,node/10886991036,9.0187135,Gurd Shola,,0
38.7956759,node/10887120325,8.9948468,Hayat Hospital,,0
38.798384,node/10887120326,9.0001969,Sport Accadamy,,0
38.8000262,node/10887120327,9.0027661,Emperial Hotel,,0
38.8016319,node/10887120328,9.0187177,Mulugeta Building,,0
38.7855121,node/10890083966,8.9603848,93 Mazoria,,0
38.7863684,node/10890083967,8.9623057,Kaldisco,,0
38.7872114,node/10890083968,8.9642046,Key Afer,,0
38.7938035,node/10890083969,8.9901774,Bole Bridge,,0
38.7873203,node/10890290096,8.9642211,Key Afer,,0
38.785703,node/10890290097,8.9604784,93 Mazoria,,0
38.7875752,node/10890290098,8.9581348,Kebele,,0
38.8031745,node/10893030388,9.0080412,Anbessa Garage,,0
38.8169267,node/10893030389,9.0035488,Jacros,,0
38.8210973,node/10893030390,8.9993201,Alem Ayew Building,,0
38.8283586,node/10893030392,8.9923039,Goro,,0
38.8287738,node/10893030394,8.9917123,Goro,,0
38.8266397,node/10893030395,8.9939213,Goro School,,0
38.8210064,node/10893030396,8.9992455,Alem Ayew Building,,0
38.8166485,node/10893030397,9.0035377,Jacros,,0
38.7986195,node/10893030398,8.9999982,Sport Accadamy,,0
38.7947324,node/10893030400,8.9911487,Bole Bridge,,0
38.8336594,node/10893316186,9.0122741,Figa,,0
38.8366122,node/10893316189,9.0110639,Mesgid,,0
38.8335762,node/10893316190,9.0121764,Figa,,0
38.7731313,node/10898980600,8.984658,Bole Mickael,,0
38.7551282,node/10898980601,9.0162838,Ambasader,,0
38.7662663,node/10898980602,9.0069448,Dembel,,0
38.7586647,node/10898980603,9.0123922,Stadium,,0
38.7466456,node/10898980604,9.0192676,Metrology,,0
38.7476072,node/10898986005,9.0217285,Tikur Anbesa,,0
38.7476005,node/10898986007,9.0207753,Tikur Anbesa,,0
38.7467207,node/10898986008,9.0188878,Metrology,,0
38.7553118,node/10898986009,9.0164136,Ambasader,,0
38.760062,node/10898986010,9.011485,Stadium,,0
38.7686303,node/10898986011,9.0038396,Dembel,,0
38.7717243,node/10898986012,8.9979213,Bole Printing Press,,0
38.7734946,node/10898986014,8.9849144,Bole Mickael,,0
38.7413697,node/10899009892,9.0318094,Cinema Ras,,0
38.7414723,node/10899009893,9.0317766,Cinema Ras,,0
38.7781683,node/10899150564,8.992509,Rwanda,,0
38.7693116,node/10899150565,9.0017627,Shewa Dabo,,0
38.7626611,node/10899150566,9.0120704,St. Estifanos Church,,0
38.7511048,node/10899150567,9.0321752,Piassa Arada,,0
38.7525581,node/10899150568,9.0330229,Piassa Arada,,0
38.7517894,node/10899150569,9.0264157,Tewodros Square,,0
38.7522625,node/10899150570,9.0210948,Tikur Anbesa,,0
38.7529153,node/10899150571,9.019064,Post Office,,0
38.7576138,node/10899150572,9.0138467,Ghion Hotel,,0
38.7897689,node/10899278324,8.9885561,Bole Bridge,,0
38.7840796,node/10899278325,8.9908062,Friendship Building,,0
38.7798445,node/10899278326,8.9923825,Rwanda,,0
38.7844715,node/10899278327,8.9908613,Friendship Building,,0
38.7898626,node/10899278328,8.9887169,Bole Bridge,,0
38.8038533,node/10899524535,9.0084115,Anbessa Garage,,0
38.8100683,node/10899524536,9.0049309,Condominium - Gerji Mebrat hayle,,0
38.814209,node/10899524537,9.0036683,Gerji Mebrat hayle,,0
38.8294024,node/10899524538,8.9913434,Goro,,0
38.815561,node/10899524539,8.900477,kilinto Right,,0
38.8197599,node/10899524540,8.875391,Tulu Dimtu,,0
38.8150743,node/10899524542,8.900461,kilinto Right,,0
38.8292469,node/10899524543,8.9912832,Goro,,0
38.8134376,node/10899524544,9.0035919,Gerji Mebrat hayle,,0
38.8095948,node/10899524545,9.0050654,Condominium - Gerji Mebrat hayle,,0
38.8055809,node/10899524547,9.0071868,Anbessa Garage,,0
38.8364067,node/10899590290,9.011198,Mesgid,,0
38.8518486,node/10899590291,8.994461,Saint Georgis,,0
38.8515329,node/10899590293,8.994389,Saint Georgis,,0
38.7332958,node/10899652823,8.9493529,Mebrathile,,0
38.7324445,node/10899652824,8.9556186,Gebriel Bridge,,0
38.7273491,node/10899652825,8.965384,Mickael Bridge,,0
38.7121031,node/10899652826,8.9727473,Zenebewerk,,0
38.7055213,node/10899652827,8.975714,Chaina Camp,,0
38.6982059,node/10899652829,8.981635,Ayer Tena,,0
38.7348966,node/10901428140,8.9385233,Haile Garment,,0
38.7353205,node/10901428141,8.9201595,Sefera,,0
38.7337094,node/10901428142,8.9311784,Sefera Atkilt Tera,,0
38.734667,node/10901428143,8.9208099,Sefera,,0
38.7519617,node/10901522017,8.8870433,Mesalemia,,0
38.7484085,node/10901522018,8.9032086,Chera Medhanilem,,0
38.7346387,node/10901522020,8.935726,Haile Garment,,0
38.7491293,node/10901522021,8.9034769,Chera Medhanilem,,0
38.7524365,node/10901522022,8.8871115,Mesalemia,,0
38.7629397,node/10901643508,8.9530332,Saris,,0
38.7540078,node/10901643510,8.9431476,58 Mazoria,,0
38.7500946,node/10901643511,8.9405222,Kidane Mihret Stebel,,0
38.7447143,node/10902267327,9.0084289,Mexico,,0
38.7448728,node/10902267330,9.0084377,Mexico,,0
38.7393711,node/10902267332,8.9990666,AU (Mikael) Rounrdabout,,0
38.7395668,node/10902267333,8.9990162,AU (Mikael) Rounrdabout,,0
38.7381301,node/10902267334,8.9923567,Sar Bet,,0
38.7383324,node/10902267335,8.9923453,Sar Bet,,0
38.7342938,node/10902267336,8.9822679,Abo Mazoria,,0
38.7344209,node/10902267337,8.9823292,Abo Mazoria,,0
38.7311351,node/10902267338,8.9729293,Mekanisa,,0
38.7312498,node/10902267339,8.9728812,Mekanisa,,0
38.732719,node/10902267340,8.9555964,Gebriel Bridge,,0
38.7539257,node/10903393900,8.9432326,58 Mazoria,,0
38.7267004,node/10903398373,8.9487486,Varnelo Squer,,0
38.7117668,node/10903398374,8.9594798,Jemmo 1,,0
38.712128,node/10903398375,8.9585188,Jemmo 1,,0
38.7161087,node/10903398376,8.9524535,Jemmo Medhanialem,,0
38.7162235,node/10903398377,8.9525568,Jemmo Medhanialem,,0
38.7221583,node/10903398378,8.9490672,Kebele,,0
38.7221797,node/10903398379,8.9491872,Kebele,,0
38.7267159,node/10903398380,8.9488837,Varnelo Squer,,0
38.7373285,node/10904734315,8.9951163,Sar Bet,,0
38.7276618,node/10904734316,8.9936468,Austria Embassy,,0
38.7177291,node/10904734318,8.9922476,Total 3 Kuter Mazoria,,0
38.7322404,node/10905160356,9.0330017,Autobus Tera,,0
38.7323851,node/10905160357,9.033026,Autobus Tera,,0
38.7329553,node/10905160358,9.0282768,Sebategna,,0
38.7331326,node/10905160359,9.0283274,Sebategna,,0
38.7333187,node/10905160360,9.021201,Abenet,,0
38.7335682,node/10905160361,9.0196344,Abenet,,0
38.7346366,node/10905160362,9.0158211,Darmar,,0
38.7347971,node/10905160363,9.0154497,Darmar,,0
38.7343382,node/10905160364,9.0133778,Lideta Condominium,,0
38.7345056,node/10905160365,9.0133623,Lideta Condominium,,0
38.7337879,node/10905160366,9.0094187,Dessie Hotel,,0
38.7339331,node/10905160367,9.0093029,Dessie Hotel,,0
38.7337058,node/10905160368,9.0046165,Lideta,,0
38.7338158,node/10905160369,9.0041332,Lideta,,0
38.7393722,node/10905160370,9.0001611,AU (Mikael) Rounrdabout,,0
38.7400667,node/10905160371,8.9999889,AU (Mikael) Rounrdabout,,0
38.7518897,node/10905641592,8.9839514,Kera,,0
38.7123799,node/10905771998,8.9606229,Jemmo 1,,0
38.7216431,node/10905771999,8.9688439,Jemmo Mickael,,0
38.7468034,node/10905772000,9.0192423,Metrology,,0
38.7304143,node/10905772001,8.9969985,karl Square,,0
38.7227062,node/10905772002,8.9883364,Bisrate Gebrael,,0
38.7218663,node/10905772003,8.9687533,Jemmo Mickael,,0
38.7124299,node/10905772004,8.9604031,Jemmo 1,,0
38.6701812,node/10905866700,8.9493317,Noc,,0
38.6639521,node/10905876026,8.9339514,Alem Gena,,0
38.6640124,node/10905876027,8.933851,Alem Gena,,0
38.670031,node/10905876029,8.9493415,Noc,,0
38.6965362,node/10905876030,8.9538566,Jemmo 3 Squer,,0
38.697557,node/10905876031,8.9552123,Jemmo 3 Squer,,0
38.7520387,node/10905982178,9.0220649,Post Office,,0
38.732839,node/10905982179,8.9652918,Germen Square,,0
38.7325545,node/10905982180,8.9664306,Germen Square,,0
38.7418952,node/10906020778,8.9717027,Gofa,,0
38.7419996,node/10906020779,8.9716231,Gofa,,0
38.6979766,node/10906074341,8.9816221,Ayer Tena,,0
38.7320917,node/10906074342,8.9644965,Germen Square,,0
38.732112,node/10906074343,8.9646595,Germen Square,,0
38.6922537,node/10907679395,8.9883474,Mesked,,0
38.6892908,node/10907679396,8.9913753,Kidane Mihret,,0
38.683541,node/10907679398,8.9958978,Tropical,,0
38.677926,node/10907679399,9.0003808,Alem Bank,,0
38.6776565,node/10907679400,9.0010321,Alem Bank,,0
38.6841485,node/10907679401,8.9957016,Tropical,,0
38.689491,node/10907679402,8.9915373,Kidane Mihret,,0
38.6925125,node/10907679403,8.9884696,Mesked,,0
38.7060819,node/10907679404,8.9757717,Chaina Camp,,0
38.7121867,node/10907725405,8.9730472,Zenebewerk,,0
38.7275949,node/10907725406,8.9655559,Mickael Bridge,,0
38.7333383,node/10907781477,8.9648278,Germen Square,,0
38.7500865,node/10907781478,8.9844811,Kera,,0
38.750364,node/10907781479,8.9842955,Kera,,0
38.7490157,node/10907781480,8.9770976,Gofa Gebriel,,0
38.7491174,node/10907781481,8.9770919,Gofa Gebriel,,0
38.7343726,node/10908143594,8.9832814,Mekanisa Abo,,0
38.7341531,node/10908143595,8.9830621,Mekanisa Abo,,0
38.7440188,node/10908143596,9.0088673,Mexico,,0
38.7438,node/10908143597,9.0088181,Mexico,,0
38.7516402,node/10908191497,9.0263912,Tewodros Square,,0
38.7321651,node/10908191498,8.9739466,Mekanisa,,0
38.7322539,node/10908191499,8.9738507,Mekanisa,,0
38.7524753,node/10908191500,9.0187971,Post Office,,0
38.7334477,node/10908661149,8.9493572,Mebrathile,,0
38.729496,node/10909186645,9.0159317,Coca Cola,,0
38.735361,node/10909186646,9.0294352,Merab Hotel,,0
38.7334955,node/10909186647,9.0213907,Abenet,,0
38.7353749,node/10909186648,9.0293588,Merab Hotel,,0
38.7180312,node/10909186649,9.016555,Kolfe Keranyo,,0
38.7159578,node/10909186650,9.0203575,Holand,,0
38.7162551,node/10909186651,9.0204824,Holand,,0
38.7176312,node/10909186652,9.017036,Kolfe Keranyo,,0
38.7179346,node/10909186653,9.0171583,Kolfe Keranyo,,0
38.7202541,node/10909186654,9.0122446,Torhayloch,,0
38.7202419,node/10909186655,9.0120497,Torhayloch,,0
38.7097752,node/10909186657,9.0134653,Keranio Mewcha,,0
38.7097861,node/10909186658,9.0133225,Keranio Mewcha,,0
38.7049946,node/10909186659,9.0140592,Mewcha,,0
38.7050058,node/10909186660,9.0139288,Mewcha,,0
38.699427,node/10909186661,9.0153041,Mendida,,0
38.6995858,node/10909186662,9.0151509,Mendida,,0
38.6937692,node/10909186663,9.0037697,Betel,,0
38.6937746,node/10909186664,9.0036921,Betel,,0
38.6775777,node/10909186665,9.0017481,Alem Bank,,0
38.677633,node/10909186666,9.0016995,Alem Bank,,0
38.7080844,node/10911198617,8.9868549,Zenebewerk,,0
38.7081829,node/10911198618,8.9867824,Zenebewerk,,0
38.6960194,node/10911198619,8.9838764,Ayer Tena,,0
38.7446969,node/10911242345,9.0114518,Mexico Shebelle Hotel,,0
38.7445773,node/10911242346,9.0114526,Mexico Shebelle Hotel,,0
38.7336365,node/10911242347,9.0117415,Lideta,,0
38.7336469,node/10911242348,9.0115482,Lideta,,0
38.6772002,node/10911242349,9.001869,Alem Bank,,0
38.6769434,node/10911242350,9.0018954,Alem Bank,,0
38.7007283,node/10911695404,8.9834957,Ayer Tena,,0
38.6943792,node/10911717876,9.0044227,Betel,,0
38.6941796,node/10911717877,9.0043775,Betel,,0
38.6982237,node/10911725505,8.9831049,Ayer Tena,,0
38.7080303,node/10912835918,8.9879977,Zenebewerk,,0
38.7079594,node/10912835920,8.9880219,Zenebewerk,,0
38.714679,node/10913852032,9.0295143,Mebrat Haile,,0
38.7149385,node/10913852033,9.0294826,Mebrat Haile,,0
38.7146172,node/10913852034,9.0334554,18 Mazoria,,0
38.714468,node/10913852035,9.0334598,18 Mazoria,,0
38.7327435,node/10913863174,9.0196268,Abenet,,0
38.7327231,node/10913863175,9.0194053,Abenet,,0
38.7296372,node/10913863176,9.0159095,Coca Cola,,0
38.7222401,node/10913863177,9.0117875,Torhayloch,,0
38.7208808,node/10913863178,9.0096837,Torhayloch,,0
38.7185634,node/10913863179,9.0056583,Augusta Bridge,,0
38.7188581,node/10913863180,9.0055925,Augusta Bridge,,0
38.7188599,node/10913863181,9.0000925,Old Airport,,0
38.7191188,node/10913863182,8.9998426,Old Airport,,0
38.7170227,node/10913863183,8.9932525,3 Kutir Mazoriya (Total),,0
38.7158494,node/10913863184,8.9926315,3 Kutir Mazoriya (Total),,0
38.6817486,node/10913974717,8.9756363,Kara Kore,,0
38.6814462,node/10913974718,8.9754096,Kara Kore,,0
38.6894126,node/10913974719,8.9813701,Gerar,,0
38.6894421,node/10913974720,8.9813486,Gerar,,0
38.6982009,node/10913974721,8.9829716,Ayer Tena,,0
38.746198,node/10914160973,9.0116587,Mexico,,0
38.7438026,node/10914160974,9.0102476,Mexico,,0
38.708928,node/10914160976,8.987734,Zenebewerk,,0
38.7049751,node/10914160977,8.9849086,Zenebewerk,,0
38.7053463,node/10914680945,8.9853381,Zenebewerk Meneharia,,0
38.7056363,node/10914680946,8.9852574,Zenebewerk Meneharia,,0
38.71237,node/10914784456,9.0417169,Atena Tera,,0
38.7127192,node/10914784457,9.0414427,Atena Tera,,0
38.7426711,node/10915613002,9.028352,Tekle Haimanot,,0
38.742622,node/10915613003,9.0281855,Tekle Haimanot,,0
38.6937551,node/10915905485,9.0658063,Asko,,0
38.6937141,node/10915905486,9.065919,Asko,,0
38.7010467,node/10915905487,9.0612502,Chereta,,0
38.7011727,node/10915905488,9.0612523,Chereta,,0
38.7069671,node/10915905489,9.0575666,Gulele Fana,,0
38.7070447,node/10915905490,9.0576638,Gulele Fana,,0
38.7114229,node/10915905491,9.0572628,Awolia,,0
38.7116493,node/10915905492,9.0576104,Awolia,,0
38.7124522,node/10915905493,9.0555179,Winget,,0
38.7127252,node/10915905494,9.0554488,Winget,,0
38.6993091,node/10918141989,9.018116,Kokebe,,0
38.6991634,node/10918141990,9.0178995,Kokebe,,0
38.6969603,node/10918141991,9.0188526,Yeshi Debele,,0
38.6971815,node/10918141992,9.0185642,Yeshi Debele,,0
38.7017975,node/10918141993,9.0177704,Keranio Adebabay,,0
38.7006389,node/10918141994,9.0176675,Keranio Adebabay,,0
38.7049143,node/10918141995,9.0178222,Medhanalem,,0
38.7047128,node/10918141996,9.0175512,Medhanalem,,0
38.7208703,node/10918245686,9.0115804,Torhayloch,,0
38.720685,node/10918245687,9.0099639,Torhayloch,,0
38.7225031,node/10918314820,9.0114229,Torhayloch,,0
38.7206095,node/10918339958,9.0128836,Torhayloch,,0
38.7544283,node/10922141942,9.0118511,Legehar,,0
38.7174162,node/10923884107,9.0691686,Zebera,,0
38.7350114,node/10923884109,9.0630022,Addisu Gebeya,,0
38.7352489,node/10923884110,9.0625854,Addisu Gebeya,,0
38.725597,node/10923884111,9.0670589,Bera Tera,,0
38.7174444,node/10923884112,9.0689759,Zebera,,0
38.7374564,node/10923941250,9.0594889,Addisu Gebeya,,0
38.7379019,node/10923941251,9.059208,Addisu Gebeya,,0
38.7431266,node/10923941252,9.0528165,Semen Mazegaga,,0
38.7432318,node/10923941253,9.0528691,Semen Mazegaga,,0
38.7461562,node/10923941254,9.0483987,Shola,,0
38.7462522,node/10923941255,9.0484505,Shola,,0
38.7483104,node/10923941256,9.0446634,Semen Hotel,,0
38.7485012,node/10923941257,9.0446029,Semen Hotel,,0
38.745274,node/10923941258,9.0425995,Yohanes,,0
38.7453414,node/10923941259,9.0425158,Yohanes,,0
38.7394065,node/10923941260,9.0346843,Eritrea Hotel,,0
38.7393526,node/10923941261,9.0347991,Eritrea Hotel,,0
38.7517928,node/10924087993,9.0552727,Medhanalem,,0
38.7518851,node/10924087994,9.0552441,Medhanalem,,0
38.7497489,node/10924087995,9.0520868,Chelote,,0
38.7496604,node/10924087996,9.0521299,Chelote,,0
38.746423,node/10924087997,9.0479898,Shola,,0
38.7465175,node/10924087998,9.0480732,Shola,,0
38.7516855,node/10924088002,9.0385287,St. George Church,,0
38.7518109,node/10924088003,9.0385651,St. George Church,,0
38.7521881,node/10924088004,9.0365922,Piassa,,0
38.7533491,node/10924116805,9.0341764,Piassa,,0
38.7492165,node/10924116806,9.0650022,Kechenie,,0
38.7497807,node/10924116808,9.0652677,Kechenie,,0
38.7268465,node/10924211089,9.0639755,Shegole,,0
38.7269586,node/10924211090,9.0640548,Shegole,,0
38.7274953,node/10924211093,9.0590346,Rufael,,0
38.7274376,node/10924211094,9.0590438,Rufael,,0
38.7329754,node/10924211095,9.0544658,Tureta Deldy,,0
38.7330307,node/10924211096,9.054531,Tureta Deldy,,0
38.7377403,node/10924211097,9.0492619,Enqulal Fabrica,,0
38.7378298,node/10924211098,9.0492678,Enqulal Fabrica,,0
38.7440337,node/10924212637,9.0444679,Ras Desta,,0
38.7439161,node/10924212638,9.0444022,Ras Desta,,0
38.7483682,node/10924212640,9.0375917,Sebara Babur,,0
38.749271,node/10924212641,9.0358617,Abune Petros,,0
38.7494119,node/10924212642,9.0359205,Abune Petros,,0
38.7458165,node/10924212643,9.04258,Yohanes,,0
38.7459326,node/10924212644,9.0426863,Yohanes,,0
38.79823,node/10924342466,9.0230837,Shola Abyssinia Bank,,0
38.7854804,node/10924342467,9.0307347,British Embassy,,0
38.7730468,node/10924342468,9.0385889,Menelik II Hospital,,0
38.7728666,node/10924342469,9.0385052,Menlik Hospital,,0
38.761858,node/10924342470,9.0437871,6 Kilo,,0
38.7613161,node/10924342471,9.0453786,6 Kilo,,0
38.7527884,node/10924981547,9.0352542,Piassa,,0
38.7714084,node/10924981836,9.0168504,Kazanchis,,0
38.7712817,node/10924981837,9.0167816,Kazanchis,,0
38.767286,node/10924981839,9.0199981,Meneharya,,0
38.7614317,node/10924981840,9.0462061,6 Kilo,,0
38.7615616,node/10924981841,9.046202,6 Kilo,,0
38.7613028,node/10925096455,9.0430636,6 Kilo (Lion Zoo),,0
38.7621679,node/10925096457,9.0509212,Medhanalem,,0
38.7616364,node/10925096458,9.0609308,Shiromeda,,0
38.7618074,node/10925096459,9.0610296,Shiromeda,,0
38.7493321,node/10925161777,9.0350989,Abune Petros,,0
38.7492809,node/10925161778,9.0353615,Abune Petros,,0
38.7526253,node/10925161780,9.0385895,St. George Total,,0
38.7411822,node/10925161781,9.0338335,Raguel Church,,0
38.7413278,node/10925161782,9.0340374,Raguel Church,,0
38.7491307,node/10925161783,9.0352768,Piassa,,0
38.749266,node/10925161784,9.0350881,Piassa,,0
38.7462619,node/10925195639,9.0115722,Mexico,,0
38.7130281,node/10925695034,9.0572967,Winget,,0
38.7136024,node/10925695035,9.0576478,Winget,,0
38.7201372,node/10925835130,9.0630668,Shegole,,0
38.7201639,node/10925835131,9.0630578,Shegole,,0
38.7226821,node/10925835153,9.051016,Medhanalem,,0
38.7228048,node/10925835154,9.0512021,Medhanalem,,0
38.7275912,node/10925835155,9.047368,Pawlos Hospital,,0
38.7277025,node/10925835156,9.0474739,Pawlos Hospital,,0
38.7306013,node/10925835157,9.0462435,Pastor,,0
38.7305979,node/10925835158,9.0460773,Pastor,,0
38.7324674,node/10925835159,9.041653,Michael,,0
38.732621,node/10925835160,9.0418749,Michael,,0
38.731876,node/10925835161,9.0356953,Autobus Tera,,0
38.731937,node/10925835162,9.0357033,Autobus Tera,,0
38.8548285,node/10925946103,8.9844426,Summit Condominiums,,0
38.8525995,node/10925946104,8.9909634,Summit Condominiums,,0
38.8598883,node/10925966505,9.0206981,Meshageria,,0
38.8751635,node/10925966506,9.0212039,Derartu Adebabay,,0
38.8751433,node/10925966507,9.0215357,Derartu Adebabay,,0
38.8773377,node/10925966508,9.0403679,Gebreal,,0
38.8778174,node/10925966509,9.0402783,Gebreal,,0
38.8778648,node/10925966510,9.0556843,Aba Kiros,,0
38.878549,node/10925966511,9.0561133,Aba Kiros,,0
38.8903446,node/10926028111,8.9732139,Bole Arabsa,,0
38.8904396,node/10926028112,8.9726241,Bole Arabsa,,0
38.8850892,node/10926028113,8.9932453,Maseltegna,,0
38.8854551,node/10926028114,8.9932023,Maseltegna,,0
38.8780839,node/10926028115,9.0100814,Sun shine,,0
38.8779385,node/10926028116,9.0100956,Sun shine,,0
38.8770142,node/10926028117,9.0215285,Ayat,,0
38.8848989,node/10926040103,8.9875932,Mariam,,0
38.8852531,node/10926040104,8.9875847,Mariam,,0
38.8767405,node/10926074605,9.0212341,Ayat,,0
38.8529201,node/10926094674,8.9910294,Summit Condominiums,,0
38.8033659,node/10926094675,9.0195894,Megenagna,,0
38.8038784,node/10926817920,9.0203394,Megenagna,,0
38.8779123,node/10926817921,9.057063,Tafo Square,,0
38.8780073,node/10926817922,9.0566681,Tafo Square,,0
38.8763861,node/10926849848,9.0021737,Sun shine,,0
38.8537813,node/10926849849,9.0011674,Summit Chafe,,0
38.8537842,node/10926849850,9.0015569,Summit Chafe,,0
38.8299574,node/10926849851,8.9918731,Goro,,0
38.8303339,node/10926849852,8.9917492,Goro,,0
38.8256621,node/10926896755,9.0194791,Se'alite Mihret,,0
38.8254269,node/10926896756,9.0198404,Se'alite Mihret,,0
38.8944977,node/10926896757,9.0109362,Ayat Chefe Condominium,,0
38.8946434,node/10926896758,9.0113892,Ayat Chefe Condominium,,0
38.8758009,node/10928177661,9.0207778,Ayat,,0
38.854445,node/10928876312,8.9846036,Summit Condominiums,,0
38.8548242,node/10928876313,8.9844416,Summit Condominiums,,0
38.751565,node/10929299420,9.0273248,Tewodros Square,,0
38.7517149,node/10929299421,9.0273553,Tewodros Square,,0
38.7480915,node/10929299422,9.0209798,Tikur Anbesa,,0
38.7449001,node/10929337801,9.0105347,Mexico,,0
38.7559408,node/10929337802,9.0119557,Stadium,,0
38.7559437,node/10929337803,9.0121328,Stadium,,0
38.8009614,node/10929412718,9.0195364,Megenagna,,0
38.8005907,node/10929412719,9.0190569,Megenagna,,0
38.787267,node/10929412721,9.0155693,22 Mazoria,,0
38.7940688,node/10929694820,9.0211986,Lem Hotel,,0
38.7939939,node/10929694821,9.0210828,Lem Hotel,,0
38.7815067,node/10929694822,9.0235014,Signal,,0
38.781471,node/10929694823,9.0233755,Signal,,0
38.7718347,node/10929694824,9.0280712,Abuare Gebeya,,0
38.7718123,node/10929694825,9.0279894,Abuare Gebeya,,0
38.7520638,node/10929694826,9.0270034,Tewodros Square,,0
38.7520149,node/10929694827,9.0268625,Tewodros Square,,0
38.744541,node/10929694828,9.0285216,Tekle Haimanot,,0
38.74454,node/10929694829,9.0284531,Tekle Haimanot,,0
38.8009431,node/10929694830,9.020064,Megenagna,,0
38.8005994,node/10929694831,9.0200336,Megenagna,,0
38.7209032,node/10929752934,9.0127448,Torhayloch,,0
38.7998465,node/10931788261,9.0225048,Megenagna,,0
38.8010821,node/10931788262,9.021325,Megenagna,,0
38.8385778,node/10931809323,9.0303308,Kotebe,,0
38.8331547,node/10931809324,9.0284671,Se'alite Mihret,,0
38.833187,node/10931809325,9.0283689,Se'alite Mihret,,0
38.8139293,node/10931809326,9.0216042,Lamberet,,0
38.813953,node/10931809327,9.0214909,Lamberet,,0
38.8642169,node/10931809328,9.0404534,Kara,,0
38.864319,node/10931809329,9.0404001,Kara,,0
38.8015712,node/10931809330,9.0216983,Megenagna,,0
38.799743,node/10931850027,9.0224128,Megenagna,,0
38.7799581,node/10931850028,9.0344299,Kokebe Tsebah (Kebena),,0
38.7628341,node/10931884718,9.036142,4 Kilo,,0
38.7769686,node/10931884719,9.0571169,Ferensay,,0
38.7769596,node/10931884720,9.0570142,Ferensay,,0
38.7722195,node/10931884721,9.0535366,Mezan,,0
38.7721316,node/10931884722,9.0535794,Mezan,,0
38.7690665,node/10931884723,9.0470261,Jan Meda,,0
38.7690208,node/10931884724,9.0471196,Jan Meda,,0
38.8021444,node/10931937848,9.0180915,Megenagna,,0
38.766754,node/10931937849,8.9633989,Kadisco,,0
38.776629,node/10931995346,9.0347501,Kebena,,0
38.7618099,node/10932040828,9.0435664,6 Kilo,,0
38.7526555,node/10932040829,9.0386325,St. George Total,,0
38.7527659,node/10932040830,9.038614,St. George Total,,0
38.7950974,node/10932115661,9.017586,Lem Hotel,,0
38.8198719,node/10932115662,9.0239221,Lamberet,,0
38.7471612,node/10932115666,9.0107374,Mexico,,0
38.7467607,node/10932115667,9.0104411,Mexico,,0
38.796095,node/10933668851,9.0249902,Shola Gebeya,,0
38.7963986,node/10933668852,9.0253078,Shola Gebeya,,0
38.8021516,node/10933668868,9.0290044,Beg Tera,,0
38.802143,node/10933668869,9.0289126,Beg Tera,,0
38.8093843,node/10933668870,9.0315916,Zebera,,0
38.8094344,node/10933668871,9.0314928,Zebera,,0
38.818742,node/10933668873,9.0355162,Kidane Mihret,,0
38.8186176,node/10933668874,9.0355971,Kidane Mihret,,0
38.7750759,node/10933970678,9.0113969,St. Urael Church,,0
38.7752362,node/10933970679,9.0110384,St. Urael Church,,0
38.7797684,node/10934121405,9.004269,Atlas,,0
38.779678,node/10934121406,9.0041884,Atlas,,0
38.7748368,node/10934121407,9.0103387,St. Urael Church,,0
38.7749361,node/10934121408,9.0104642,St. Urael Church,,0
38.7518505,node/10934142102,8.9843274,Kera,,0
38.7515846,node/10934142103,8.9840695,Kera,,0
38.7632997,node/10934274056,9.0324426,4 Kilo,,0
38.762845,node/10934274058,9.012454,St. Estifanos,,0
38.7482685,node/10934274059,9.0109591,Buna Ena Shay,,0
38.748215,node/10934274060,9.0106827,Buna Ena Shay,,0
38.7645933,node/10936313832,9.032283,4 Kilo,,0
38.7648081,node/10936313833,9.0323383,4 Kilo,,0
38.7321818,node/10936490562,9.0289759,Sebategna,,0
38.7322093,node/10936490563,9.028913,Sebategna,,0
38.7211312,node/10936490564,9.0258457,Amanuel Total,,0
38.721144,node/10936490565,9.0258301,Amanuel Total,,0
38.7131944,node/10936621813,9.0576027,Winget,,0
38.7375414,node/10936724096,9.0486146,Enqulal Fabrica,,0
38.7377157,node/10936724097,9.0485559,Enqulal Fabrica,,0
38.731079,node/10937101933,8.9975486,karl Square,,0
38.7610795,node/10937167108,9.0442105,6 Kilo,,0
38.7614376,node/10937167109,9.0442026,6 Kilo,,0
38.7484685,node/10937209934,8.9877236,Kera,,0
38.7497785,node/10937271651,9.0652788,Kechenie,,0
38.7252968,node/10961301939,9.033877,Mesalemia,,0
38.7255313,node/10961301940,9.0339779,Mesalemia,,0
38.7312096,node/10961301941,9.0338527,Merkato,,0
38.7312282,node/10961301942,9.0337645,Merkato,,0
38.7433286,node/10961408041,9.028926,Tekle Haimanot,,0
38.7757907,node/10961408042,9.0264526,Abuare Roundabout,,0
38.7759091,node/10961408043,9.0265186,Abuare Roundabout,,0
38.7007101,node/10961408397,9.0178983,Keranio Adebabay,,0
38.7004401,node/10961408398,9.014972,Mendida,,0
38.7004576,node/10961408399,9.0151204,Mendida,,0
38.7860616,node/10963292174,8.9983425,Bole Medhanyalem,,0
38.7862416,node/10963292175,8.9984526,Bole Medhanyalem,,0
38.688451,node/10963817572,9.0231558,Weybla Mariam,,0
38.6882249,node/10963817573,9.0233344,Weybla Mariam,,0
38.7889432,node/10963932669,9.0159879,22 Mazoria,,0
38.7226406,node/10964879159,8.9884101,Bisrate Gebrael,,0
38.7086432,node/10970584167,9.0333084,Luwkanda,,0
38.7086485,node/10970584168,9.0332835,Luwkanda,,0
38.7126753,node/10970584169,9.0335266,18 Mazoria,,0
38.7126794,node/10970584170,9.0335023,18 Mazoria,,0
38.7164132,node/10970584171,9.0372905,Abysinia Coffee,,0
38.7164416,node/10970584172,9.037294,Abysinia Coffee,,0
38.7149465,node/10970748190,9.0337305,18 Mazoria,,0
38.7087797,node/10970748192,9.0515413,4 Menta Adebabay,,0
38.7088057,node/10970748193,9.0514981,4 Menta Adebabay,,0
38.7058937,node/10970748194,9.0503697,Tero Mosque,,0
38.7058901,node/10970748195,9.0503743,Tero Mosque,,0
38.7327781,node/10970823802,9.0294218,Sebategna,,0
38.732906,node/10970823803,9.0294686,Sebategna,,0
38.7492677,node/10970829160,9.0350955,Piassa Arada,,0
38.7535518,node/10970912911,9.033556,Piassa Arada,,0
38.6992026,node/10970912912,9.0542225,Rufael,,0
38.6992201,node/10970912913,9.0542148,Rufael,,0
38.6737826,node/10973319411,8.9922493,Selefia Mosque,,0
38.6737682,node/10973319412,8.9922388,Selefia Mosque,,0
38.7498429,node/10973319413,9.0343357,Piassa Arada,,0
38.749831,node/10973319414,9.0343492,Piassa Arada,,0
38.7606274,node/10973319416,9.0610285,Shiromeda,,0
38.760666,node/10973319417,9.0610076,Shiromeda,,0
38.7886493,node/10973446898,8.8697296,Akaki Gebeya,,0
38.7886284,node/10973446899,8.8697306,Akaki Gebeya,,0
38.7864676,node/10973446900,8.8769296,Meshualekya,,0
38.734517,node/10973631794,8.9482942,Mebrathayil,,0
38.7344951,node/10973631795,8.9481457,Mebrathayil,,0
38.7443373,node/10973631797,8.9473757,Lafto,,0
38.798935,node/10973672014,8.8667554,Yeshi Total,,0
38.8028464,node/10973929780,9.0206661,Megenagna,,0
38.8234705,node/10973929781,9.0339313,Biretabret,,0
38.8316053,node/10973929783,9.0375694,Hanna Mariam,,0
38.8316071,node/10973929784,9.037593,Hanna Mariam,,0
38.8388573,node/10973929786,9.0374618,Kotebe Teachers College,,0
38.8505525,node/10973929787,9.0390977,Kotebe Gebriel,,0
38.8505551,node/10973929788,9.039072,Kotebe Gebriel,,0
38.8279461,node/10973960231,9.0357328,Kotebe,,0
38.8279666,node/10973960232,9.035744,Kotebe,,0
38.7769466,node/10973960233,9.0343234,Kebena,,0
38.8735567,node/10974036529,9.0637787,Yeka Abado,,0
38.8734371,node/10974036530,9.0638007,Yeka Abado,,0
38.8092174,node/10989247669,8.9948109,Taxi Tera,,0
38.7945353,node/10989247670,8.9888698,Bole Bridge,,0
38.8517594,node/10989247671,9.0048732,Summit,,0
38.8520615,node/10989247672,9.0050343,Summit,,0
38.7737291,node/10989306740,8.9791887,Bole Mickael,,0
38.7732491,node/10989306742,8.979439,Bole Mickael,,0
38.798111,node/10989306744,8.9647488,Riventy,,0
38.7981165,node/10989306745,8.9647649,Riventy,,0
38.6991226,node/10989322788,9.0437261,Lomi Meda,,0
38.7046602,node/10989322789,9.0423415,Philiphs,,0
38.7046599,node/10989322790,9.0423523,Philiphs,,0
38.7116329,node/10989322793,9.0417345,Atena Tera,,0
38.7116327,node/10989322794,9.0417198,Atena Tera,,0
38.7128543,node/10989352901,9.0418861,Atena Tera,,0
38.7136815,node/10989352903,9.0419946,Atena Tera,,0
38.7169566,node/10989352904,9.037404,Kolfe,,0
38.7170428,node/10989388405,9.0373552,Kolfe,,0
38.7213864,node/10989388406,9.0376969,Chid Tera,,0
38.7215618,node/10989388407,9.0375624,Chid Tera,,0
38.760933,node/10989495135,9.0339795,Tourist Hotel,,0
38.7627083,node/10989495136,9.0331899,Tourist Hotel,,0
38.7522109,node/10989495137,9.0365466,St. George Church,,0
38.7524292,node/10989495138,9.0365649,St. George Church,,0
38.723026,node/10989606497,9.0280891,Amanuel Church,,0
38.7230514,node/10989606498,9.0280827,Amanuel Church,,0
38.7246409,node/10989606501,9.0330957,Mesalemia,,0
38.7246228,node/10989606502,9.0330994,Mesalemia,,0
38.729182,node/10989606503,9.0170151,Coca Cola,,0
38.7293902,node/10989606504,9.0169029,Coca Cola,,0
38.7477611,node/10989700748,9.0216869,Tikur Anbesa,,0
38.7476433,node/10989700750,9.0214822,Tikur Anbesa,,0
38.8028176,node/10989765272,9.0198621,Megenagna,,0
38.7619614,node/10991706244,9.0331305,Tourist Hotel,,0
38.7538719,node/10991706246,9.018399,Ambasader,,0
38.7539744,node/10991706247,9.0182782,Ambasader,,0
38.7588533,node/10991763449,9.0515112,Manen,,0
38.7588598,node/10991763450,9.0515112,Manen,,0
38.776766,node/10992050085,8.883961,Selam Building,,0
38.7693473,node/10992073740,8.944348,Saris Abo,,0
38.7772664,node/10992247910,8.883111,Selam Building,,0
38.768463,node/10992247911,8.8801893,Gelan Condominium,,0
38.7684764,node/10992247913,8.8801651,Gelan Condominium,,0
38.7887302,node/10994789635,8.8738823,Breta bret,,0
38.7888076,node/10994942333,8.867782,Akaki CBE,,0
38.7887141,node/10994942334,8.8679415,Akaki CBE,,0
38.7462885,node/10995013009,9.0098456,Mexico,,0
38.7443751,node/10995013010,8.9470636,Lafto,,0
38.7504178,node/10995013013,8.9537702,Lafto (Mickael),,0
38.7070388,node/10995113524,9.0051854,Woyira Sefer,,0
38.7068721,node/10995113525,9.0050595,Woyira Sefer,,0
38.7170312,node/10996939227,8.9932233,Total 3 Kutir mazoria,,0
38.7486669,node/10997112356,8.9671943,Mebrat,,0
38.7487468,node/10997112357,8.9671522,Mebrat,,0
38.7515775,node/10997112358,8.9621911,Biharetsege,,0
38.7515885,node/10997112359,8.9622089,Biharetsege,,0
38.7631284,node/10997112361,8.9576758,Adey Abeba,,0
38.7631332,node/10997112362,8.9576954,Adey Abeba,,0
38.7488713,node/10997112364,8.9758799,Gofa Gebriel,,0
38.7489751,node/10997112365,8.9758721,Gofa Gebriel,,0
38.7332825,node/10997125769,9.0196301,Abenet,,0
38.6708623,node/10997242295,8.963665,Weleta,,0
38.6708779,node/10997242296,8.9636677,Weleta,,0
38.6731812,node/10997242298,8.9666342,Weleta Tele,,0
38.6774372,node/10997242299,8.9764681,Repi Highschool,,0
38.6774017,node/10997242300,8.9765185,Repi Highschool,,0
38.8741609,node/10997243557,9.0576594,Sara Ampol,,0
38.874351,node/10997243558,9.0575648,Sara Ampol,,0
38.8693718,node/10997243559,9.0480764,Kara Condominium,,0
38.8695015,node/10997243560,9.0480356,Kara Condominium,,0
38.7207531,node/10997360870,9.0107982,Torhayloch,,0
38.7447026,node/10997382833,9.0114511,Mexico,,0
38.7445835,node/10997382834,9.0114533,Mexico,,0
38.7440492,node/10997495133,9.01285,Mexico,,0
38.74405,node/10997495134,9.01282,Mexico,,0
38.7345884,node/10997495135,9.0163639,Darmar,,0
38.7545702,node/10998041498,9.0329801,Piassa Arada,,0
38.7537202,node/10998041499,9.0334582,Piassa Arada,,0
38.7949306,node/10998041503,9.025295,Shola,,0
38.7947575,node/10998041504,9.0251357,Shola,,0
38.7722516,node/11033818190,8.8954024,Kality Meneharia,,0
38.7642099,node/11033818192,8.9361085,Kality Maseltegna,,0
38.7406449,node/11033818193,8.9994656,AU (Mikael) Rounrdabout,,0
38.7438741,node/11033818195,9.0089885,Mexico,,0
38.7440373,node/11033818196,9.0089241,Mexico,,0
38.7474194,node/11033818197,8.9945922,Bulgaria Mazoria,,0
38.7373077,node/11033818199,9.0316048,Autobis Tera,,0
38.7377146,node/11033818200,9.0299591,Autobis Tera,,0
38.7483364,node/11033903482,8.9864921,Kera,,0
38.7661068,node/11034015157,8.9450016,Saris Abo,,0
38.7522899,node/11034015158,9.0331054,Piassa Arada,,0
38.7511155,node/11034015159,9.0321742,Piassa Arada,,0
38.7370369,node/11034031010,9.03055,Autobis Tera,,0
38.7612633,node/11034031011,9.0626384,Shero Meda,,0
38.7598757,node/11034031012,9.0583756,Tsehay Chora (ShiroMeda),,0
38.7493262,node/11034031013,9.0351037,Abune Petros,,0
38.7370571,node/11034031014,9.0305604,Autobis Tera,,0
38.7572407,node/11034054993,9.0777204,Kuskoam,,0
38.7654122,node/11034209866,9.0321373,Arat Kilo,,0
38.6806691,node/11034280233,8.9753965,Kara Kore,,0
38.6960927,node/11034280234,8.9825611,Ayer Tena,,0
38.6805349,node/11034280236,8.9753861,Kara Kore,,0
38.7614325,node/11034427397,9.0426561,Lion Zoo (PEPSI Kiosk),,0
38.777181,node/11034427398,9.0571131,Abo Mazoriya,,0
38.7835816,node/11034427399,9.0608545,Yeha,,0
38.7880233,node/11034427400,9.0622785,Gurara,,0
38.7888027,node/11034427401,9.0624066,Gurara,,0
38.7634093,node/11034511605,8.9535755,Saris,,0
38.7636248,node/11034511606,8.9535945,Saris,,0
38.7371486,node/11034611751,9.0296904,Autobis Tera,,0
38.8004821,node/11034647605,9.0221498,Megenagna,,0
38.7220211,node/11035234709,9.0115667,Torhailoch,,0
38.710203,node/11035240259,9.0408403,Millenium School,,0
38.7214866,node/11035240260,9.0376857,Chid Tera,,0
38.7151236,node/11035240261,9.0338468,Degu Hotel,,0
38.7051066,node/11035240263,9.0423792,Philiphs (Lomi Meda),,0
38.7051082,node/11035240264,9.0423523,Philiphs (Lomi Meda),,0
38.6971291,node/11035502832,8.9837379,Ayer Tena,,0
38.7015659,node/11035502833,8.9836981,Ayer Tena,,0
38.7255627,node/11035532608,8.9914198,Bisrate Gebrael,,0
38.7682089,node/11035607129,9.0191017,Zenebewerk Hotel,,0
38.7636411,node/11035607130,9.0107497,Estifanos,,0
38.7386025,node/11035607131,9.0109263,Lideta Condominium,,0
38.7080773,node/11035662205,8.9882771,Zenebework,,0
38.7377271,node/11035734852,9.0165403,Darmar,,0
38.7418753,node/11035734855,8.9270084,Hana Maryam,,0
38.700756,node/11035818337,9.058672,Bercheko Condominium,,0
38.6529741,node/11035914858,8.9231915,Alem Gena,,0
38.6701962,node/11035914859,8.9494175,Noc,,0
38.6699835,node/11035914860,8.9490541,Noc,,0
38.6735724,node/11035914861,8.9666123,Weleta Tele,,0
38.6708945,node/11035914862,8.9635929,Weleta,,0
38.6707668,node/11035914863,8.9641803,Weleta,,0
38.6731872,node/11035914864,8.9666144,Weleta Tele,,0
38.6967597,node/11035914865,8.9834038,Ayer Tena,,0
38.6960161,node/11035914869,8.9825038,Ayer Tena,,0
38.8642175,node/11036026882,9.0404548,Kara,,0
38.7693583,node/11036079238,8.9444406,Saris Abo,,0
38.7750063,node/11036079239,8.9328577,Werku Sefer,,0
38.7499581,node/11036079243,8.9846712,Kera,,0
38.7486833,node/11036079245,8.9856933,Kera,,0
38.6744385,node/11036753217,9.0221266,Anfo Meda,,0
38.819824,node/11036769860,8.8736134,Tulu Dimtu Adebabay,,0
