stop_id,location_type,stop_name,parent_station,stop_lon,stop_lat
way/604046026,0,C.M.C,,38.8505081,9.0210561502
way/604046027,0,C.M.C,,38.8504555,9.0209504501
way/604046028,0,Meri,,38.86039005,9.0206309001
way/604046029,0,Meri,,38.86039745,9.0205342501
way/604046052,0,Ayat,,38.8717948,9.0212283001
way/604046053,0,Ayat,,38.87179745,9.0211369001
way/758915882,0,St. Michael,,38.8426211,9.0213594001
way/758915883,0,St. Michael,,38.8426345,9.0214511001
way/758919087,0,Management Institute,,38.8284090499,9.0208269001
way/758919088,0,Management Institute,,38.8283603999,9.0209051001
way/758919089,0,Civil Service College,,38.83479945,9.0216842501
way/758919090,0,Civil Service College,,38.83479775,9.0217686501
way/758922739,0,Bambis,,38.76879995,9.0104366001
way/758922740,0,Bambis,,38.76877485,9.0103406001
way/758922741,0,St. Urael,,38.77470915,9.01097965
way/758922742,0,Hayahulet 2,,38.7832560999,9.0148301501
way/758922743,0,Hayahulet 2,,38.7832141999,9.0149096001
way/758922744,0,ሃያ ሁለት 1,,38.7893457,9.0161997001
way/758922745,0,ሃያ ሁለት 1,,38.7893058,9.0162805001
way/758922746,0,Lem Hotel,,38.7959030499,9.0178779001
way/758922747,0,Lem Hotel,,38.7958714999,9.0179702501
way/758922751,0,Megenagna,,38.8026662,9.0196319001
way/758922752,0,Gurd Sholla 2,,38.81016615,9.0201812501
way/758922753,0,Gurd Sholla 2,,38.8101826,9.0202704501
way/758922754,0,Gurd Sholla 1,,38.8199118,9.0190550501
way/758922755,0,Gurd Sholla 1,,38.8199363,9.0191373501
way/758926923,0,Tor Hailoch,,38.7228792001,9.0114466001
way/758926924,0,Tor Hailoch,,38.7228400001,9.0113509001
way/758926925,0,Cocacola,,38.72927195,9.0120608501
way/758926926,0,Cocacola,,38.7292679,9.0119827001
way/758926927,0,St. Lideta,,38.7358812,9.0113260501
way/758926928,0,St. Lideta,,38.735902,9.0114191001
way/758926929,0,Tegbared,,38.74251165,9.0104883001
way/758926930,0,Tegbared,,38.74252605,9.0105720501
way/758926931,0,Mexico,,38.7486780499,9.0110042001
way/758926932,0,Mexico,,38.7486304499,9.0111035001
way/758926933,0,Leghar,,38.75364485,9.0118976001
way/758926934,0,Leghar,,38.7536616,9.0118055501
way/758926935,0,Stadium,,38.75765945,9.0119426001
way/758926936,0,Stadium,,38.75768125,9.0120396501
way/758926937,0,St. Estifanos,,38.7633918,9.0109756501
way/758926938,0,St. Estifanos,,38.7634133,9.0110528501
way/759354435,0,Gojam Berenda,,38.7383589,9.0341520001
way/759354436,0,Gojam Berenda,,38.73838775,9.0342421001
way/759354437,0,Atikilt Tera,,38.7469346,9.0345698501
way/759354438,0,Atikilt Tera,,38.7469217,9.0346634001
way/759359409,0,Kality,,38.7631070001,8.938011
way/759359410,0,Kality,,38.7630034001,8.93795435
way/759359411,0,Abo Junction,,38.7663008501,8.94501825
way/759359412,0,Abo Junction,,38.7662190501,8.9449765
way/759359413,0,Saris,,38.7634466333,8.9519971333
way/759359414,0,Saris,,38.7633591333,8.9519912333
way/759359415,0,Adey Abeba,,38.76388145,8.9567954
way/759359416,0,Adey Abeba,,38.76379965,8.9568021
way/759359417,0,Lancha,,38.75926535,8.9903485
way/759359418,0,Lancha,,38.75916345,8.9903366
way/759359419,0,Temenja Yazh,,38.7598284334,8.9952452
way/759359420,0,Temenja Yazh,,38.7597271667,8.9952399
way/759359421,0,Riche,,38.7587088,9.0005732
way/759359422,0,Riche,,38.7586096,9.00058575
way/759359423,0,Meshwalekya,,38.7588805,9.00485825
way/759359424,0,Meshwalekya,,38.7587524,9.00486215
way/759359425,0,Darmar,,38.73475,9.0154149
way/759359426,0,Darmar,,38.73466315,9.01542485
way/759359427,0,Abnet,,38.73335125,9.0212786
way/759359428,0,Abnet,,38.73341865,9.0212687
way/759359429,0,Sebategna,,38.73298775,9.0283819
way/759359430,0,Sebategna,,38.7330763,9.0284011
way/759359431,0,Autobus Tera,,38.7329878,9.0340910501
way/759359432,0,Autobus Tera,,38.7329908,9.0340079501
way/759365358,0,Nifas Silk 2,,38.7607979501,8.9731988
way/759365359,0,Nifas Silk 2,,38.7606849501,8.97316965
way/759365360,0,Nifas Silk 1,,38.7629963,8.9657149
way/759365361,0,Nifas Silk 1,,38.7628904,8.96571355
node/847244293,0,Beherawi Theatre,,38.7525538,9.0165395
node/847244423,0,Black Lion,,38.7521415,9.0209237
node/4832025024,0,4 Kilo,,38.7632408,9.0344007
node/4884374622,0,Lamberet Terminal (Bus),,38.8158571,9.0223057
node/5248250425,0,Sar Bet (Roundabout),,38.738182,8.9929728
node/5330678521,0,Ambassador,,38.7553162,9.0164409
node/5736089088,0,Stadium,,38.7570321,9.0120276
node/6251054285,0,Mebrathail,,38.7146778,9.0295451
node/6307600909,0,Asko,,38.6928185,9.0654733
node/6373574986,0,Bole Printing Press,,38.7718334,8.9976331
node/6728583386,0,Arada,,38.7516761,9.0331479
node/6798927886,0,Kebede Wessene Rd.,,38.8053365,8.9986049
node/6814022390,0,Mexico,,38.7444332,9.0094665
node/6967142984,0,Mebrat Condominium,,38.7438796,8.9644773
node/6967165728,0,Mebrat,,38.7486643,8.9673396
node/6967179322,0,Gofa Gebriel,,38.7491221,8.9771232
node/6967179323,0,Kera (Gofa Road),,38.7498599,8.9825519
node/6967225474,0,Tewodros Square,,38.7516602,9.0277111
node/6967234177,0,German Square,,38.732897,8.9655968
node/6967281153,0,Friendship Building,,38.7859995,8.9899905
node/6967281241,0,Piassa (Downtown Cafe),,38.7512565,9.0319356
node/6967281242,0,Piassa Arada (2),,38.7526242,9.0330123
node/6967318740,0,Gojo,,38.6217166,9.0418236
node/7022361366,0,Megenagna Terminal,,38.8026673,9.0203188
node/7022397409,0,Bole Millenium,,38.7897496,8.9885373
node/7022397410,0,Bole Millenium,,38.789886,8.9887535
node/7022397411,0,Goro School,,38.8267584,8.9937973
node/7022397413,0,Summit Condominiums,,38.8569749,8.9842709
node/7022397414,0,Summit Condominiums,,38.8570885,8.9842404
node/7022397416,0,Bole Arabsa,,38.8906061,8.9720161
node/7022397417,0,Bole Arabsa,,38.8903477,8.9732168
node/7022397418,0,Aba Kiros Roundabout,,38.8785328,9.0561234
node/7022397420,0,Yeka Abado,,38.875565,9.0689298
node/7022397421,0,Yeka Abado,,38.8756232,9.0688377
node/7037142410,0,Gurara,,38.7893816,9.0626023
node/7037142414,0,Abuare Roundabout,,38.7757967,9.026427
node/7037142415,0,Abuare Roundabout,,38.7759255,9.026504
node/7037142417,0,Marathon Motor (Megenagna),,38.8000289,9.0224201
node/7037142419,0,Yeha,,38.7836264,9.060739
node/7037142420,0,Tena Tabya,,38.7839285,9.0608445
node/7037142421,0,Biret Dildiy (Bono Wuha),,38.7811505,9.0598571
node/7037142422,0,Bret Dildy (Bono Wuha),,38.7810894,9.0599927
node/7037142423,0,Atlas,,38.7797667,9.0042786
node/7037142424,0,Bole Medhanialem,,38.7860596,8.9983386
node/7037142426,0,Bole Medhanialem,,38.7862428,8.9984556
node/7037142427,0,24,,38.800549,9.0098865
node/7037142428,0,Dinberwa Hospital,,38.7866932,9.0221273
node/7037142430,0,Kokebe Tsebah School,,38.7802113,9.0345238
node/7037142431,0,Kokebe Tsebah School,,38.7799476,9.034441
node/7037142433,0,Belgium Embassy,,38.7839469,9.031876
node/7037142434,0,British Embassy,,38.784892,9.0311083
node/7037142435,0,British Embassy,,38.7855544,9.0309087
node/7037142436,0,Abebe Sook,,38.7887162,9.0287538
node/7037142438,0,Shola Gebeya,,38.7952986,9.0250779
node/7037142439,0,Yeka Michael,,38.7961373,9.0244101
node/7037142441,0,Megenagna,,38.8021491,9.0180934
node/7037142442,0,Megenagna,,38.8017521,9.0182711
node/7037142443,0,Derartu,,38.7818414,8.8868864
node/7037142444,0,Gelan Condominium,,38.7837651,8.8856808
node/7037142445,0,08 Adarash,,38.785491,8.8844052
node/7037142446,0,Meshuwalekia Akaki,,38.7865253,8.8767985
node/7037142448,0,Akaki Beretaberet,,38.7887478,8.8738843
node/7037142450,0,G7 (Tulu Dimtu),,38.8207065,8.870907
node/7037142454,0,Tulu Dimtu Unisa,,38.8042339,8.8552763
node/7037142455,0,Tulu Dimtu,,38.8041524,8.8556159
node/7037142456,0,Akaki Korkoro,,38.7961539,8.8597556
node/7037142459,0,Tulu Dimtu (Taf Gas Station),,38.8051915,8.8688691
node/7037142460,0,Arsema,,38.8136608,8.8722685
node/7037142461,0,Selam Sefer (Tapela Gar),,38.8140262,8.8722281
node/7037142462,0,Tulu Dimtu Adebabay,,38.8201689,8.8747821
node/7037142464,0,Project 12 Akababi,,38.8218482,8.8658608
node/7037142465,0,Mahiber Betoch,,38.8148895,8.8592154
node/7037142466,0,Bole Dildiy,,38.7912061,8.9869933
node/7037142467,0,Megenagna / Zefmesh,,38.8000136,9.02034
node/7037142469,0,Megenagna,,38.8010735,9.0213214
node/7037142470,0,Megenagna,,38.8015921,9.0217137
node/7037142471,0,Abysinia Cafe Area,,38.8100422,9.0215363
node/7037142472,0,Abysinia Cafe Area,,38.810853,9.0213396
node/7037142474,0,Century Mall,,38.8132781,9.0196778
node/7037142475,0,Gurd-shola,,38.8215105,9.0187352
node/7037142476,0,Menaheria,,38.8192066,9.0239816
node/7037142477,0,Menaheria,,38.8192354,9.0238758
node/7037142479,0,Gerji Mebrat Haile,,38.814876,9.003632
node/7037142483,0,Gerji Mebrat Haile,,38.8132574,9.0037638
node/7037142484,0,Lamberet,,38.8251916,9.0253421
node/7037183485,0,Lamberet Area,,38.8271787,9.0258842
node/7037183486,0,Lamberet Area,,38.8273076,9.0260507
node/7037183487,0,Lamberet Area,,38.8271189,9.0259969
node/7037183490,0,Yerer Goro,,38.8294063,8.9913503
node/7037183491,0,Yerer Goro,,38.8292171,8.9913222
node/7037183492,0,Se'alite Mihret Church,,38.8265756,9.020263
node/7037183493,0,Management Institute,,38.82686,9.0203852
node/7037183494,0,Sealite Mihret,,38.8273219,9.0203048
node/7037183495,0,Civil Service College,,38.8342032,9.0216167
node/7037183496,0,St. Michael,,38.8414217,9.021312
node/7037183497,0,St. Micheal Church,,38.8425033,9.0215489
node/7037183498,0,Salite Mihret,,38.8331954,9.0283709
node/7037183499,0,Hillside (Ethio-China Mebrathaile),,38.8333256,9.0285264
node/7037183501,0,Wessen Michael,,38.838592,9.030459
node/7037183502,0,Hanna Mariam,,38.8316144,9.0375551
node/7037183503,0,Hanna Mariam,,38.8316246,9.0375969
node/7037183504,0,Wessen,,38.8442968,9.0330948
node/7037183505,0,Wessen,,38.8445812,9.033228
node/7037183507,0,Wessen (Mariam),,38.8446898,9.0330982
node/7037183508,0,Kotebe Teachers College,,38.8466963,9.0342084
node/7037183509,0,Yabem Hotel,,38.8533863,9.0357649
node/7037183510,0,Kotebe Gebriel,,38.8545188,9.036101
node/7037183513,0,Yetebaberut,,38.8526027,9.0201901
node/7037183515,0,Yetebaberut,,38.8539074,9.0207031
node/7037183516,0,Meri,,38.8603565,9.0207092
node/7037183518,0,Meri (Yetebaberut),,38.8610727,9.0205124
node/7037183519,0,Ayat,,38.8686047,9.0208331
node/7037183520,0,Ayat Zone 2,,38.8678248,9.0210633
node/7037183521,0,Kara (Turn),,38.8606002,9.0379427
node/7037183523,0,Medhanalem Church,,38.8640163,9.0401552
node/7037183525,0,Safari,,38.852259,9.0106828
node/7037183527,0,Summit (MOHA),,38.8520658,9.0043876
node/7037183528,0,Saint Georgis,,38.8513132,8.9955228
node/7037183529,0,Tena Tabeya,,38.860685,8.9941038
node/7037183532,0,Gate 2,,38.8582866,8.9894728
node/7037183533,0,Summit Condominiums,,38.8544474,8.9846055
node/7037183535,0,Ayat Train Station,,38.8719812,9.0213287
node/7037183536,0,CMC,,38.872594,9.0211208
node/7037183537,0,Ayat Square,,38.8767684,9.0212396
node/7037183538,0,Feres Bet,,38.8862575,9.0216916
node/7037183539,0,Police Tabia,,38.8946069,9.0170704
node/7037183540,0,Tsebel,,38.891209,9.0222555
node/7037183541,0,Bono Meskid,,38.8902931,9.0219034
node/7037183542,0,Ayat Chefe Condominium,,38.8946677,9.0113906
node/7037183543,0,Ayat Chefe Condominium,,38.8944878,9.0109368
node/7037183545,0,Nebu Mikael,,38.8767662,9.0023517
node/7037183546,0,Ayat Adebabay Hulet (2),,38.8851706,8.9965746
node/7037183547,0,Bole Arabsa (3),,38.8855436,8.9963324
node/7037183548,0,Bole Arabsa (2),,38.8851362,8.9841602
node/7037183550,0,Bole Arabsa,,38.8902717,8.9733148
node/7037183552,0,Yeka Condominium 1,,38.877919,9.0354891
node/7037183554,0,Tafo Gebrael,,38.8777819,9.0381306
node/7037183555,0,Tafo Condominium 1,,38.8779667,9.0505157
node/7037183557,0,Tafo Mebrathail,,38.8773973,9.0425957
node/7037183558,0,Tafo Mebrathail,,38.877866,9.0427743
node/7037183559,0,Tafo Condominium 2,,38.8779122,9.0465834
node/7037183562,0,Kara Condominium,,38.8705589,9.0501511
node/7037183563,0,Yeka Abado,,38.8647703,9.0666282
node/7037183565,0,Sara Ampol (Gedera),,38.8737753,9.0571811
node/7037183567,0,Sara Ampol,,38.8742538,9.0580264
node/7037183569,0,Aba Kiros,,38.8812971,9.0606875
node/7037183570,0,Makefafeya,,38.8841651,9.0630654
node/7037183571,0,Gari Tera,,38.8892044,9.0670494
node/7037183572,0,CCD,,38.8938058,9.0707009
node/7037183573,0,140,,38.8952147,9.0718221
node/7037183574,0,Legedadi Mission,,38.9074861,9.0818058
node/7037183575,0,Legedadi Mission,,38.90832,9.0821737
node/7041052894,0,Selam Building,,38.7771574,8.8832831
node/7041052895,0,Gojo Hotel,,38.7768265,8.8910809
node/7041052896,0,Kality Meneharia,,38.7717989,8.8958584
node/7041052897,0,Cheralia Factory,,38.7668359,8.9029458
node/7041052898,0,Cheralia Factory,,38.7667452,8.9029223
node/7041052900,0,Kality Gebriel,,38.7638335,8.9113422
node/7041052901,0,Kality Prison,,38.7633399,8.912466
node/7041052912,0,Hana Maryam,,38.7416641,8.928137
node/7041052914,0,Tabelew,,38.6590102,8.9274906
node/7041052915,0,Ubedi Academy,,38.6548173,8.9244259
node/7041052916,0,Alem Gena,,38.6526472,8.9230001
node/7041052917,0,Alem Gena,,38.652656,8.9229882
node/7041052918,0,Mama,,38.6465912,8.9213858
node/7041052927,0,Mekanisa (Old Revenues Office),,38.73129,8.9683942
node/7041052928,0,German Square,,38.7327236,8.9656974
node/7041052932,0,Gebriel Bridge,,38.7324437,8.9556239
node/7041052934,0,Gebriel Bridge,,38.7327233,8.955596
node/7041052935,0,Mebrathile (EEPCo),,38.7339608,8.9469471
node/7041052936,0,Mekanisa School,,38.7341955,8.9790248
node/7041052937,0,Abo,,38.7339384,8.9785916
node/7041052938,0,Sheged Hotel,,38.7246092,8.973373
node/7041052939,0,Jemo Michael,,38.720836,8.9673959
node/7041052940,0,Jemo Michael,,38.7209392,8.966996
node/7041052942,0,Jemo YBP (All Mart),,38.7152564,8.9614893
node/7041052944,0,Jemmo 1,,38.7123763,8.9606358
node/7041052945,0,Jemmo 1,,38.7124284,8.9604074
node/7041052946,0,Mestawet Fabrica,,38.7084697,8.9595125
node/7041052948,0,Mestawet Fabrica,,38.7059934,8.958513
node/7041052949,0,Jemo 3,,38.6992718,8.9564
node/7041052950,0,Jemmo 3,,38.6985348,8.9556244
node/7041052951,0,Zenebework,,38.7077567,8.9866742
node/7041052952,0,Welete Maryam,,38.6713097,8.9611777
node/7041052953,0,Mickael Bridge,,38.7272059,8.9657858
node/7041052954,0,Gerar,,38.689429,8.9813447
node/7041052955,0,Repi (Gerar),,38.6851955,8.9794179
node/7041052957,0,Gebre Kirstos,,38.7220154,8.9773403
node/7041052958,0,Bisrate Gebrael,,38.7228933,8.9884304
node/7041052959,0,Gofa Gebriel (2),,38.7488548,8.9753751
node/7041052960,0,Gofa Gebriel,,38.7490217,8.9771139
node/7041052963,0,Bole Mickael,,38.7772221,8.9816131
node/7041052965,0,MOHA (Pepsi Factory),,38.7560783,8.9822682
node/7041052969,0,Gotera (Oilibiya),,38.7600125,8.9762662
node/7041052970,0,Gotera (Oilibiya),,38.7598239,8.976182
node/7041052975,0,St. Joseph Church,,38.7620577,8.9697308
node/7041052977,0,kadisco Building,,38.7627885,8.9659447
node/7041052978,0,kadisco Building,,38.762999,8.965927
node/7041052979,0,Kadisco,,38.7630788,8.9637596
node/7041052980,0,Adey Abeba,,38.7640609,8.9583017
node/7041052982,0,Adey Abeba,,38.7638459,8.9582595
node/7041071286,0,Saris (CBE),,38.7635583,8.9528662
node/7041071287,0,Saris (CBE/Shoa Bakery),,38.7633266,8.9527596
node/7041071289,0,Abo Junction,,38.7661044,8.9450003
node/7041071290,0,Abo Junction,,38.7663069,8.9450733
node/7041071291,0,Customs (Train Station),,38.763132,8.9380959
node/7041071295,0,Kality Maseltegna,,38.766627,8.9323275
node/7041071296,0,Wehalemat,,38.7681692,8.9298173
node/7041071342,0,Bulgaria Mazoria,,38.7478244,8.9950292
node/7041071344,0,Begtera,,38.7475059,8.9971703
node/7041071347,0,AU (Mikael) Rounrdabout,,38.7394459,8.9990638
node/7041071348,0,AU (Mikael) Rounrdabout,,38.7395945,8.9990569
node/7041071350,0,Bulgaria,,38.7478465,8.9937942
node/7041071352,0,Global Hotel,,38.7595772,8.9941475
node/7041071353,0,Global Hotel,,38.7598183,8.9941836
node/7041071354,0,Beklo Bet (Global),,38.7596352,8.9953383
node/7041071355,0,Tele Garage,,38.7584812,9.000141
node/7041071356,0,Riche,,38.7586986,9.0043253
node/7041071359,0,6th (Raddison Blu),,38.7669535,9.0166957
node/7041071360,0,Filweha (Hotsprings),,38.7572645,9.017718
node/7041071362,0,Filweha (Hotsprings),,38.7570579,9.0175554
node/7041071363,0,Ghion Hotel (Enterance),,38.7574492,9.0137609
node/7041071364,0,Ghion Hotel (Enterance),,38.7576145,9.0138328
node/7041071367,0,St. Joseph School,,38.7591876,9.0098008
node/7041071370,0,St. Joseph School,,38.7592761,9.0104995
node/7041071371,0,Admas University College,,38.7590434,9.0105316
node/7041071372,0,Lalibela Hotel,,38.7570112,9.0118612
node/7041071374,0,Stadium,,38.7560438,9.0121294
node/7041071376,0,Legehar,,38.7545386,9.011849
node/7041071377,0,Legehar,,38.7539285,9.0117857
node/7041071378,0,Legehar (Old Train Station),,38.7533069,9.0109604
node/7041071380,0,Mexico,,38.7461963,9.0097755
node/7041071382,0,African Union,,38.7414166,9.0031416
node/7041071383,0,Popolare,,38.7423863,9.0053059
node/7041071384,0,Guenet Hotel,,38.7466748,9.0046908
node/7041071385,0,Guenet Hotel,,38.74694,9.0032786
node/7041071388,0,Abenet,,38.7334947,9.0214263
node/7041071389,0,Lideta Condominium,,38.7345522,9.0132791
node/7041071390,0,Darmar,,38.7348248,9.0157856
node/7041071391,0,Coca Cola,,38.7294714,9.0159169
node/7041071392,0,Austria Embassy,,38.7278809,8.9939406
node/7041071393,0,Mechare Meda,,38.727499,8.9936591
node/7041071395,0,3 Kutir Mazoriya (Total),,38.7152417,8.9925902
node/7041071397,0,Minaye Building,,38.7184074,8.995414
node/7041071399,0,Old Airport (Mobil),,38.7191221,8.9998642
node/7041071400,0,Tor Hailoch,,38.7206897,9.0099949
node/7041071401,0,Keranio Mewcha,,38.7100309,9.0133411
node/7041071402,0,Holand,,38.7159484,9.0213057
node/7041071403,0,Meseret Edget,,38.714954,9.0245409
node/7041071404,0,Teklehaymanot,,38.7440603,9.0278226
node/7041071405,0,Kebele 11,,38.7458014,9.0247481
node/7041071406,0,Tewodros Square,,38.75166,9.0262634
node/7041071407,0,Tewodros Square,,38.7517909,9.0263826
node/7041071411,0,Black Lion,,38.7521859,9.0218352
node/7041071414,0,National Theatre,,38.751592,9.0158768
node/7041071415,0,National Theatre,,38.7513097,9.0156938
node/7041071416,0,A.A. Commercial College,,38.7494881,9.0139102
node/7041071418,0,A.A. Commercial College,,38.7495568,9.0138228
node/7041071419,0,Buna Ena Shay,,38.7490599,9.0114261
node/7041071420,0,Buna Ena Shay,,38.7479733,9.0105922
node/7041071423,0,Mexico Shebelle Hotel,,38.7468862,9.0119916
node/7041071425,0,TVET College (Tegbare'd),,38.7429038,9.0105894
node/7041071429,0,Federal Police (Tegbare'd),,38.7426638,9.0103865
node/7041071430,0,Lideta (Balcha Hospital),,38.738603,9.0109303
node/7041071431,0,Lideta (Balcha Hospital),,38.7385604,9.0111161
node/7041071432,0,Lideta Condominium,,38.7377815,9.011233
node/7041071433,0,Lideta Tsebel,,38.733822,9.0041706
node/7041071434,0,Dessie Hotel,,38.7338119,9.0093091
node/7041071435,0,High Court,,38.7342297,9.0108572
node/7041071437,0,Lideta High Court,,38.733431,9.0115829
node/7041071439,0,Hintsa College,,38.7293132,9.0121559
node/7041071441,0,Coca Cafe,,38.7292339,9.0119411
node/7041071444,0,Mekonenoch (Golf) Club,,38.7265458,9.011282
node/7041071446,0,Tor Hailoch Junction,,38.7220202,9.0115616
node/7041071447,0,Torhailoch,,38.7216866,9.0119442
node/7041071448,0,Tor Hailoch,,38.7206478,9.0139112
node/7041071449,0,Tor Hailoch,,38.7209168,9.013939
node/7041071450,0,Keranio Bridge,,38.7089411,9.0194506
node/7041071451,0,Medhanialem,,38.7049748,9.0175679
node/7041071452,0,Keranio Adebabay,,38.7006446,9.0176634
node/7041071453,0,Kokebe,,38.6994971,9.0180779
node/7041071454,0,Yeshi Debele,,38.6954056,9.0195382
node/7041071455,0,Yeshi Debele,,38.6957701,9.0190748
node/7041071456,0,Mariam,,38.6884518,9.0231539
node/7041071458,0,Anfo Meda,,38.6742682,9.021983
node/7041071459,0,St. Urael Church,,38.7752596,9.0110433
node/7041071461,0,Salcost Apartments (NOC),,38.766397,9.0104908
node/7041071462,0,St. Estifanos Church,,38.7626376,9.0118738
node/7041071464,0,St. Gebriel,,38.7675809,9.0199107
node/7041071465,0,Zenebewerk Hotel,,38.7680315,9.0193852
node/7041071466,0,Meles Zenawi Foundation,,38.7715231,9.0206693
node/7041071468,0,Azmari Bet (Traditional Music Club),,38.770643,9.0194316
node/7041071469,0,Kazanchis (6th),,38.7702335,9.0166401
node/7041071471,0,Hilton Hotel (Apartments),,38.7638714,9.0196382
node/7041071473,0,Women Square,,38.7772342,9.0233468
node/7041071474,0,Women Square,,38.7771738,9.0234508
node/7041071475,0,Aware Bridge,,38.7765755,9.0244322
node/7041071479,0,Arat Kilo,,38.7633615,9.0319312
node/7041071480,0,Arat Kilo,,38.7652099,9.0321438
node/7041071481,0,Bel Air,,38.7728461,9.032458
node/7041071482,0,Addis View Hotel,,38.7730493,9.0324918
node/7041071483,0,Menelik II Hospital,,38.7730556,9.0385857
node/7041071484,0,Menlik Hospital,,38.7719268,9.0388201
node/7041071579,0,Piassa Arada,,38.7522029,9.0365871
node/7041071580,0,Piassa Arada,,38.7524445,9.0363947
node/7041071592,0,Piassa Arada,,38.7523326,9.0354239
node/7041071594,0,Habtegiorgis Bridge,,38.7491242,9.0352553
node/7041071595,0,Kurtu Building,,38.7438917,9.0343899
node/7041071596,0,Kurtu Building,,38.7437548,9.0341887
node/7041071597,0,Pharmacy,,38.7434135,9.0343321
node/7041071598,0,Gojam Berenda,,38.737968,9.0343947
node/7041071599,0,Autobis Tera (3),,38.7337775,9.0342308
node/7041071600,0,Autobus Tera,,38.7298446,9.03371
node/7041071601,0,Darsema Grosery,,38.7294433,9.0338533
node/7041071604,0,Girum Hospital,,38.7200106,9.04636
node/7041071605,0,Woreda 7 TVET,,38.7212396,9.0407262
node/7041071606,0,Sefere Salam,,38.7219216,9.0366318
node/7041071607,0,Kolfe,,38.7173824,9.037044
node/7041071608,0,Abysinia Coffee,,38.7164487,9.0373422
node/7041071609,0,Degu Hotel,,38.7151531,9.0338162
node/7041071610,0,18 Mazoria,,38.7130781,9.0335338
node/7041071612,0,18 Mazoria,,38.7135105,9.0335825
node/7041071614,0,Luwkanda,,38.7093322,9.0333303
node/7041071615,0,Kolfe Secondary School,,38.704541,9.0340139
node/7041071616,0,Realstate,,38.6951186,9.0327975
node/7041071619,0,Police Tabiya,,38.6888917,9.034058
node/7041071620,0,Feli Doro (1),,38.6875252,9.0342811
node/7041071622,0,Feli Doro,,38.6853297,9.0353789
node/7041071628,0,Ras Mekonene Bridge (Seba Dereja),,38.7568178,9.0389362
node/7041071629,0,5 Kilo (History Museum),,38.7625491,9.0385989
node/7041071630,0,5 Kilo University,,38.761951,9.0408311
node/7041071633,0,Lion Zoo (PEPSI Kiosk),,38.7615693,9.0427151
node/7041071636,0,Yekatit 12 Hospital,,38.7603878,9.0438891
node/7041071637,0,Yeatit 12 Hospital,,38.7593176,9.0436921
node/7041071638,0,Red-Cross (St. George Total),,38.7527639,9.0386136
node/7041071639,0,St. George Church (Total),,38.7517494,9.0386684
node/7041071640,0,Semen Hotel,,38.7488778,9.0436522
node/7041071641,0,Semen Hotel,,38.7482928,9.0446929
node/7041071642,0,Kelemwerk,,38.7461719,9.0486023
node/7041071643,0,Kelemwerk,,38.7458026,9.0488673
node/7041071645,0,Tibeb Ediget School,,38.7443439,9.0512494
node/7041071646,0,Semen Mazegaga,,38.7433813,9.0523631
node/7041071647,0,Semen Mazagaja,,38.7424925,9.0537306
node/7041071648,0,Shegole Bank,,38.7200104,9.0541015
node/7041071649,0,Pawlos Hospital,,38.7277601,9.0474202
node/7041071650,0,Finance,,38.7221677,9.0514832
node/7041071651,0,Medhanialem (TOTAL),,38.7220512,9.0513651
node/7041071653,0,Finance,,38.7201878,9.0528369
node/7041071654,0,Finance,,38.7199027,9.0531245
node/7041071655,0,Winget Chaf,,38.7149847,9.0544244
node/7041071657,0,4 Menta Adebabay,,38.7088754,9.0520588
node/7041071658,0,Mikili Land,,38.6987792,9.051327
node/7041071659,0,Winget Adebabay,,38.7137033,9.0571703
node/7041071660,0,Awolia,,38.7116367,9.0576087
node/7041071661,0,Gulele Fana,,38.7067279,9.0577975
node/7041071662,0,Gulele Fana,,38.7065488,9.0582376
node/7041071663,0,Berchiko,,38.7034077,9.0593548
node/7041071665,0,Gebriel (Sansusi),,38.69045,9.0665816
node/7041071718,0,Bono Weha,,38.7791204,9.057952
node/7041071719,0,Mezan,,38.7722233,9.053538
node/7041071721,0,3rd Shaleka,,38.7690705,9.0470252
node/7041071723,0,6 Kilo (University),,38.7615547,9.0461753
node/7041071725,0,Meksaye Hizunan Medhanialem,,38.7622054,9.0513004
node/7041071726,0,Teferi Mekonen,,38.7622236,9.052326
node/7041071729,0,Sebseba Maekel,,38.7625698,9.0541533
node/7041071737,0,Eyesus,,38.7715088,9.0649811
node/7041071738,0,Hamle 19,,38.7680987,9.0585516
node/7041071740,0,Selassie,,38.7607205,9.0692162
node/7041071741,0,Sanba Nekersa-Shiromeda,,38.7590628,9.0745256
node/7041071742,0,Kuskoam,,38.7572536,9.0777328
node/7041071749,0,Dil Ber,,38.7374397,9.0710894
node/7041071753,0,Anbessa Garage (Shegole),,38.7204079,9.0638294
node/7041071754,0,Kebt Beret,,38.7182194,9.0691617
node/7041071755,0,Entoto Kela,,38.7230011,9.0843712
node/7041071758,0,Weserbi Realestate,,38.7095299,9.1051152
node/7041071759,0,Classy Water,,38.7147037,9.1095355
node/7041071760,0,Medret Hotel,,38.7158285,9.1100449
node/7041071761,0,Kburea,,38.7300979,9.1176074
node/7041071762,0,Kenenisa,,38.7304557,9.1179357
node/7041071763,0,Shefunea,,38.7395293,9.1273122
node/7041071764,0,Shefine,,38.7397834,9.1277902
node/7041071772,0,Doro Erbata,,38.7522344,9.1339361
node/7041071773,0,Abo Gabriel,,38.7524529,9.1341343
node/7041071774,0,Tulu Fati,,38.7549356,9.1408321
node/7041071775,0,Ashewa,,38.7538733,9.1449015
node/7041071776,0,Tabya Hotel,,38.7542489,9.1560016
node/7047495429,0,Sar Bet (Roundabout),,38.738359,8.9929589
node/7047495432,0,United Bank (Ashewa Meda),,38.6600221,9.0286142
node/7047495433,0,Sefera,,38.7346499,8.9208064
node/7049122264,0,Lafto,,38.744323,8.9473774
node/7049122265,0,Hana Mariam (2),,38.7440895,8.935835
node/7049122266,0,Haile Garment,,38.7345586,8.9387647
node/7049921444,0,Yekiber Demena Church,,38.8779866,9.0304285
node/7049921445,0,Megenagna Terminal,,38.8024339,9.0204726
node/7049921447,0,Hill Bottom (Recreation),,38.8759579,9.0220882
node/7049921448,0,Zone 8,,38.8775474,9.0304125
node/7049921449,0,Aba Kiros (Tafo) Roundabout,,38.8779122,9.0570656
node/7050234123,0,Tafo Junction,,38.8790275,9.0566049
node/7050327664,0,Megenagna Terminal,,38.8021323,9.020626
node/7054842410,0,6 Kilo,,38.7617178,9.0476858
node/7054842414,0,6 Kilo,,38.7617169,9.0476498
node/7055060064,0,Legehar (Old Train Station),,38.7532161,9.0106346
node/7055598734,0,Kotebe Gebriel,,38.8546711,9.0359897
node/7055598736,0,Ahmed Building,,38.8299268,9.0269686
node/7055598738,0,St. Mary Church,,38.7579049,9.0363488
node/7055598739,0,Piassa Arada,,38.7535483,9.0335541
node/7055598742,0,Piassa Arada,,38.7534018,9.0327818
node/7055598743,0,St. Mary Church,,38.7579442,9.0363807
node/7055598744,0,NOC End,,38.8307544,9.0274541
node/7056754511,0,Kotebe Teachers College,,38.8467717,9.0341209
node/7056754514,0,Meskelegna (Ababdo),,38.8732637,9.0630764
node/7056754516,0,Megenagna,,38.8022361,9.020907
node/7057002158,0,Atlas,,38.779674,9.0041945
node/7057002161,0,Piassa Arada,,38.7528717,9.0329242
node/7057002162,0,Ras Mekonene Bridge (Seba Dereja),,38.7568279,9.0389386
node/7057187392,0,Brass Clinic (Bole),,38.7929906,8.9904207
node/7057187393,0,Brass Clinic (Bole),,38.7932003,8.9903142
node/7062689844,0,St.Gorgis,,38.7519784,9.0379471
node/7062689845,0,St. George Church (2),,38.751629,9.0358742
node/7062689848,0,Piassa,,38.7549398,9.0345896
node/7062689850,0,Arat Kilo,,38.764362,9.0325203
node/7062689851,0,4 Kilo,,38.7630946,9.0344021
node/7062689852,0,Medhanialem,,38.7621098,9.0506154
node/7062689854,0,Education Bureau (6 Kilo),,38.7635923,9.044142
node/7062689855,0,Jan Meda,,38.7690204,9.0471236
node/7062689856,0,Frensaye Kela,,38.7742742,9.0557922
node/7062689857,0,Frensaye Kela,,38.7736282,9.0551762
node/7062689858,0,Abo Mazoriya,,38.7777387,9.0569998
node/7062689859,0,Gurara,,38.7881845,9.0623294
node/7067942461,0,Mamo (NFSL TVET),,38.7608987,8.9730894
node/7067942462,0,Agona Cinema,,38.7595747,8.988213
node/7067942463,0,Agona Cinema,,38.7597959,8.9882665
node/7067942465,0,Tele Garage,,38.7587377,9.0004682
node/7067942466,0,Meshualekia,,38.7589773,9.0057314
node/7067990019,0,Zerihun Building,,38.7824519,9.0145395
node/7067990020,0,6th (Raddison Blu),,38.7669539,9.0166971
node/7070861695,0,National Palace,,38.7621198,9.0264536
node/7070861696,0,SNAP Building,,38.7872174,8.9897614
node/7070861697,0,Friendship,,38.7844888,8.9908557
node/7070861698,0,Heber Restaurant,,38.7822311,8.9917592
node/7070861699,0,RWANDA (Werbek House),,38.7791533,8.992295
node/7070861700,0,Wollo Sefer,,38.7740953,8.9946542
node/7070861701,0,Rwanda,,38.7798477,8.9924
node/7070861702,0,Bole Printing Press,,38.7723732,8.9966227
node/7070861703,0,Bole Printing Press,,38.7715908,8.9976714
node/7070861704,0,Mega Printing Press,,38.7708659,8.9993469
node/7070861705,0,Shewa Dabo,,38.7697078,9.001132
node/7070861706,0,Getu Commercial Center,,38.7697673,9.0014126
node/7070861707,0,Dembel City Center,,38.7678519,9.004953
node/7070861710,0,Flamingo,,38.7634195,9.0100482
node/7070861712,0,Piassa Arada,,38.7528459,9.0358386
node/7070861713,0,Anbessa Garage,,38.8054033,9.0074376
node/7070861714,0,Ayat Roundabout,,38.876525,9.0221276
node/7070861716,0,Gebriel,,38.8777949,9.0401288
node/7074233342,0,Semen Mazegaja | ሰሜን ማዘጋጃ,,38.7433527,9.0527134
node/7074233343,0,Del Ber School,,38.7411604,9.0559007
node/7074233344,0,Adisu Gebeya,,38.7379037,9.0592088
node/7074233345,0,Kelebat,,38.7355505,9.061605
node/7074233346,0,Oilibiya (Dil Ber),,38.7347909,9.0679367
node/7074267433,0,Pastor,,38.7301845,9.0463006
node/7074267434,0,Medhanialem,,38.7228618,9.051161
node/7074267435,0,Winget,,38.7138884,9.0554455
node/7074269464,0,Kela,,38.6101592,9.0576131
node/7074269465,0,Kela,,38.6101611,9.0576152
node/7074275407,0,Semen Hotel,,38.7481339,9.0452427
node/7074294627,0,Kera,,38.7484333,8.9866969
node/7074299254,0,Asko,,38.6922669,9.0653014
node/7074324043,0,Sebategna,,38.733098,9.0286512
node/7074324044,0,Autobis Tera (2),,38.7324012,9.0317912
node/7074324045,0,Autobis Tera,,38.7321005,9.0347276
node/7074326525,0,Mekanisa,,38.7315967,8.9733512
node/7074326526,0,Abo Mazoria,,38.7343058,8.9822244
node/7074330387,0,Gate 2,,38.8580841,8.9894962
node/7074330389,0,Tena Tabeya,,38.8605382,8.9942098
node/7074330391,0,Condminium (Gate),,38.8602323,8.9984544
node/7074330392,0,Gomista,,38.8573283,9.0014062
node/7074330394,0,Summit (MOHA),,38.8517162,9.0040839
node/7074330397,0,Safari,,38.8518265,9.0106601
node/7074330400,0,Alemayehu,,38.820944,8.999474
node/7074330401,0,Alemayehu,,38.8196821,9.0005663
node/7074330403,0,Condominium,,38.8095474,9.0050845
node/7074330407,0,Ethio-china,,38.8287819,9.026612
node/7074330409,0,Kara,,38.8643277,9.0403987
node/7074332290,0,Project 15,,38.8850641,8.9654679
node/7074332294,0,Kela,,38.8845811,8.9772657
node/7074347184,0,Chereta,,38.7010211,9.0616842
node/7074353066,0,Gerar,,38.6894082,8.9813585
node/7074374410,0,Jemo 3,,38.6959643,8.9538291
node/7074374411,0,Furi,,38.6921288,8.951847
node/7074387585,0,Sansusi,,38.6891023,9.0714186
node/7074496216,0,Kersa (2),,38.6722328,9.0285405
node/7074496217,0,Ashewa Meda,,38.6653802,9.0326531
node/7074496218,0,Ashewa Meda,,38.6653823,9.0326414
node/7074496219,0,United Bank (Ashewa Meda),,38.6569665,9.0258997
node/7074496221,0,St. Gebriel,,38.6515848,9.027689
node/7074496222,0,St. Gebriel,,38.6515743,9.0276843
node/7074496225,0,Gojo,,38.6216778,9.0417975
node/7074504387,0,Alem Bank,,38.6776598,9.0010346
node/7074504388,0,Ayer Tena,,38.6982193,8.9831093
node/7074504390,0,Bethel,,38.6944335,9.0045877
node/7074504391,0,Mewcha,,38.7053132,9.0139079
node/7074504392,0,Mendida,,38.7004735,9.0149626
node/7074525370,0,Mebrat Nigist Hotel,,38.7486994,8.9700751
node/7074541084,0,Lideta Kefetega Firdbet,,38.7326808,9.0116457
node/7074561389,0,Sefera Square,,38.7341804,8.9249315
node/7074561391,0,Haile Garment,,38.7363202,8.9368661
node/7074561392,0,Mebrathile (EEPCo),,38.7334502,8.9493593
node/7074561393,0,Hana Mariam,,38.7544146,8.9309368
node/7074561394,0,Hana Mariam (2),,38.7444615,8.9361698
node/7074561395,0,Meskelgna,,38.7448233,8.95299
node/7074585943,0,Piassa Arada,,38.7514315,9.0357438
node/7074585944,0,Arat Kilo,,38.7633143,9.0324015
node/7074599697,0,Beklo Bet (Global),,38.759835,8.9953761
node/7074691520,0,Dembel City Center,,38.7672511,9.0055741
node/7074707878,0,Mexico,,38.7471393,9.010735
node/7074707880,0,ERA Office (Big Mak),,38.7478601,9.0127963
node/7074707881,0,Saint Josphe School,,38.7591385,9.0092034
node/7074707883,0,St. Estifanos Church,,38.7628296,9.0124825
node/7074819178,0,Mamo (NFSL TVET),,38.7607684,8.9725713
node/7074841187,0,Kadisco,,38.7585063,8.9310399
node/7074841188,0,Kality Maseltegna,,38.7643672,8.9339802
node/7074921333,0,Teklehaimanot,,38.7442895,9.0291868
node/7074921334,0,Berbere Tera,,38.7406481,9.0266712
node/7075101457,0,Dildiy Mariam,,38.7498569,8.9585362
node/7075101459,0,Kera (Gofa Stop),,38.7497528,8.9837158
node/7075129253,0,Tor Hailoch,,38.7208842,9.009717
node/7075129254,0,Torhayloch,,38.7207996,9.0117428
node/7075129255,0,Tor Hailoch,,38.7222467,9.0117788
node/7076294502,0,Riche,,38.7588986,9.0043941
node/7076294503,0,Mebrat Condominium,,38.7438551,8.9645236
node/7076294504,0,Kadisco,,38.7633289,8.9638868
node/7076294505,0,Flamingo,,38.7646677,9.0089349
node/7076294507,0,Condminium (Gate),,38.8601035,8.9984013
node/7076294508,0,Sara Ampol (Gedera),,38.8738883,9.0571285
node/7076294509,0,Michael (2),,38.7325725,9.0418835
node/7076294510,0,Shero Meda,,38.7612538,9.0622823
node/7076294511,0,Shero Meda,,38.7613619,9.0618175
node/7076294512,0,Dil Ber,,38.7369836,9.0716602
node/7076294515,0,Shiromeda Selassie,,38.7607132,9.0692159
node/7076294516,0,Shero Meda,,38.7613887,9.0618235
node/7076310930,0,6 Kilo (Akim Genbata),,38.7612093,9.0447597
node/7076310931,0,Shero Meda,,38.7612397,9.0626379
node/7077424942,0,Medhanialem,,38.7619991,9.0507372
node/7077601626,0,Ambassador,,38.7551039,9.0163885
node/7077785205,0,Lamberet,,38.8139111,9.0216085
node/7077785206,0,Kara Condominium,,38.8692642,9.0479009
node/7077785207,0,G-7 (Meskelegna),,38.8676583,9.0655587
node/7077785209,0,Kara Condominium,,38.8695121,9.0480304
node/7077863009,0,Autobis Tera (2),,38.7325536,9.031811
node/7077863010,0,Tropical,,38.6833448,8.9960545
node/7077863012,0,Alem Bank,,38.6779208,9.0003767
node/7077863014,0,Tropical,,38.6830207,8.9965876
node/7077863015,0,Kidane Mihret,,38.6892387,8.9923549
node/7077863016,0,Bethel,,38.6941906,9.004479
node/7077863017,0,Mendida,,38.7004836,9.0151128
node/7077863018,0,Abinet,,38.7327417,9.019638
node/7077863019,0,Sebategna,,38.7329768,9.0280905
node/7078164250,0,Mexico,,38.7440208,9.0088714
node/7078164251,0,Haile Garment,,38.7349155,8.9381825
node/7078164254,0,Mekanisa,,38.7311018,8.9729343
node/7078164255,0,Abo Mazoria,,38.7345326,8.9820586
node/7078164256,0,Mexico,,38.7437936,9.0088201
node/7078406225,0,Autobis Tera (1),,38.7323925,9.0330269
node/7078406227,0,Zenebework,,38.7090191,8.9876369
node/7078406228,0,Ayer Tena,,38.6949214,8.9822919
node/7078406231,0,Kara Kore,,38.6817556,8.9755975
node/7078406235,0,Kara Kore,,38.6823873,8.9763865
node/7078406236,0,Ayer Tena (Gerar-Repi),,38.6939258,8.9822452
node/7078406237,0,Repi (Gerar),,38.6853377,8.9795411
node/7078406238,0,Zenebework (Crossing),,38.7051886,8.9852814
node/7078406239,0,3 Kutir Mazoriya (Total),,38.715946,8.992776
node/7078406240,0,Autobis Tera (1),,38.7322299,9.0330007
node/7080251773,0,Condominium,,38.8100534,9.0049451
node/7080251774,0,Goro School,,38.8268744,8.993889
node/7080251776,0,Anbessa Garage,,38.8056204,9.0071789
node/7080440194,0,Estifanos,,38.76366,9.0110028
node/7080440195,0,BAMBIS,,38.7690578,9.0104866
node/7080440196,0,St. Urael Church,,38.7752996,9.0115088
node/7080440197,0,Lex Plaza,,38.7823039,9.0147285
node/7080440198,0,22 (Haya Hulet),,38.7896417,9.0164226
node/7080440200,0,Megenagna,,38.8004816,9.0194097
node/7080440203,0,Megenagna,,38.8005914,9.019032
node/7080440204,0,Lem Hotel,,38.7955696,9.0177169
node/7080440205,0,22 (Haya Hulet),,38.7896635,9.0162149
node/7080440206,0,BAMBIS,,38.7694936,9.0102033
node/7080440208,0,Mexico,,38.7467585,9.0104304
node/7080527282,0,Mexico,,38.7462899,9.0098462
node/7080527284,0,Kera,,38.7487773,8.9863213
node/7080611085,0,Mebrat,,38.7487535,8.96688
node/7080611091,0,Mexico Shebelle Hotel,,38.746773,9.0120423
node/7080893992,0,Michael,,38.7322629,9.0412736
node/7080893993,0,Autobis Tera,,38.732023,9.034717
node/7080893994,0,Pastor,,38.7306587,9.0460782
node/7080893995,0,Winget,,38.713458,9.0560646
node/7080893996,0,Chereta,,38.7009781,9.0613645
node/7080894001,0,Sansusi,,38.6891732,9.0715888
node/7081034796,0,5 Kilo (History Museum),,38.7624277,9.0385658
node/7081034797,0,Abo Mazoriya,,38.7785478,9.0574672
node/7081034799,0,Education Bureau (6 Kilo),,38.7640045,9.0441923
node/7084255331,0,Total (Dil Ber),,38.732915,9.0648091
node/7084255333,0,Piassa Arada,,38.7533521,9.0341775
node/7084255334,0,Addisu Gebeya,,38.7374497,9.0594855
node/7084255335,0,Tsion Cafe (Addisu Gebeya),,38.733166,9.0638908
node/7084255336,0,Total (Dil Ber),,38.7327389,9.0653883
node/7084722454,0,Ummar School,,38.7405402,9.0337517
node/7084722456,0,Autobis Tera (3),,38.7337992,9.0341036
node/7084722457,0,Gojam Berenda (Tefera Buillding),,38.7418327,9.0341305
node/7084722458,0,Dej. Wube (Ras Abebe School),,38.7533374,9.0404538
node/7084722459,0,Wube Bereha,,38.7544994,9.0440672
node/7084722460,0,Menen,,38.7588473,9.0515491
node/7084722461,0,Tsehay Chora (ShiroMeda),,38.7598297,9.0584002
node/7084873006,0,Sebategna (Taem Bakery),,38.7332661,9.0274958
node/7084873007,0,Mola Maru (Jos Hansen),,38.7380924,9.0188835
node/7084873008,0,Geja Sefer (Darmar),,38.7382054,9.0167149
node/7084873009,0,Kera (Green Market),,38.7486804,8.9856954
node/7084873010,0,Kera (Mexico Stop),,38.7518917,8.9841757
node/7084873011,0,MOHA (Pepsi Factory),,38.7560749,8.9824212
node/7084873012,0,Saris (Shoa Bakery),,38.7635412,8.9547202
node/7084873013,0,Kera (Saris Stop),,38.7509324,8.9844206
node/7084873014,0,Guenet Hotel (Orbis),,38.7469466,9.002055
node/7084873015,0,St. Lideta Church,,38.736541,9.0111972
node/7084873016,0,Abenet (Joshansen),,38.733649,9.0192478
node/7084932737,0,Canada Embassy,,38.7373207,8.9951157
node/7084932738,0,Mechare Meda,,38.7311778,8.9973163
node/7084932739,0,Bisrate Gebrael,,38.7239615,8.9892732
node/7084932740,0,Zenebework (Crossing),,38.705264,8.9850622
node/7084932741,0,Ayer Tena,,38.6961239,8.9838449
node/7084932742,0,Kidane Mihret (Roundabout),,38.6887357,8.9917639
node/7084932743,0,Kidane Mihret (2),,38.690106,8.9910254
node/7084932745,0,Augusta Bridge (Tor Hailoch),,38.7185689,9.0056187
node/7084932747,0,Mexico,,38.7445753,9.0114539
node/7098810331,0,Goro Roundabout,,38.8285018,8.9839859
node/7098810332,0,Kotebe Shet',,38.8370059,8.9678887
node/7098810333,0,Bole Lemi,,38.8352869,8.9585287
node/7098810334,0,Endorro 2,,38.8219339,8.9405669
node/7098810335,0,Kilinto Right (Heniken),,38.8152364,8.9007946
node/7098810336,0,Koye Feche 4,,38.8240221,8.8947925
node/7098810337,0,Koye Feche 3,,38.8277372,8.8925887
node/7098810338,0,Koye Feche 2,,38.8313712,8.896302
node/7098810339,0,Koye Feche,,38.8270083,8.9045894
node/7098810340,0,Goro Roundabout,,38.8289328,8.9837967
node/7098810341,0,Kotebe Shet',,38.8374461,8.9678046
node/7098810342,0,Bole Lemi,,38.8354629,8.9573187
node/7098810343,0,Endorro 2,,38.8217947,8.9393928
node/7098810344,0,Endorro 1,,38.820007,8.9307029
node/7098810345,0,kilinto (Heniken Brewery),,38.8155747,8.9005132
node/7098833728,0,Gurd-shola,,38.8196082,9.0192718
node/7098833729,0,Civil Service College,,38.8331381,9.021924
node/7098833730,0,St. Michael,,38.8400876,9.021617
node/7098833731,0,Sunshine Apartments,,38.8524287,9.0193173
node/7098833732,0,Gomista,,38.8575794,9.0019915
node/7098833735,0,Hasset Photo,,38.8588022,8.9918735
node/7098833736,0,Sunshine Apartments,,38.8521013,9.0190988
node/7098833737,0,CMC (Apartments),,38.8504565,9.0208488
node/7098833738,0,St. Michael,,38.8401568,9.0213567
node/7102193971,0,Merkato,,38.7312293,9.0337594
node/7102193972,0,Mesalemia (Area Police),,38.7254909,9.0338552
node/7102193973,0,Luwkanda,,38.7086533,9.0332635
node/7102193974,0,Comprensive,,38.7049566,9.0338494
node/7102193975,0,Gefersa,,38.642409,9.031909
node/7102193976,0,Gojo (Kela),,38.6117467,9.0563274
node/7102193977,0,Gojo (Kela),,38.6120244,9.0560454
node/7102193978,0,Gefersa (2),,38.6265192,9.0375371
node/7102193979,0,Gefersa,,38.6329501,9.0356795
node/7102193980,0,Ashewa Meda (1),,38.6674596,9.0328635
node/7102193981,0,Kersa (1),,38.6760437,9.0286003
node/7102193982,0,Feli Doro (2),,38.687173,9.0343761
node/7102193983,0,Mesalemia,,38.7244946,9.0344498
node/7102269985,0,Merkato,,38.7312074,9.0338637
node/7103202615,0,Ayer Tena,,38.6977085,8.9821491
node/7103202616,0,German Bridge,,38.7316085,8.9647174
node/7103202617,0,Mebrathile (EEPCo),,38.7342372,8.9470109
node/7103202619,0,Saris Abo,,38.7692016,8.9444277
node/7103202620,0,Saris Abo,,38.7666082,8.944353
node/7103202621,0,Kality Maseltegna,,38.7645892,8.9336411
node/7103202622,0,Hana Mariam (Bridge),,38.7550031,8.930547
node/7103202623,0,Mickael Bridge,,38.72738,8.9653607
node/7103202625,0,Ayer Tena,,38.6976219,8.9820533
node/7104888674,0,Bel Air,,38.7729637,9.0323651
node/7105158906,0,CMC (Apartments),,38.8506098,9.0211237
node/7105158907,0,Tafo Condominium 2,,38.8774831,9.0462589
node/7105158908,0,Tafo Condominium 1,,38.8775457,9.0502639
node/7105268824,0,Mebrat (Lafto),,38.7490031,8.9593839
node/7105268825,0,Dildiy Mariam,,38.7497551,8.9587047
node/7105268826,0,Lafto (Mickael),,38.7504407,8.9537745
node/7105268828,0,Lafto,,38.7493803,8.9465504
node/7105268830,0,Lafto (Primary School),,38.7450783,8.9558865
node/7105398617,0,Post Office (Ambassador),,38.7534558,9.0185243
node/7105398618,0,6 Kilo,,38.761425,9.0462
node/7105398619,0,Teferi Mekonen,,38.7623138,9.0522977
node/7105584907,0,Marathon Motor (Megenagna),,38.7999868,9.022269
node/7105584908,0,Arat Kilo,,38.762507,9.0332665
node/7105584909,0,Piassa Arada,,38.7532588,9.0341288
node/7105584911,0,Arat Kilo,,38.7625094,9.0332715
node/7105584912,0,Abebe Sook,,38.7888307,9.0289345
node/7105840324,0,Abune Petros,,38.7492708,9.0358919
node/7105840325,0,Yohannes,,38.745898,9.0424895
node/7105840326,0,Arbegnoch Primary School,,38.7421685,9.0472271
node/7105840327,0,Enqulal Fabrica,,38.7376837,9.0485317
node/7105840330,0,Yohannes,,38.7450108,9.0434044
node/7105840331,0,Enqulal Fabrica,,38.7373533,9.0481067
node/7107670562,0,Sefera,,38.7350358,8.9209077
node/7107670563,0,Mebrathile (EEPCo),,38.7332384,8.94963
node/7107670564,0,Mekanisa Abo,,38.7341183,8.9829863
node/7107789218,0,Jemmo 2,,38.6879228,8.9606298
node/7107789219,0,Piassa (Downtown Cafe),,38.7511477,9.0319297
node/7107789220,0,Jemmo 2,,38.6878636,8.9605732
node/7108224469,0,Kera,,38.7483037,8.9860956
node/7110438104,0,6th (Raddison Blu),,38.7675202,9.0166264
node/7110438105,0,Kazanchis (6th),,38.7701955,9.0171928
node/7110438106,0,Aware Roundabout,,38.7758778,9.0231177
node/7110438107,0,Signal,,38.7815333,9.0234853
node/7110438108,0,Dinberwa Hospital,,38.7867845,9.0221973
node/7110438109,0,Lem Hotel,,38.7940254,9.0212061
node/7110438110,0,Lamberet (Queens),,38.8157252,9.022362
node/7110438111,0,Kotebe 01,,38.8281186,9.0348925
node/7110438113,0,Kotebe 01,,38.8281855,9.0349074
node/7110438114,0,Shola (United Bank),,38.7948696,9.0217059
node/7110438115,0,Sumeya Mosque,,38.792498,9.021194
node/7110438116,0,Signal,,38.7815645,9.023369
node/7110725239,0,Kality Gebriel,,38.7640618,8.9104302
node/7110725240,0,Addis Sefer (Overpass),,38.7673729,8.9572931
node/7110725241,0,Bole Mickael (2),,38.7723221,8.9799499
node/7110725242,0,Bole Bridge,,38.7903601,8.9867261
node/7110725243,0,MOENCO,,38.7957512,8.9948785
node/7110725244,0,Sport Academy,,38.7988652,9.0009401
node/7110725245,0,Anbessa Garage,,38.8030776,9.0077883
node/7110725247,0,Anbessa Garage,,38.8032793,9.0076034
node/7110725248,0,Emperial Hotel,,38.8009424,9.0037859
node/7110725250,0,Bole (Bora Amusement),,38.7947105,8.9910225
node/7110725251,0,Bole Mickael (2),,38.7721474,8.9795995
node/7110725252,0,Addis Sefer,,38.7676814,8.9603711
node/7110725253,0,Saris Abo,,38.7692206,8.945759
node/7110725254,0,Kality (Correctional Facility),,38.7648588,8.9234126
node/7110725256,0,Kality Meneharia,,38.7718808,8.8959395
node/7111821010,0,Arat Kilo,,38.7588358,9.0354591
node/7111821011,0,Piassa (EPPCO),,38.7538404,9.0325113
node/7111821013,0,Autobis Tera,,38.7374552,9.0317457
node/7111821015,0,Autobis Tera,,38.7372851,9.0302352
node/7111821016,0,Dinberwa Hospital (1),,38.7887833,9.0216842
node/7112123457,0,Chid Tera,,38.721592,9.0374493
node/7112123458,0,Mebrathail,,38.7149359,9.0294949
node/7112123459,0,Kolfe Keranyo,,38.7177803,9.0173854
node/7112123460,0,Keranio Bridge,,38.708993,9.0193846
node/7112123462,0,Kolfe Keranyo,,38.7176821,9.0170237
node/7112123463,0,Abysinia Coffee,,38.7163686,9.0370321
node/7112123464,0,Chid Tera,,38.7208971,9.0376714
node/7112215078,0,Old Airport (Mobil),,38.7188624,8.9998854
node/7112215079,0,Minaye (Shoa Supermarket),,38.7196192,9.008471
node/7112215080,0,Holand,,38.7158287,9.0208524
node/7112215081,0,18 Mazoria (Atena Tera),,38.7141478,9.0361682
node/7112215082,0,Atena Tera,,38.7125982,9.0409736
node/7112215083,0,Winget TVET,,38.7116581,9.0491202
node/7112215084,0,Winget,,38.7124575,9.0555289
node/7112280388,0,Winget,,38.7127274,9.0554541
node/7112280389,0,Winget TVET,,38.7117843,9.0494004
node/7112280390,0,kolfe (Atena Tera),,38.7122352,9.0448145
node/7112280391,0,Atena Tera,,38.712721,9.0414434
node/7112280392,0,18 Mazoria (Atena Tera),,38.7143961,9.0362317
node/7112280393,0,Meseret Edget,,38.7152453,9.0244809
node/7112280394,0,Augusta Bridge (Tor Hailoch),,38.7188519,9.0056155
node/7112648156,0,Mahiber Betoch,,38.8146269,8.8596281
node/7112648157,0,Project 12 Akababi,,38.8210444,8.865212
node/7112648158,0,G7 (Tulu Dimtu),,38.8204129,8.8701237
node/7112648159,0,Belay Ab Moters,,38.7965426,8.871336
node/7112648160,0,Gelan Condominium,,38.779459,8.8797273
node/7112648161,0,Kality Total,,38.7728422,8.894811
node/7112648162,0,Akaki Subcity Office (Menaheria),,38.770309,8.8973286
node/7112648163,0,Kality (Correctional Facility),,38.7641522,8.9224149
node/7112648164,0,Techtra Engineering,,38.7676362,8.9281178
node/7112648165,0,Adey Abeba,,38.7637599,8.9572677
node/7112648166,0,Kality Maseltegna,,38.7669427,8.9323914
node/7112648167,0,Wehalemat,,38.768315,8.9298175
node/7112648168,0,Awash Bank (Akaki Kality),,38.7768426,8.8837788
node/7112648169,0,Gelan Condominium,,38.7793211,8.8799589
node/7112648170,0,Belay Ab Moters,,38.7963837,8.8716847
node/7112648172,0,TAF Oil (Tulu Dimtu),,38.8091005,8.8705655
node/7112755338,0,Teklehaymanot,,38.7439418,9.0278217
node/7112755340,0,Autobis Tera,,38.7376384,9.0314996
node/7112755342,0,Autobis Tera,,38.7381207,9.0308454
node/7112755343,0,Meteorology,,38.7468282,9.0194238
node/7113004009,0,Girum Hospital,,38.7199737,9.0462468
node/7113004010,0,Ras Hailu (Medhanialem),,38.7211613,9.0509733
node/7113004011,0,Awolia,,38.7114101,9.0572551
node/7113004012,0,Bercheko Fabrica (Asko),,38.6983516,9.0640587
node/7113004013,0,Gulele,,38.70588,9.0598807
node/7113004014,0,Ras Hailu (Medhanialem),,38.7210939,9.0507813
node/7113004015,0,Woreda 7 TVET,,38.7212829,9.040909
node/7113004016,0,Chid Tera,,38.7213725,9.0380466
node/7113004018,0,Autobis Tera,,38.7365754,9.0312199
node/7113004020,0,Michael (2),,38.73268,9.0426217
node/7113004021,0,Pawlos Hospital (Saba Mosque),,38.7261371,9.0485205
node/7113004022,0,Anbessa Garage (Shegole),,38.7205811,9.0643796
node/7113004024,0,Shegole (Mender 7),,38.7266132,9.0641379
node/7113004026,0,Shegole (Mender 7),,38.726699,9.0641466
node/7113004027,0,Hassen & Hussein Mosque (Shegole),,38.7189551,9.0589167
node/7113004028,0,Shegole Bank,,38.7198445,9.0548351
node/7113004029,0,Michael,,38.7321449,9.0409541
node/7113158623,0,Eyesus,,38.7712666,9.0652655
node/7122983960,0,Wello Sefer,,38.7741153,8.9931107
node/7122983961,0,Kassech Kitfo,,38.7720567,8.9891423
node/7122983962,0,Ambasel,,38.7679985,8.9855755
node/7122983963,0,WAGGA (Singer Liquior Store),,38.7662234,8.9840055
node/7122983964,0,Wengalawit,,38.7635127,8.9814923
node/7122983968,0,Wengalawit,,38.7636059,8.9817105
node/7122983969,0,MEDCO,,38.7680101,8.9857381
node/7122983970,0,Tebaber Berta,,38.7723942,8.98977
node/7122983972,0,Wello Sefer,,38.7739711,8.9930626
node/7123180286,0,Beshale Area,,38.8356151,9.0113972
node/7123180287,0,Megenagna,,38.802106,9.0185063
node/7123180289,0,Jacros,,38.821148,9.0111777
node/7123180290,0,Safari,,38.8526604,9.0100121
node/7123180291,0,Safari (Summit),,38.8657082,9.0116739
node/7123180293,0,Safari (Summit),,38.8657494,9.0115148
node/7123180295,0,Safari,,38.8513684,9.0099646
node/7123180296,0,Beshale Area,,38.8356503,9.011279
node/7123180297,0,Gurd Shola,,38.8201425,9.0189315
node/7123180298,0,Megenagna,,38.803506,9.0194519
node/7123265052,0,Meskel Flower,,38.7650036,8.9882804
node/7123265053,0,Loza (Adot),,38.7659652,8.9911645
node/7123265054,0,Nazra Hotel,,38.7663984,8.9934001
node/7123265055,0,Yetam Hotel,,38.7666123,8.9959487
node/7123265056,0,Kebele Kibeb,,38.7667571,8.9980982
node/7123265061,0,Mulu Shewa (Gazebo),,38.7669271,8.9999844
node/7123265062,0,Kebele Kibeb,,38.7668423,8.9979306
node/7123265063,0,Yetam Hotel,,38.7667132,8.9959132
node/7123265064,0,Nazra Hotel,,38.7665439,8.9937071
node/7123265065,0,Loza (Adot),,38.7660467,8.9910552
node/7123265066,0,Meskel Flower,,38.7652457,8.9885268
node/7182111861,0,Total 3 Kuter Mazoria,,38.7180191,8.9921561
node/7182111862,0,Kera,,38.7468023,8.9865792
node/7214490240,0,4 Kilo Minilik School,,38.7629695,9.0351361
node/7214490241,0,Kality Menaheriya,,38.7708485,8.8967488
node/10672522047,0,Holeta,,38.497947,9.0675662
node/10672522056,0,Sademo,,38.53199,9.065884
node/10672522057,0,Cheshire Ethiopia,,38.5920589,9.0712731
node/10672721751,0,Delta Fuel Station,,38.8085926,8.8504983
node/10672739809,0,Sidama Awash NOC,,38.8243789,8.8412588
node/10672739811,0,Atlas Resort,,38.8396009,8.8314833
node/10672739815,0,ODDA Fuel Station,,38.818065,8.8447465
node/10672961242,0,3 Kutir (TZNA Area),,38.717673,8.9943894
node/10672961244,0,Lideta High Court,,38.7335924,9.0117316
node/10750378219,0,Ayer Tena,,38.7024743,8.9839135
node/10755917239,0,Sar Bet,,38.7394551,8.9925223
node/10755917241,0,Sar Bet,,38.7392871,8.9924619
node/10755917242,0,Kera,,38.7469304,8.9859671
node/10755917243,0,Kera,,38.7418629,8.9900132
node/10755917244,0,Sar Bet,,38.7376124,8.995096
node/10755917245,0,karl Square,,38.7309965,8.9973975
node/10755917246,0,karl Square,,38.7302642,8.9970773
node/10755917247,0,Bisrate Gebrael,,38.7268512,8.9927368
node/10755917248,0,Bisrate Gebrael,,38.7255644,8.9914228
node/10755917249,0,Bisrate Gebrael,,38.7226976,8.9888937
node/10755917250,0,Total 3 Kuter Mazoria,,38.7175917,8.9922875
node/10766121857,0,kality Meneharia,,38.7708737,8.8967652
node/10766121859,0,kality Maseltegna,,38.7669453,8.9319554
node/10766121860,0,Kadisco Roundabout,,38.7668102,8.9632423
node/10766121861,0,Bole Mickael,,38.7761571,8.9816305
node/10766121862,0,Bole Printing Press,,38.7721247,8.9966149
node/10766121863,0,Flamingo,,38.7634141,9.0100526
node/10766121864,0,St. Estifanos,,38.7626278,9.0125659
node/10766121865,0,4 Kilo (Menlik),,38.7629874,9.035146
node/10766121866,0,4 Kilo (Menlik),,38.7631121,9.0352952
node/10766121867,0,Place Parking (Gibi Gebriel),,38.7641345,9.0214342
node/10766121868,0,Flamingo,,38.7636218,9.01014
node/10766121869,0,Wollo Sefer,,38.7743234,8.9944147
node/10766121871,0,Bole Mikael,,38.7761469,8.9812653
node/10766121872,0,Mamo (Nifas Silk),,38.765481,8.9737518
node/10766121873,0,kality Maseltegna,,38.7670877,8.9321192
node/10766121874,0,kality Meneharia,,38.7721261,8.8957067
node/10766454593,0,Olympia,,38.7674734,9.0056744
node/10766454594,0,Bole Roundabout,,38.7908923,8.9867247
node/10768858714,0,German Square,,38.7341844,8.965437
node/10768858715,0,Gofa Camp,,38.7420458,8.97192
node/10768858718,0,African Union,,38.7411322,9.003043
node/10768858719,0,Autobis Tera,,38.7370315,9.0296254
node/10768858720,0,Guenet Hotel (Orbis),,38.7470064,9.0026517
node/10768858723,0,German Square,,38.7340469,8.9651822
node/10781643820,0,Lamberet Menaheria,,38.8198728,9.0239162
node/10781643821,0,Arat Kilo,,38.7650098,9.0322896
node/10781643822,0,4 kilo (Children Theatre),,38.7666152,9.0328365
node/10781643823,0,Bel Air,,38.7736753,9.0325481
node/10781643824,0,Kebena,,38.7768069,9.0344084
node/10781643825,0,Kokebe Tsebah (Kebena),,38.7794124,9.0350794
node/10781643826,0,Kenya Embassy (Kebena),,38.7823515,9.0324942
node/10781643827,0,British Embassy,,38.785575,9.0309005
node/10781643828,0,Abebe Sook,,38.7888226,9.0289673
node/10781643829,0,Shola (Yeka Court),,38.7947497,9.0251295
node/10781643830,0,Shola Abyssinia Bank,,38.7984062,9.0232585
node/10781643831,0,Megenagna (Marathon Motors),,38.7997354,9.0224046
node/10781643832,0,Megenagna,,38.8010368,9.0208971
node/10781643833,0,Megenagna (Israel Embassy),,38.8048559,9.0208722
node/10781643834,0,Lamberet Menaheria,,38.8199227,9.0240444
node/10781643835,0,Kotebe,,38.836729,9.0297042
node/10781643836,0,Kotebe,,38.8385612,9.0304539
node/10781643837,0,Kotebe Teachers College,,38.8490303,9.0348007
node/10781643838,0,Kotebe Gebriel,,38.8553365,9.0363204
node/10781643839,0,Kotebe Gebriel,,38.8541265,9.0358505
node/10781643840,0,Wessen Grocery,,38.8443436,9.032918
node/10781643841,0,Kara,,38.8648947,9.0407203
node/10781643842,0,Kara,,38.8653607,9.0411416
node/10781844855,0,Abebe Sook,,38.788672,9.0287927
node/10781844856,0,British Embassy,,38.7843424,9.0313214
node/10781844857,0,5 Kilo St. Mary,,38.7623866,9.038677
node/10781844858,0,6 Kilo University,,38.7614003,9.0462129
node/10781844859,0,6 Kilo University,,38.7615945,9.0462072
node/10781844860,0,6 Kilo (Lion Zoo),,38.7615002,9.0430896
node/10781844861,0,Kenya Embassy (Kebena),,38.7826601,9.032679
node/10781844862,0,Shola (Yeka Court),,38.7953847,9.0250431
node/10781844863,0,Megenagna (Marathon Motors),,38.7998471,9.0225097
node/10823916391,0,Yeka 03,,38.8773834,9.0381854
node/10842065101,0,Sefera Atkilt Tera,,38.7341685,8.931276
node/10842065103,0,kality Maseltegna,,38.7646885,8.9358559
node/10842065104,0,Bulgaria,,38.7478806,8.9948043
node/10842129005,0,Kality Customs,,38.7628904,8.9379429
node/10842129006,0,Germen Square,,38.7330813,8.9644696
node/10842129008,0,Hana Mariam,,38.7441345,8.93579
node/10842129009,0,Gomista,,38.7703639,8.9373819
node/10842129010,0,Nigd bank,,38.780123,8.948706
node/10842129011,0,kality Maseltegna,,38.7642814,8.9342123
node/10842129012,0,Kadisco,,38.7585214,8.9310906
node/10842129013,0,Adey abeba,,38.7638648,8.9582797
node/10842129015,0,Saris abo,,38.7690665,8.9457865
node/10842129016,0,Haile Garment,,38.7345583,8.93876
node/10842129017,0,Saris,,38.7635479,8.9546992
node/10842129019,0,Bole Cargo,,38.7819099,8.9834477
node/10842129020,0,Bulgaria,,38.7483448,8.9944221
node/10842129021,0,Kore,,38.7765022,8.9482742
node/10842129022,0,Saris Abo,,38.7691994,8.9444276
node/10842129023,0,Kality Menaheria,,38.7704449,8.8973782
node/10842129024,0,Sefera Square,,38.7340982,8.9254109
node/10842129025,0,Mexico,,38.7463895,9.009032
node/10842129026,0,Kality Gebriel,,38.7644698,8.9092945
node/10842129027,0,Derartu,,38.7821218,8.8869211
node/10842129028,0,Bole Cargo,,38.7818039,8.9836884
node/10842129029,0,Kality Total,,38.7729402,8.8948904
node/10842129030,0,Noc,,38.748144,8.9927142
node/10842129031,0,Lancha,,38.7590821,8.9901397
node/10842129032,0,Haile Garment,,38.7359129,8.9375158
node/10842129033,0,Agona,,38.759633,8.9880834
node/10842129034,0,kality Maseltegna,,38.76464,8.9336783
node/10842129035,0,Mesqelegna,,38.7214531,8.9417644
node/10842129037,0,Jemo,,38.6979529,8.9537651
node/10842129038,0,Adey abeba,,38.7640443,8.9577771
node/10842129040,0,Saris Abo,,38.7661797,8.9448318
node/10842129041,0,Mebrat hayle,,38.7343973,8.9457862
node/10842129042,0,Kadisco,,38.7669226,8.9633984
node/10842129043,0,Hana Mariam,,38.7453864,8.9356798
node/10842129045,0,Mamo (NFSL),,38.7609585,8.9729895
node/10842129046,0,Medhani alem,,38.7785848,8.9490785
node/10842129047,0,Mosque (Mesged),,38.7660661,8.9047633
node/10842129048,0,Kality Gebriel,,38.7645559,8.9093265
node/10842129051,0,Bole Roundabout,,38.7888143,8.9859342
node/10842129052,0,Wuhalimat,,38.7681435,8.9295556
node/10842129053,0,Hana Mariam,,38.7445142,8.9361549
node/10842129054,0,Bole Mickael,,38.7719673,8.9797944
node/10842129055,0,Sheger building,,38.7635639,8.9192813
node/10842129056,0,Yoseph,,38.7668114,8.9705748
node/10842129057,0,Bulgaria,,38.7477478,8.9947898
node/10842129058,0,Mebrathayil,,38.7342346,8.9470316
node/10842129059,0,Sefera Square,,38.7346011,8.9250202
node/10842129060,0,Tele Garage,,38.758701,9.0000494
node/10842129061,0,Mebrathayil,,38.7339445,8.9469179
node/10842129062,0,Haile garment,,38.7335906,8.9376734
node/10842129063,0,Meshualekia,,38.758986,9.0058652
node/10842129066,0,Adey abada,,38.7640108,8.9571801
node/10842129069,0,Menaheria (Zenebu Werk),,38.706617,8.9755358
node/10842129070,0,Adis sefer,,38.767446,8.9602509
node/10842129071,0,Kadisco,,38.758758,8.930883
node/10842129072,0,Bulgaria,,38.7478486,8.993831
node/10842129073,0,Kadisco,,38.7627716,8.9661182
node/10842129074,0,Bulbula,,38.7861393,8.9517202
node/10842129075,0,Kadisko,,38.7629867,8.966096
node/10842129076,0,Saris abo,,38.7700795,8.9444437
node/10842129077,0,Meshualekya,,38.7875287,8.8759809
node/10842129078,0,Agona,,38.7597928,8.9871416
node/10842129079,0,Gotera chaf,,38.7595824,8.9771026
node/10842129080,0,Saris,,38.7633358,8.9528149
node/10842129082,0,St. Joseph School,,38.7593422,9.0106804
node/10842129083,0,Kotari Condominium,,38.7338312,8.9321621
node/10842129084,0,Mamo,,38.7652695,8.9732793
node/10842129085,0,Saris Abo,,38.7664084,8.9448603
node/10842129086,0,Yosef,,38.7665547,8.9705442
node/10842129088,0,Kality Cheralia,,38.7654586,8.9068482
node/10842129089,0,Kality Cheralia,,38.7653555,8.9066965
node/10842129090,0,Lancha,,38.7593009,8.9906489
node/10842129091,0,Gomista,,38.7701062,8.9375024
node/10842129092,0,Haile Garment,,38.7331196,8.9375082
node/10842129093,0,Tele Garage,,38.7584826,9.0001174
node/10842129094,0,Selam Building,,38.7767338,8.8840544
node/10842129095,0,Medhani alem,,38.7769101,8.9453322
node/10842129096,0,Selam Building,,38.7772259,8.8831855
node/10842129097,0,Meshualekya,,38.7872182,8.8759552
node/10842129098,0,Saris,,38.7635911,8.9531876
node/10842129102,0,Germen adebabay,,38.7328242,8.963723
node/10842129103,0,Mamo (NFSL),,38.7607874,8.972508
node/10842129105,0,Kera,,38.7486365,8.9875165
node/10842129106,0,Agona,,38.7599766,8.9867627
node/10842129107,0,Saris abo,,38.7701231,8.9446574
node/10842129108,0,Kera,,38.7483211,8.9860883
node/10842129110,0,Gelan Condominium,,38.7666013,8.8790966
node/10842129111,0,Temenja yasi,,38.7596133,8.9953066
node/10842129112,0,Riche,,38.7588933,9.0041803
node/10842129113,0,Haile garment,,38.7364242,8.9368154
node/10842129114,0,Bole Mickael,,38.7720906,8.9795749
node/10842129116,0,Ayer Tena,,38.6971287,8.9835322
node/10842129117,0,Jemo,,38.6977027,8.9537239
node/10842129118,0,Land mark,,38.7467544,9.0052072
node/10842129119,0,Meskelegna,,38.7218311,8.9411484
node/10842129120,0,Haile Garment,,38.7349153,8.9381771
node/10842129121,0,Riche,,38.7586909,9.0040548
node/10842129122,0,Kore,,38.7841911,8.9476648
node/10842129124,0,Meshualekya,,38.7866845,8.8770606
node/10842129125,0,Bulbula,,38.7863461,8.9518942
node/10842129126,0,kality Maseltegna,,38.7643342,8.9357353
node/10842129129,0,Saris abo,,38.7692278,8.9457601
node/10842129131,0,Addis sefer,,38.7676873,8.9603252
node/10842129132,0,Hana mariam,,38.744852,8.9352291
node/10842129133,0,Kera,,38.7484325,8.9866879
node/10842129134,0,Gotera chaf,,38.7601404,8.9757898
node/10842129135,0,Akaki Subcity Office (Menaheria),,38.770318,8.8972852
node/10842129136,0,Condominium,,38.7717099,8.9411922
node/10842129137,0,Gelan Condominium,,38.7666701,8.8789992
node/10842129139,0,Wuhalimat,,38.7683276,8.9295931
node/10842129140,0,Mexico,,38.7461882,9.0098761
node/10845731573,0,Grand Anwar Mosque,,38.7413343,9.0312472
node/10845731574,0,Kebele 11,,38.7457773,9.0247282
node/10845731575,0,Guenet hotel,,38.7468651,9.0028738
node/10845731576,0,Lancia,,38.7589891,8.9923344
node/10845731577,0,Pepsi,,38.755826,8.9825134
node/10845731578,0,Lancia,,38.7591215,8.9919399
node/10845731579,0,Tekle Haimanot,,38.7438378,9.0279893
node/10845731580,0,Saris Abo,,38.7666459,8.9441872
node/10845731581,0,Legehar,,38.7544517,9.0120319
node/10845731582,0,Kera,,38.7522272,8.9841589
node/10845731583,0,Kality Customs,,38.7631799,8.9380577
node/10845731584,0,Gojam Berenda,,38.7378007,9.0342603
node/10845731585,0,Gojam Berenda,,38.7381021,9.0343553
node/10845731586,0,Derartu,,38.7818631,8.8868675
node/10845731587,0,Pepsi,,38.7557408,8.9824223
node/10845731588,0,Global Hotel,,38.7596457,8.9943898
node/10845731589,0,Sheger Building,,38.7637542,8.9208636
node/10845731590,0,Autobus Tera,,38.734431,9.0343246
node/10845731591,0,Guenet hotel,,38.7469738,9.0027786
node/10845731592,0,Tekle Haimanot,,38.7439714,9.0279685
node/10845731593,0,Beg Tera,,38.7476261,8.9970419
node/10845731594,0,Global Hotel,,38.7598651,8.9943499
node/10845731595,0,Kality Correctional,,38.7641252,8.9223845
node/10845731596,0,Cheralia Factory,,38.7667306,8.9029367
node/10845731597,0,Kebele 11,,38.7457421,9.0246149
node/10845731598,0,Grand Anwar Mosque,,38.7414003,9.0310422
node/10845731599,0,National Theatre,,38.7526758,9.0165472
node/10845731600,0,Sheger Building,,38.7639368,8.9214902
node/10845731601,0,Saris,,38.767986,8.95346
node/10845731602,0,Beg Tera,,38.7475303,8.9968163
node/10845731603,0,Sengatera,,38.7468099,9.014753
node/10845731604,0,Mexico,,38.746301,9.0096228
node/10845749005,0,Bulgaria,,38.7479845,8.9937615
node/10845840895,0,kality Meneharia,,38.7720203,8.8956285
node/10845840896,0,Ayer Tena,,38.6966894,8.9841176
node/10845840897,0,Germen adebabay,,38.7330269,8.9637758
node/10846106471,0,Kality Total,,38.7728316,8.8948231
node/10881147490,0,Bole Bridge,,38.7912092,8.9869946
node/10881147492,0,Bole Bridge,,38.7903563,8.9867302
node/10883106542,0,Autobus Tera,,38.7338003,9.0341009
node/10886135782,0,Bajaj Tera,,38.7415025,8.907041
node/10886135783,0,Chera,,38.7479978,8.904156
node/10886135784,0,Gelan Condominium,,38.7622377,8.8772921
node/10886135785,0,Total,,38.7845626,8.8549158
node/10886135787,0,Tulu Dimtu,,38.8197795,8.8737817
node/10886135789,0,Tulu Dimtu,,38.8202354,8.8738791
node/10886135790,0,G7,,38.820802,8.8709574
node/10886135791,0,Total,,38.7847209,8.8541896
node/10886135793,0,Gelan Condominium,,38.7630121,8.8758233
node/10886281950,0,Bole Bridge,,38.7928534,8.9906055
node/10886281951,0,Bole Medhanyalem,,38.7887705,8.9955183
node/10886281952,0,Edna Mall Squar,,38.7870108,8.9973425
node/10886281953,0,Adey Ababa Stadium,,38.7892817,9.0043569
node/10886281954,0,22 Mazoria,,38.7872566,9.0150262
node/10886281956,0,22 Mazoria,,38.787438,9.0150056
node/10886281958,0,Freedom,,38.7887083,9.0082739
node/10886281997,0,Werku Building,,38.7890587,9.0069454
node/10886281998,0,Adey Ababa Stadium,,38.7893444,9.0042976
node/10886281999,0,Edna Mall Squar,,38.7869491,8.9977034
node/10886282000,0,Bole Medhanyalem,,38.7885714,8.995948
node/10886282001,0,Bole Bridge,,38.7929596,8.9906936
node/10886427067,0,22 Mazoria,,38.7881236,9.0161537
node/10886427068,0,Lem Hotel,,38.7950715,9.017758
node/10886427069,0,Megenagna,,38.8019786,9.0198841
node/10886427070,0,Gurd Shola,,38.8200261,9.0191878
node/10886427071,0,Civil Servis College,,38.8345374,9.0218654
node/10886427072,0,Yetebaberut,,38.8536095,9.0209806
node/10886427073,0,Ayat,,38.8750186,9.0214852
node/10886427074,0,Civil Servis College,,38.8350083,9.0215577
node/10886427075,0,Ayat,,38.8737977,9.0211711
node/10886427076,0,Meshageria,,38.8598848,9.0204163
node/10886427077,0,Yetebaberut,,38.8535182,9.020619
node/10886883544,0,Bole Bora Amusement,,38.7941243,8.9907378
node/10886883546,0,Megenagna,,38.8016982,9.0185543
node/10886883547,0,Anbessa Garage,,38.8034449,9.0078296
node/10886883548,0,Emperial Hotel,,38.8009392,9.0037737
node/10886883549,0,Hayat Hospital,,38.7961015,8.9950343
node/10886883550,0,Bole Bora Amusement,,38.7949793,8.9916604
node/10886991025,0,Sun shine,,38.852562,9.0199832
node/10886991026,0,Megenagna,,38.8042842,9.0200202
node/10886991027,0,Meshualekia,,38.841553,9.021578
node/10886991028,0,Safari,,38.8522797,9.0110042
node/10886991029,0,Summit,,38.8519977,9.004015
node/10886991031,0,Summit,,38.8517386,9.004282
node/10886991032,0,Safari,,38.8519018,9.010941
node/10886991033,0,Sun shine,,38.8520834,9.0199154
node/10886991034,0,Meshualekia,,38.8415391,9.021324
node/10886991035,0,Michael,,38.8392942,9.021353
node/10886991036,0,Gurd Shola,,38.8211275,9.0187135
node/10887120325,0,Hayat Hospital,,38.7956759,8.9948468
node/10887120326,0,Sport Accadamy,,38.798384,9.0001969
node/10887120327,0,Emperial Hotel,,38.8000262,9.0027661
node/10887120328,0,Mulugeta Building,,38.8016319,9.0187177
node/10890083966,0,93 Mazoria,,38.7855121,8.9603848
node/10890083967,0,Kaldisco,,38.7863684,8.9623057
node/10890083968,0,Key Afer,,38.7872114,8.9642046
node/10890083969,0,Bole Bridge,,38.7938035,8.9901774
node/10890083974,0,Mulugeta Building,,38.8025239,9.0169433
node/10890290096,0,Key Afer,,38.7873203,8.9642211
node/10890290097,0,93 Mazoria,,38.785703,8.9604784
node/10890290098,0,Kebele,,38.7875752,8.9581348
node/10893030388,0,Anbessa Garage,,38.8031745,9.0080412
node/10893030389,0,Jacros,,38.8169267,9.0035488
node/10893030390,0,Alem Ayew Building,,38.8210973,8.9993201
node/10893030392,0,Goro,,38.8283586,8.9923039
node/10893030394,0,Goro,,38.8287738,8.9917123
node/10893030395,0,Goro School,,38.8266397,8.9939213
node/10893030396,0,Alem Ayew Building,,38.8210064,8.9992455
node/10893030397,0,Jacros,,38.8166485,9.0035377
node/10893030398,0,Sport Accadamy,,38.7986195,8.9999982
node/10893030400,0,Bole Bridge,,38.7947324,8.9911487
node/10893316186,0,Figa,,38.8336594,9.0122741
node/10893316189,0,Mesgid,,38.8366122,9.0110639
node/10893316190,0,Figa,,38.8335762,9.0121764
node/10898980600,0,Bole Mickael,,38.7731313,8.984658
node/10898980601,0,Ambasader,,38.7551282,9.0162838
node/10898980602,0,Dembel,,38.7662663,9.0069448
node/10898980603,0,Stadium,,38.7586647,9.0123922
node/10898980604,0,Metrology,,38.7466456,9.0192676
node/10898986005,0,Tikur Anbesa,,38.7476072,9.0217285
node/10898986007,0,Tikur Anbesa,,38.7476005,9.0207753
node/10898986008,0,Metrology,,38.7467207,9.0188878
node/10898986009,0,Ambasader,,38.7553118,9.0164136
node/10898986010,0,Stadium,,38.760062,9.011485
node/10898986011,0,Dembel,,38.7686303,9.0038396
node/10898986012,0,Bole Printing Press,,38.7717243,8.9979213
node/10898986014,0,Bole Mickael,,38.7734946,8.9849144
node/10899009892,0,Cinema Ras,,38.7413697,9.0318094
node/10899009893,0,Cinema Ras,,38.7414723,9.0317766
node/10899150564,0,Rwanda,,38.7781683,8.992509
node/10899150565,0,Shewa Dabo,,38.7693116,9.0017627
node/10899150566,0,St. Estifanos Church,,38.7626611,9.0120704
node/10899150567,0,Piassa Arada,,38.7511048,9.0321752
node/10899150568,0,Piassa Arada,,38.7525581,9.0330229
node/10899150569,0,Tewodros Square,,38.7517894,9.0264157
node/10899150570,0,Tikur Anbesa,,38.7522625,9.0210948
node/10899150571,0,Post Office,,38.7529153,9.019064
node/10899150572,0,Ghion Hotel,,38.7576138,9.0138467
node/10899278324,0,Bole Bridge,,38.7897689,8.9885561
node/10899278325,0,Friendship Building,,38.7840796,8.9908062
node/10899278326,0,Rwanda,,38.7798445,8.9923825
node/10899278327,0,Friendship Building,,38.7844715,8.9908613
node/10899278328,0,Bole Bridge,,38.7898626,8.9887169
node/10899524535,0,Anbessa Garage,,38.8038533,9.0084115
node/10899524536,0,Condominium - Gerji Mebrat hayle,,38.8100683,9.0049309
node/10899524537,0,Gerji Mebrat hayle,,38.814209,9.0036683
node/10899524538,0,Goro,,38.8294024,8.9913434
node/10899524539,0,kilinto Right,,38.815561,8.900477
node/10899524540,0,Tulu Dimtu,,38.8197368,8.8753804
node/10899524542,0,kilinto Right,,38.8150743,8.900461
node/10899524543,0,Goro,,38.8292469,8.9912832
node/10899524544,0,Gerji Mebrat hayle,,38.8134376,9.0035919
node/10899524545,0,Condominium - Gerji Mebrat hayle,,38.8095948,9.0050654
node/10899524547,0,Anbessa Garage,,38.8055809,9.0071868
node/10899590290,0,Mesgid,,38.8364067,9.011198
node/10899590291,0,Saint Georgis,,38.8518486,8.994461
node/10899590293,0,Saint Georgis,,38.8515329,8.994389
node/10899652823,0,Mebrathile,,38.7332958,8.9493529
node/10899652824,0,Gebriel Bridge,,38.7324445,8.9556186
node/10899652825,0,Mickael Bridge,,38.7273491,8.965384
node/10899652826,0,Zenebewerk,,38.7121031,8.9727473
node/10899652827,0,Chaina Camp,,38.7055213,8.975714
node/10899652829,0,Ayer Tena,,38.6982059,8.981635
node/10901428140,0,Haile Garment,,38.7348966,8.9385233
node/10901428141,0,Sefera,,38.7353205,8.9201595
node/10901428142,0,Sefera Atkilt Tera,,38.7337094,8.9311784
node/10901428143,0,Sefera,,38.734667,8.9208099
node/10901522017,0,Mesalemia,,38.7519617,8.8870433
node/10901522018,0,Chera Medhanilem,,38.7484085,8.9032086
node/10901522020,0,Haile Garment,,38.7346387,8.935726
node/10901522021,0,Chera Medhanilem,,38.7491293,8.9034769
node/10901522022,0,Mesalemia,,38.7524365,8.8871115
node/10901643508,0,Saris,,38.7629397,8.9530332
node/10901643510,0,58 Mazoria,,38.7540078,8.9431476
node/10901643511,0,Kidane Mihret Stebel,,38.7500946,8.9405222
node/10902267327,0,Mexico,,38.7447143,9.0084289
node/10902267330,0,Mexico,,38.7448728,9.0084377
node/10902267332,0,AU (Mikael) Rounrdabout,,38.7393711,8.9990666
node/10902267333,0,AU (Mikael) Rounrdabout,,38.7395668,8.9990162
node/10902267334,0,Sar Bet,,38.7381301,8.9923567
node/10902267335,0,Sar Bet,,38.7383324,8.9923453
node/10902267336,0,Abo Mazoria,,38.7342938,8.9822679
node/10902267337,0,Abo Mazoria,,38.7344209,8.9823292
node/10902267338,0,Mekanisa,,38.7311351,8.9729293
node/10902267339,0,Mekanisa,,38.7312498,8.9728812
node/10902267340,0,Gebriel Bridge,,38.732719,8.9555964
node/10903393900,0,58 Mazoria,,38.7539257,8.9432326
node/10903398373,0,Varnelo Squer,,38.7267004,8.9487486
node/10903398374,0,Jemmo 1,,38.7117668,8.9594798
node/10903398375,0,Jemmo 1,,38.712128,8.9585188
node/10903398376,0,Jemmo Medhanialem,,38.7161087,8.9524535
node/10903398377,0,Jemmo Medhanialem,,38.7162235,8.9525568
node/10903398378,0,Kebele,,38.7221583,8.9490672
node/10903398379,0,Kebele,,38.7221797,8.9491872
node/10903398380,0,Varnelo Squer,,38.7267159,8.9488837
node/10904734315,0,Sar Bet,,38.7373285,8.9951163
node/10904734316,0,Austria Embassy,,38.7276618,8.9936468
node/10904734318,0,Total 3 Kuter Mazoria,,38.7177291,8.9922476
node/10905160356,0,Autobus Tera,,38.7322404,9.0330017
node/10905160357,0,Autobus Tera,,38.7323851,9.033026
node/10905160358,0,Sebategna,,38.7329553,9.0282768
node/10905160359,0,Sebategna,,38.7331326,9.0283274
node/10905160360,0,Abenet,,38.7333187,9.021201
node/10905160361,0,Abenet,,38.7335682,9.0196344
node/10905160362,0,Darmar,,38.7346366,9.0158211
node/10905160363,0,Darmar,,38.7347971,9.0154497
node/10905160364,0,Lideta Condominium,,38.7343382,9.0133778
node/10905160365,0,Lideta Condominium,,38.7345056,9.0133623
node/10905160366,0,Dessie Hotel,,38.7337879,9.0094187
node/10905160367,0,Dessie Hotel,,38.7339331,9.0093029
node/10905160368,0,Lideta,,38.7337058,9.0046165
node/10905160369,0,Lideta,,38.7338158,9.0041332
node/10905160370,0,AU (Mikael) Rounrdabout,,38.7393722,9.0001611
node/10905160371,0,AU (Mikael) Rounrdabout,,38.7400667,8.9999889
node/10905641592,0,Kera,,38.7518897,8.9839514
node/10905771998,0,Jemmo 1,,38.7123799,8.9606229
node/10905771999,0,Jemmo Mickael,,38.7216431,8.9688439
node/10905772000,0,Metrology,,38.7468034,9.0192423
node/10905772001,0,karl Square,,38.7304143,8.9969985
node/10905772002,0,Bisrate Gebrael,,38.7227062,8.9883364
node/10905772003,0,Jemmo Mickael,,38.7218663,8.9687533
node/10905772004,0,Jemmo 1,,38.7124299,8.9604031
node/10905866700,0,Noc,,38.6701812,8.9493317
node/10905876026,0,Alem Gena,,38.6639521,8.9339514
node/10905876027,0,Alem Gena,,38.6640124,8.933851
node/10905876029,0,Noc,,38.670031,8.9493415
node/10905876030,0,Jemmo 3 Squer,,38.6965362,8.9538566
node/10905876031,0,Jemmo 3 Squer,,38.697557,8.9552123
node/10905982178,0,Post Office,,38.7520387,9.0220649
node/10905982179,0,Germen Square,,38.732839,8.9652918
node/10905982180,0,Germen Square,,38.7325545,8.9664306
node/10906020778,0,Gofa,,38.7418952,8.9717027
node/10906020779,0,Gofa,,38.7419996,8.9716231
node/10906074341,0,Ayer Tena,,38.6979766,8.9816221
node/10906074342,0,Germen Square,,38.7320917,8.9644965
node/10906074343,0,Germen Square,,38.732112,8.9646595
node/10907679395,0,Mesked,,38.6922765,8.9883638
node/10907679396,0,Kidane Mihret,,38.6893136,8.9913917
node/10907679398,0,Tropical,,38.683541,8.9958978
node/10907679399,0,Alem Bank,,38.677926,9.0003808
node/10907679400,0,Alem Bank,,38.6776565,9.0010321
node/10907679401,0,Tropical,,38.6841485,8.9957016
node/10907679402,0,Kidane Mihret,,38.689491,8.9915373
node/10907679403,0,Mesked,,38.6925125,8.9884696
node/10907679404,0,Chaina Camp,,38.7060819,8.9757717
node/10907725405,0,Zenebewerk,,38.7121867,8.9730472
node/10907725406,0,Mickael Bridge,,38.7275949,8.9655559
node/10907781477,0,Germen Square,,38.7333383,8.9648278
node/10907781478,0,Kera,,38.7500865,8.9844811
node/10907781479,0,Kera,,38.750364,8.9842955
node/10907781480,0,Gofa Gebriel,,38.7490157,8.9770976
node/10907781481,0,Gofa Gebriel,,38.7491174,8.9770919
node/10908143594,0,Mekanisa Abo,,38.7343726,8.9832814
node/10908143595,0,Mekanisa Abo,,38.7341531,8.9830621
node/10908143596,0,Mexico,,38.7440188,9.0088673
node/10908143597,0,Mexico,,38.7438,9.0088181
node/10908191497,0,Tewodros Square,,38.7516402,9.0263912
node/10908191498,0,Mekanisa,,38.7321651,8.9739466
node/10908191499,0,Mekanisa,,38.7322539,8.9738507
node/10908191500,0,Post Office,,38.7524753,9.0187971
node/10908661149,0,Mebrathile,,38.7334477,8.9493572
node/10909186645,0,Coca Cola,,38.729496,9.0159317
node/10909186646,0,Merab Hotel,,38.735361,9.0294352
node/10909186647,0,Abenet,,38.7334955,9.0213907
node/10909186648,0,Merab Hotel,,38.7353749,9.0293588
node/10909186649,0,Kolfe Keranyo,,38.7180312,9.016555
node/10909186650,0,Holand,,38.7159578,9.0203575
node/10909186651,0,Holand,,38.7162551,9.0204824
node/10909186652,0,Kolfe Keranyo,,38.7176312,9.017036
node/10909186653,0,Kolfe Keranyo,,38.7179346,9.0171583
node/10909186654,0,Torhayloch,,38.7202541,9.0122446
node/10909186655,0,Torhayloch,,38.7202419,9.0120497
node/10909186657,0,Keranio Mewcha,,38.7097752,9.0134653
node/10909186658,0,Keranio Mewcha,,38.7097861,9.0133225
node/10909186659,0,Mewcha,,38.7049946,9.0140592
node/10909186660,0,Mewcha,,38.7050058,9.0139288
node/10909186661,0,Mendida,,38.6994498,9.0153205
node/10909186662,0,Mendida,,38.6995858,9.0151509
node/10909186663,0,Betel,,38.6937692,9.0037697
node/10909186664,0,Betel,,38.6937746,9.0036921
node/10909186665,0,Alem Bank,,38.6775777,9.0017481
node/10909186666,0,Alem Bank,,38.677633,9.0016995
node/10911198617,0,Zenebewerk,,38.7080844,8.9868549
node/10911198618,0,Zenebewerk,,38.7081829,8.9867824
node/10911198619,0,Ayer Tena,,38.6961361,8.9838366
node/10911242345,0,Mexico Shebelle Hotel,,38.7446969,9.0114518
node/10911242346,0,Mexico Shebelle Hotel,,38.7445773,9.0114526
node/10911242347,0,Lideta,,38.7336365,9.0117415
node/10911242348,0,Lideta,,38.7336469,9.0115482
node/10911242349,0,Alem Bank,,38.6772002,9.001869
node/10911242350,0,Alem Bank,,38.6769434,9.0018954
node/10911695404,0,Ayer Tena,,38.7007283,8.9834957
node/10911717876,0,Betel,,38.6943792,9.0044227
node/10911717877,0,Betel,,38.6942024,9.0043939
node/10911725505,0,Ayer Tena,,38.6982237,8.9831049
node/10912835918,0,Zenebewerk,,38.7080303,8.9879977
node/10912835920,0,Zenebewerk,,38.7079594,8.9880219
node/10913852032,0,Mebrat Haile,,38.714679,9.0295143
node/10913852033,0,Mebrat Haile,,38.7149385,9.0294826
node/10913852034,0,18 Mazoria,,38.7146172,9.0334554
node/10913852035,0,18 Mazoria,,38.714468,9.0334598
node/10913863174,0,Abenet,,38.7327435,9.0196268
node/10913863175,0,Abenet,,38.7327231,9.0194053
node/10913863176,0,Coca Cola,,38.7296372,9.0159095
node/10913863177,0,Torhayloch,,38.7222401,9.0117875
node/10913863178,0,Torhayloch,,38.7208808,9.0096837
node/10913863179,0,Augusta Bridge,,38.7185634,9.0056583
node/10913863180,0,Augusta Bridge,,38.7188581,9.0055925
node/10913863181,0,Old Airport,,38.7188599,9.0000925
node/10913863182,0,Old Airport,,38.7191188,8.9998426
node/10913863183,0,3 Kutir Mazoriya (Total),,38.7170227,8.9932525
node/10913863184,0,3 Kutir Mazoriya (Total),,38.7158494,8.9926315
node/10913974717,0,Kara Kore,,38.6817486,8.9756363
node/10913974718,0,Kara Kore,,38.6814462,8.9754096
node/10913974719,0,Gerar,,38.6894126,8.9813701
node/10913974720,0,Gerar,,38.6894421,8.9813486
node/10913974721,0,Ayer Tena,,38.6982009,8.9829716
node/10914160973,0,Mexico,,38.746198,9.0116587
node/10914160974,0,Mexico,,38.7438026,9.0102476
node/10914160976,0,Zenebewerk,,38.708928,8.987734
node/10914160977,0,Zenebewerk,,38.7049751,8.9849086
node/10914680945,0,Zenebewerk Meneharia,,38.7053463,8.9853381
node/10914680946,0,Zenebewerk Meneharia,,38.7056363,8.9852574
node/10914784456,0,Atena Tera,,38.71237,9.0417169
node/10914784457,0,Atena Tera,,38.7127192,9.0414427
node/10915613002,0,Tekle Haimanot,,38.7426711,9.028352
node/10915613003,0,Tekle Haimanot,,38.742622,9.0281855
node/10915905485,0,Asko,,38.6937551,9.0658063
node/10915905486,0,Asko,,38.6937141,9.065919
node/10915905487,0,Chereta,,38.7010467,9.0612502
node/10915905488,0,Chereta,,38.7011727,9.0612523
node/10915905489,0,Gulele Fana,,38.7069671,9.0575666
node/10915905490,0,Gulele Fana,,38.7070447,9.0576638
node/10915905491,0,Awolia,,38.7114229,9.0572628
node/10915905492,0,Awolia,,38.7116493,9.0576104
node/10915905493,0,Winget,,38.7124522,9.0555179
node/10915905494,0,Winget,,38.7127252,9.0554488
node/10918141989,0,Kokebe,,38.6993091,9.018116
node/10918141990,0,Kokebe,,38.6991634,9.0178995
node/10918141991,0,Yeshi Debele,,38.6969603,9.0188526
node/10918141992,0,Yeshi Debele,,38.6972043,9.0185806
node/10918141993,0,Keranio Adebabay,,38.7017975,9.0177704
node/10918141994,0,Keranio Adebabay,,38.7006617,9.0176839
node/10918141995,0,Medhanalem,,38.7049143,9.0178222
node/10918141996,0,Medhanalem,,38.7047128,9.0175512
node/10918245686,0,Torhayloch,,38.7208703,9.0115804
node/10918245687,0,Torhayloch,,38.720685,9.0099639
node/10918314820,0,Torhayloch,,38.7225031,9.0114229
node/10918339958,0,Torhayloch,,38.7206095,9.0128836
node/10922141942,0,Legehar,,38.7544283,9.0118511
node/10923884107,0,Zebera,,38.7174162,9.0691686
node/10923884109,0,Addisu Gebeya,,38.7350114,9.0630022
node/10923884110,0,Addisu Gebeya,,38.7352489,9.0625854
node/10923884111,0,Bera Tera,,38.725597,9.0670589
node/10923884112,0,Zebera,,38.7174444,9.0689759
node/10923941250,0,Addisu Gebeya,,38.7374564,9.0594889
node/10923941251,0,Addisu Gebeya,,38.7379019,9.059208
node/10923941252,0,Semen Mazegaga,,38.7431266,9.0528165
node/10923941253,0,Semen Mazegaga,,38.7432318,9.0528691
node/10923941254,0,Shola,,38.7461562,9.0483987
node/10923941255,0,Shola,,38.7462522,9.0484505
node/10923941256,0,Semen Hotel,,38.7483104,9.0446634
node/10923941257,0,Semen Hotel,,38.7485012,9.0446029
node/10923941258,0,Yohanes,,38.745274,9.0425995
node/10923941259,0,Yohanes,,38.7453414,9.0425158
node/10923941260,0,Eritrea Hotel,,38.7394065,9.0346843
node/10923941261,0,Eritrea Hotel,,38.7393526,9.0347991
node/10924087993,0,Medhanalem,,38.7517928,9.0552727
node/10924087994,0,Medhanalem,,38.7518851,9.0552441
node/10924087995,0,Chelote,,38.7497489,9.0520868
node/10924087996,0,Chelote,,38.7496604,9.0521299
node/10924087997,0,Shola,,38.746423,9.0479898
node/10924087998,0,Shola,,38.7465175,9.0480732
node/10924088002,0,St. George Church,,38.7516855,9.0385287
node/10924088003,0,St. George Church,,38.7518109,9.0385651
node/10924088004,0,Piassa,,38.7521881,9.0365922
node/10924116805,0,Piassa,,38.7533491,9.0341764
node/10924116806,0,Kechenie,,38.7492165,9.0650022
node/10924116808,0,Kechenie,,38.7497807,9.0652677
node/10924211089,0,Shegole,,38.7268465,9.0639755
node/10924211090,0,Shegole,,38.7269586,9.0640548
node/10924211093,0,Rufael,,38.7274953,9.0590346
node/10924211094,0,Rufael,,38.7274376,9.0590438
node/10924211095,0,Tureta Deldy,,38.7329754,9.0544658
node/10924211096,0,Tureta Deldy,,38.7330307,9.054531
node/10924211097,0,Enqulal Fabrica,,38.7377403,9.0492619
node/10924211098,0,Enqulal Fabrica,,38.7378298,9.0492678
node/10924212637,0,Ras Desta,,38.7440337,9.0444679
node/10924212638,0,Ras Desta,,38.7439161,9.0444022
node/10924212640,0,Sebara Babur,,38.7483682,9.0375917
node/10924212641,0,Abune Petros,,38.749271,9.0358617
node/10924212642,0,Abune Petros,,38.7494119,9.0359205
node/10924212643,0,Yohanes,,38.7458165,9.04258
node/10924212644,0,Yohanes,,38.7459326,9.0426863
node/10924342466,0,Shola Abyssinia Bank,,38.79823,9.0230837
node/10924342467,0,British Embassy,,38.7854804,9.0307347
node/10924342468,0,Menelik II Hospital,,38.7730468,9.0385889
node/10924342469,0,Menlik Hospital,,38.7728666,9.0385052
node/10924342470,0,6 Kilo,,38.761858,9.0437871
node/10924342471,0,6 Kilo,,38.7613161,9.0453786
node/10924981547,0,Piassa,,38.7527884,9.0352542
node/10924981836,0,Kazanchis,,38.7714084,9.0168504
node/10924981837,0,Kazanchis,,38.7712817,9.0167816
node/10924981839,0,Meneharya,,38.767286,9.0199981
node/10924981840,0,6 Kilo,,38.7614317,9.0462061
node/10924981841,0,6 Kilo,,38.7615616,9.046202
node/10925096455,0,6 Kilo (Lion Zoo),,38.7613028,9.0430636
node/10925096457,0,Medhanalem,,38.7621679,9.0509212
node/10925096458,0,Shiromeda,,38.7616364,9.0609308
node/10925096459,0,Shiromeda,,38.7618074,9.0610296
node/10925161777,0,Abune Petros,,38.7493321,9.0350989
node/10925161778,0,Abune Petros,,38.7492809,9.0353615
node/10925161780,0,St. George Total,,38.7526253,9.0385895
node/10925161781,0,Raguel Church,,38.7411822,9.0338335
node/10925161782,0,Raguel Church,,38.7413278,9.0340374
node/10925161783,0,Piassa,,38.7491307,9.0352768
node/10925161784,0,Piassa,,38.749266,9.0350881
node/10925195639,0,Mexico,,38.7462619,9.0115722
node/10925695034,0,Winget,,38.7130281,9.0572967
node/10925695035,0,Winget,,38.7136024,9.0576478
node/10925835130,0,Shegole,,38.7201372,9.0630668
node/10925835131,0,Shegole,,38.7201639,9.0630578
node/10925835153,0,Medhanalem,,38.7226821,9.051016
node/10925835154,0,Medhanalem,,38.7228048,9.0512021
node/10925835155,0,Pawlos Hospital,,38.7275912,9.047368
node/10925835156,0,Pawlos Hospital,,38.7277025,9.0474739
node/10925835157,0,Pastor,,38.7306013,9.0462435
node/10925835158,0,Pastor,,38.7305979,9.0460773
node/10925835159,0,Michael,,38.7324674,9.041653
node/10925835160,0,Michael,,38.732621,9.0418749
node/10925835161,0,Autobus Tera,,38.731876,9.0356953
node/10925835162,0,Autobus Tera,,38.731937,9.0357033
node/10925946103,0,Summit Condominiums,,38.8548285,8.9844426
node/10925946104,0,Summit Condominiums,,38.8525995,8.9909634
node/10925966505,0,Meshageria,,38.8598883,9.0206981
node/10925966506,0,Derartu Adebabay,,38.8751635,9.0212039
node/10925966507,0,Derartu Adebabay,,38.8751433,9.0215357
node/10925966508,0,Gebreal,,38.8773377,9.0403679
node/10925966509,0,Gebreal,,38.8778174,9.0402783
node/10925966510,0,Aba Kiros,,38.8778648,9.0556843
node/10925966511,0,Aba Kiros,,38.8785325,9.0561259
node/10926028111,0,Bole Arabsa,,38.8903446,8.9732139
node/10926028112,0,Bole Arabsa,,38.8904415,8.9726305
node/10926028113,0,Maseltegna,,38.8850892,8.9932453
node/10926028114,0,Maseltegna,,38.8854551,8.9932023
node/10926028115,0,Sun shine,,38.8780839,9.0100814
node/10926028116,0,Sun shine,,38.8779385,9.0100956
node/10926028117,0,Ayat,,38.8770142,9.0215285
node/10926040103,0,Mariam,,38.8848989,8.9875932
node/10926040104,0,Mariam,,38.8852531,8.9875847
node/10926074605,0,Ayat,,38.8767405,9.0212341
node/10926094674,0,Summit Condominiums,,38.8529201,8.9910294
node/10926094675,0,Megenagna,,38.8033659,9.0195894
node/10926817920,0,Megenagna,,38.8038784,9.0203394
node/10926817921,0,Tafo Square,,38.8779123,9.057063
node/10926817922,0,Tafo Square,,38.8780073,9.0566681
node/10926849848,0,Sun shine,,38.8763861,9.0021737
node/10926849849,0,Summit Chafe,,38.8537813,9.0011674
node/10926849850,0,Summit Chafe,,38.8537842,9.0015569
node/10926849851,0,Goro,,38.8299549,8.9918731
node/10926849852,0,Goro,,38.8303813,8.9917194
node/10926896755,0,Se'alite Mihret,,38.8256621,9.0194791
node/10926896756,0,Se'alite Mihret,,38.8254269,9.0198404
node/10926896757,0,Ayat Chefe Condominium,,38.8944977,9.0109362
node/10926896758,0,Ayat Chefe Condominium,,38.8946434,9.0113892
node/10928177661,0,Ayat,,38.8758009,9.0207778
node/10928876312,0,Summit Condominiums,,38.854445,8.9846036
node/10928876313,0,Summit Condominiums,,38.8548242,8.9844416
node/10929299420,0,Tewodros Square,,38.751565,9.0273248
node/10929299421,0,Tewodros Square,,38.7517149,9.0273553
node/10929299422,0,Tikur Anbesa,,38.7480915,9.0209798
node/10929337801,0,Mexico,,38.7449001,9.0105347
node/10929337802,0,Stadium,,38.7559408,9.0119557
node/10929337803,0,Stadium,,38.7559437,9.0121328
node/10929412718,0,Megenagna,,38.8009614,9.0195364
node/10929412719,0,Megenagna,,38.8005907,9.0190569
node/10929412721,0,22 Mazoria,,38.787267,9.0155693
node/10929694820,0,Lem Hotel,,38.7940688,9.0211986
node/10929694821,0,Lem Hotel,,38.7939939,9.0210828
node/10929694822,0,Signal,,38.7815067,9.0235014
node/10929694823,0,Signal,,38.781471,9.0233755
node/10929694824,0,Abuare Gebeya,,38.7718347,9.0280712
node/10929694825,0,Abuare Gebeya,,38.7718123,9.0279894
node/10929694826,0,Tewodros Square,,38.7520638,9.0270034
node/10929694827,0,Tewodros Square,,38.7520149,9.0268625
node/10929694828,0,Tekle Haimanot,,38.744541,9.0285216
node/10929694829,0,Tekle Haimanot,,38.74454,9.0284531
node/10929694830,0,Megenagna,,38.8009431,9.020064
node/10929694831,0,Megenagna,,38.8005994,9.0200336
node/10929752934,0,Torhayloch,,38.7209032,9.0127448
node/10931788261,0,Megenagna,,38.7998465,9.0225048
node/10931788262,0,Megenagna,,38.8010821,9.021325
node/10931809323,0,Kotebe,,38.8385778,9.0303308
node/10931809324,0,Se'alite Mihret,,38.8331547,9.0284671
node/10931809325,0,Se'alite Mihret,,38.833187,9.0283689
node/10931809326,0,Lamberet,,38.8139293,9.0216042
node/10931809327,0,Lamberet,,38.813953,9.0214909
node/10931809328,0,Kara,,38.8642169,9.0404534
node/10931809329,0,Kara,,38.864319,9.0404001
node/10931809330,0,Megenagna,,38.8015712,9.0216983
node/10931850027,0,Megenagna,,38.799743,9.0224128
node/10931850028,0,Kokebe Tsebah (Kebena),,38.7799581,9.0344299
node/10931884718,0,4 Kilo,,38.7628341,9.036142
node/10931884719,0,Ferensay,,38.7769686,9.0571169
node/10931884720,0,Ferensay,,38.7769596,9.0570142
node/10931884721,0,Mezan,,38.7722195,9.0535366
node/10931884722,0,Mezan,,38.7721316,9.0535794
node/10931884723,0,Jan Meda,,38.7690665,9.0470261
node/10931884724,0,Jan Meda,,38.7690208,9.0471196
node/10931937848,0,Megenagna,,38.8021444,9.0180915
node/10931937849,0,Kadisco,,38.766754,8.9633989
node/10931995346,0,Kebena,,38.776629,9.0347501
node/10932040828,0,6 Kilo,,38.7618099,9.0435664
node/10932040829,0,St. George Total,,38.7526555,9.0386325
node/10932040830,0,St. George Total,,38.7527659,9.038614
node/10932115661,0,Lem Hotel,,38.7950974,9.017586
node/10932115662,0,Lamberet,,38.8198719,9.0239221
node/10932115666,0,Mexico,,38.7471612,9.0107374
node/10932115667,0,Mexico,,38.7467607,9.0104411
node/10933668851,0,Shola Gebeya,,38.796095,9.0249902
node/10933668852,0,Shola Gebeya,,38.7963986,9.0253078
node/10933668868,0,Beg Tera,,38.8021516,9.0290044
node/10933668869,0,Beg Tera,,38.802143,9.0289126
node/10933668870,0,Zebera,,38.8093843,9.0315916
node/10933668871,0,Zebera,,38.8094344,9.0314928
node/10933668873,0,Kidane Mihret,,38.818742,9.0355162
node/10933668874,0,Kidane Mihret,,38.8186176,9.0355971
node/10933970678,0,St. Urael Church,,38.7750759,9.0113969
node/10933970679,0,St. Urael Church,,38.7752362,9.0110384
node/10934121405,0,Atlas,,38.7797684,9.004269
node/10934121406,0,Atlas,,38.779678,9.0041884
node/10934121407,0,St. Urael Church,,38.7748368,9.0103387
node/10934121408,0,St. Urael Church,,38.7749361,9.0104642
node/10934142102,0,Kera,,38.7518505,8.9843274
node/10934142103,0,Kera,,38.7515846,8.9840695
node/10934274056,0,4 Kilo,,38.7632997,9.0324426
node/10934274058,0,St. Estifanos,,38.762845,9.012454
node/10934274059,0,Buna Ena Shay,,38.7482685,9.0109591
node/10934274060,0,Buna Ena Shay,,38.748215,9.0106827
node/10936313832,0,4 Kilo,,38.7645933,9.032283
node/10936313833,0,4 Kilo,,38.7648081,9.0323383
node/10936490562,0,Sebategna,,38.7321818,9.0289759
node/10936490563,0,Sebategna,,38.7322093,9.028913
node/10936490564,0,Amanuel Total,,38.7211312,9.0258457
node/10936490565,0,Amanuel Total,,38.721144,9.0258301
node/10936621813,0,Winget,,38.7131944,9.0576027
node/10936724096,0,Enqulal Fabrica,,38.7375414,9.0486146
node/10936724097,0,Enqulal Fabrica,,38.7377157,9.0485559
node/10937101933,0,karl Square,,38.731079,8.9975486
node/10937167108,0,6 Kilo,,38.7610795,9.0442105
node/10937167109,0,6 Kilo,,38.7614376,9.0442026
node/10937209934,0,Kera,,38.7484685,8.9877236
node/10937271651,0,Kechenie,,38.7497785,9.0652788
node/10961301939,0,Mesalemia,,38.7252968,9.033877
node/10961301940,0,Mesalemia,,38.7255313,9.0339779
node/10961301941,0,Merkato,,38.7312096,9.0338527
node/10961301942,0,Merkato,,38.7312282,9.0337645
node/10961408041,0,Tekle Haimanot,,38.7433286,9.028926
node/10961408042,0,Abuare Roundabout,,38.7757907,9.0264526
node/10961408043,0,Abuare Roundabout,,38.7759091,9.0265186
node/10961408397,0,Keranio Adebabay,,38.7007101,9.0178983
node/10961408398,0,Mendida,,38.7004401,9.014972
node/10961408399,0,Mendida,,38.7004576,9.0151204
node/10963292174,0,Bole Medhanyalem,,38.7860616,8.9983425
node/10963292175,0,Bole Medhanyalem,,38.7862416,8.9984526
node/10963817572,0,Weybla Mariam,,38.688451,9.0231558
node/10963817573,0,Weybla Mariam,,38.6882249,9.0233344
node/10963932669,0,22 Mazoria,,38.7889432,9.0159879
node/10964879159,0,Bisrate Gebrael,,38.7226406,8.9884101
node/10970584167,0,Luwkanda,,38.7086432,9.0333084
node/10970584168,0,Luwkanda,,38.7086485,9.0332835
node/10970584169,0,18 Mazoria,,38.7126753,9.0335266
node/10970584170,0,18 Mazoria,,38.7126794,9.0335023
node/10970584171,0,Abysinia Coffee,,38.7164132,9.0372905
node/10970584172,0,Abysinia Coffee,,38.7164416,9.037294
node/10970748190,0,18 Mazoria,,38.7149465,9.0337305
node/10970748192,0,4 Menta Adebabay,,38.7087797,9.0515413
node/10970748193,0,4 Menta Adebabay,,38.7088057,9.0514981
node/10970748194,0,Tero Mosque,,38.7058937,9.0503697
node/10970748195,0,Tero Mosque,,38.7058901,9.0503743
node/10970823802,0,Sebategna,,38.7327781,9.0294218
node/10970823803,0,Sebategna,,38.732906,9.0294686
node/10970829160,0,Piassa Arada,,38.7492677,9.0350955
node/10970912911,0,Piassa Arada,,38.7535518,9.033556
node/10970912912,0,Rufael,,38.6992026,9.0542225
node/10970912913,0,Rufael,,38.6992201,9.0542148
node/10973319411,0,Selefia Mosque,,38.6737826,8.9922493
node/10973319412,0,Selefia Mosque,,38.6737682,8.9922388
node/10973319413,0,Piassa Arada,,38.7498429,9.0343357
node/10973319414,0,Piassa Arada,,38.749831,9.0343492
node/10973319416,0,Shiromeda,,38.7606274,9.0610285
node/10973319417,0,Shiromeda,,38.760666,9.0610076
node/10973446898,0,Akaki Gebeya,,38.7886493,8.8697296
node/10973446899,0,Akaki Gebeya,,38.7886284,8.8697306
node/10973446900,0,Meshualekya,,38.7864676,8.8769296
node/10973631794,0,Mebrathayil,,38.734517,8.9482942
node/10973631795,0,Mebrathayil,,38.7344951,8.9481457
node/10973631797,0,Lafto,,38.7443373,8.9473757
node/10973672014,0,Yeshi Total,,38.798935,8.8667554
node/10973929780,0,Megenagna,,38.8028464,9.0206661
node/10973929781,0,Biretabret,,38.8234705,9.0339313
node/10973929783,0,Hanna Mariam,,38.8316053,9.0375694
node/10973929784,0,Hanna Mariam,,38.8316071,9.037593
node/10973929786,0,Kotebe Teachers College,,38.8388573,9.0374618
node/10973929787,0,Kotebe Gebriel,,38.8505525,9.0390977
node/10973929788,0,Kotebe Gebriel,,38.8505551,9.039072
node/10973960231,0,Kotebe,,38.8279461,9.0357328
node/10973960232,0,Kotebe,,38.8279666,9.035744
node/10973960233,0,Kebena,,38.7769466,9.0343234
node/10974036529,0,Yeka Abado,,38.8735567,9.0637787
node/10974036530,0,Yeka Abado,,38.8734371,9.0638007
node/10989247669,0,Taxi Tera,,38.8092174,8.9948109
node/10989247670,0,Bole Bridge,,38.7945353,8.9888698
node/10989247671,0,Summit,,38.8517594,9.0048732
node/10989247672,0,Summit,,38.8520615,9.0050343
node/10989247673,0,Medhanalem,,38.838022,9.0005807
node/10989247674,0,Medhanalem,,38.8382224,9.0002413
node/10989306740,0,Bole Mickael,,38.7737291,8.9791887
node/10989306742,0,Bole Mickael,,38.7732491,8.979439
node/10989306744,0,Riventy,,38.798111,8.9647488
node/10989306745,0,Riventy,,38.7981165,8.9647649
node/10989322788,0,Lomi Meda,,38.6991226,9.0437261
node/10989322789,0,Philiphs,,38.7046602,9.0423415
node/10989322790,0,Philiphs,,38.7046599,9.0423523
node/10989322793,0,Atena Tera,,38.7116329,9.0417345
node/10989322794,0,Atena Tera,,38.7116327,9.0417198
node/10989352901,0,Atena Tera,,38.7128543,9.0418861
node/10989352903,0,Atena Tera,,38.7136815,9.0419946
node/10989352904,0,Kolfe,,38.7169566,9.037404
node/10989388405,0,Kolfe,,38.7170428,9.0373552
node/10989388406,0,Chid Tera,,38.7213864,9.0376969
node/10989388407,0,Chid Tera,,38.7215618,9.0375624
node/10989495135,0,Tourist Hotel,,38.760933,9.0339795
node/10989495136,0,Tourist Hotel,,38.7627083,9.0331899
node/10989495137,0,St. George Church,,38.7522109,9.0365466
node/10989495138,0,St. George Church,,38.7524292,9.0365649
node/10989606497,0,Amanuel Church,,38.723026,9.0280891
node/10989606498,0,Amanuel Church,,38.7230514,9.0280827
node/10989606501,0,Mesalemia,,38.7246409,9.0330957
node/10989606502,0,Mesalemia,,38.7246228,9.0330994
node/10989606503,0,Coca Cola,,38.729182,9.0170151
node/10989606504,0,Coca Cola,,38.7293902,9.0169029
node/10989700748,0,Tikur Anbesa,,38.7477611,9.0216869
node/10989700750,0,Tikur Anbesa,,38.7476433,9.0214822
node/10989765272,0,Megenagna,,38.8028176,9.0198621
node/10991706244,0,Tourist Hotel,,38.7619614,9.0331305
node/10991706246,0,Ambasader,,38.7538719,9.018399
node/10991706247,0,Ambasader,,38.7539744,9.0182782
node/10991763449,0,Manen,,38.7588533,9.0515112
node/10991763450,0,Manen,,38.7588598,9.0515112
node/10992050085,0,Selam Building,,38.776766,8.883961
node/10992073740,0,Saris Abo,,38.7693473,8.944348
node/10992247910,0,Selam Building,,38.7772664,8.883111
node/10992247911,0,Gelan Condominium,,38.768463,8.8801893
node/10992247913,0,Gelan Condominium,,38.7684764,8.8801651
node/10994789635,0,Breta bret,,38.7887302,8.8738823
node/10994942333,0,Akaki CBE,,38.7888076,8.867782
node/10994942334,0,Akaki CBE,,38.7887141,8.8679415
node/10995013009,0,Mexico,,38.7462885,9.0098456
node/10995013010,0,Lafto,,38.7443751,8.9470636
node/10995013013,0,Lafto (Mickael),,38.7504178,8.9537702
node/10995113524,0,Woyira Sefer,,38.7070388,9.0051854
node/10995113525,0,Woyira Sefer,,38.7068721,9.0050595
node/10996939227,0,Total 3 Kutir mazoria,,38.7170312,8.9932233
node/10997112356,0,Mebrat,,38.7486669,8.9671943
node/10997112357,0,Mebrat,,38.7487468,8.9671522
node/10997112358,0,Biharetsege,,38.7515775,8.9621911
node/10997112359,0,Biharetsege,,38.7515885,8.9622089
node/10997112361,0,Adey Abeba,,38.7631284,8.9576758
node/10997112362,0,Adey Abeba,,38.7631332,8.9576954
node/10997112364,0,Gofa Gebriel,,38.7488713,8.9758799
node/10997112365,0,Gofa Gebriel,,38.7489751,8.9758721
node/10997125769,0,Abenet,,38.7332825,9.0196301
node/10997242295,0,Weleta,,38.6708623,8.963665
node/10997242296,0,Weleta,,38.6708779,8.9636677
node/10997242298,0,Weleta Tele,,38.6731812,8.9666342
node/10997242299,0,Repi Highschool,,38.6774372,8.9764681
node/10997242300,0,Repi Highschool,,38.6774017,8.9765185
node/10997243557,0,Sara Ampol,,38.8741609,9.0576594
node/10997243558,0,Sara Ampol,,38.874351,9.0575648
node/10997243559,0,Kara Condominium,,38.8693718,9.0480764
node/10997243560,0,Kara Condominium,,38.8695015,9.0480356
node/10997360870,0,Torhayloch,,38.7207531,9.0107982
node/10997382833,0,Mexico,,38.7447026,9.0114511
node/10997382834,0,Mexico,,38.7445835,9.0114533
node/10997495133,0,Mexico,,38.7440492,9.01285
node/10997495134,0,Mexico,,38.74405,9.01282
node/10997495135,0,Darmar,,38.7345884,9.0163639
node/10998041498,0,Piassa Arada,,38.7545702,9.0329801
node/10998041499,0,Piassa Arada,,38.7537202,9.0334582
node/10998041503,0,Shola,,38.7949306,9.025295
node/10998041504,0,Shola,,38.7947575,9.0251357
node/11033818190,0,Kality Meneharia,,38.7722516,8.8954024
node/11033818192,0,Kality Maseltegna,,38.7642175,8.9361073
node/11033818193,0,AU (Mikael) Rounrdabout,,38.7406449,8.9994656
node/11033818195,0,Mexico,,38.7438741,9.0089885
node/11033818196,0,Mexico,,38.7440373,9.0089241
node/11033818197,0,Bulgaria Mazoria,,38.7474194,8.9945922
node/11033818199,0,Autobis Tera,,38.7373077,9.0316048
node/11033818200,0,Autobis Tera,,38.7377146,9.0299591
node/11033903482,0,Kera,,38.7483364,8.9864921
node/11034015157,0,Saris Abo,,38.7661144,8.9450004
node/11034015158,0,Piassa Arada,,38.7522899,9.0331054
node/11034015159,0,Piassa Arada,,38.7511155,9.0321742
node/11034031010,0,Autobis Tera,,38.7370369,9.03055
node/11034031011,0,Shero Meda,,38.7612633,9.0626384
node/11034031012,0,Tsehay Chora (ShiroMeda),,38.7598757,9.0583756
node/11034031013,0,Abune Petros,,38.7493262,9.0351037
node/11034054993,0,Kuskoam,,38.7572407,9.0777204
node/11034209866,0,Arat Kilo,,38.7654122,9.0321373
node/11034280233,0,Kara Kore,,38.6806691,8.9753965
node/11034280234,0,Ayer Tena,,38.6960927,8.9825611
node/11034280236,0,Kara Kore,,38.6805349,8.9753861
node/11034427397,0,Lion Zoo (PEPSI Kiosk),,38.7614325,9.0426561
node/11034427398,0,Abo Mazoriya,,38.777181,9.0571131
node/11034427399,0,Yeha,,38.7835816,9.0608545
node/11034427400,0,Gurara,,38.7880233,9.0622785
node/11034427401,0,Gurara,,38.7888027,9.0624066
node/11034511605,0,Saris,,38.7634093,8.9535755
node/11034511606,0,Saris,,38.7636248,8.9535945
node/11034611751,0,Autobis Tera,,38.7371486,9.0296904
node/11034647605,0,Megenagna,,38.8004821,9.0221498
node/11035234709,0,Torhailoch,,38.7220211,9.0115667
node/11035240260,0,Chid Tera,,38.7214866,9.0376857
node/11035502832,0,Ayer Tena,,38.6971291,8.9837379
node/11035502833,0,Ayer Tena,,38.7015659,8.9836981
node/11035532608,0,Bisrate Gebrael,,38.7255627,8.9914198
node/11035607129,0,Zenebewerk Hotel,,38.7682089,9.0191017
node/11035607130,0,Estifanos,,38.7636411,9.0107497
node/11035607131,0,Lideta Condominium,,38.7386025,9.0109263
node/11035662205,0,Zenebework,,38.7080773,8.9882771
node/11035734852,0,Darmar,,38.7377271,9.0165403
node/11035734855,0,Hana Maryam,,38.7418753,8.9270084
node/11035818337,0,Bercheko Condominium,,38.700756,9.058672
node/11035914858,0,Alem Gena,,38.6529741,8.9231915
node/11035914859,0,Noc,,38.6701962,8.9494175
node/11035914860,0,Noc,,38.6699835,8.9490541
node/11035914861,0,Welete Tele,,38.6732105,8.9665643
node/11035914862,0,Welete,,38.6708945,8.9635929
node/11035914863,0,Weleta,,38.6707668,8.9641803
node/11035914864,0,Weleta Tele,,38.6731872,8.9666144
node/11035914865,0,Ayer Tena,,38.6967597,8.9834038
