stop_id,location_type,stop_lon,stop_name,stop_lat,parent_station
relation/10550061,1,38.73733835,official name,9.03018495,
way/604046026,0,38.8504558,C.M.C,9.0210263001,
way/604046027,0,38.85044875,C.M.C,9.0209365501,
way/604046028,0,38.86039005,Meri,9.0206309001,
way/604046029,0,38.86039745,Meri,9.0205342501,
way/604046052,0,38.8717948,Ayat,9.0212283001,
way/604046053,0,38.87179745,Ayat,9.0211369001,
way/758915882,0,38.8426211,St. Michael,9.0213594001,
way/758915883,0,38.8426345,St. Michael,9.0214511001,
way/758919087,0,38.8284090499,Management Institute,9.0208269001,
way/758919088,0,38.8283603999,Management Institute,9.0209051001,
way/758919089,0,38.83479945,Civil Service College,9.0216842501,
way/758919090,0,38.83479775,Civil Service College,9.0217686501,
way/758922739,0,38.76879995,Bambis,9.0104366001,
way/758922740,0,38.76877485,Bambis,9.0103406001,
way/758922741,0,38.77470515,St. Urael,9.01099095,
way/758922742,0,38.7832101499,Hayahulet 2,9.0148321501,
way/758922743,0,38.7832128499,Hayahulet 2,9.0149132501,
way/758922744,0,38.7893457,Hayahulet 1,9.0161997001,
way/758922745,0,38.7893058,Hayahulet 1,9.0162805001,
way/758922746,0,38.7959009999,Lem Hotel,9.0178812001,
way/758922747,0,38.7958714999,Lem Hotel,9.0179702501,
way/758922751,0,38.8026662,Megenagna,9.0196319001,
way/758922752,0,38.81016615,Gurd Sholla 2,9.0201812501,
way/758922753,0,38.8101826,Gurd Sholla 2,9.0202704501,
way/758922754,0,38.8199118,Gurd Sholla 1,9.0190550501,
way/758922755,0,38.8199363,Gurd Sholla 1,9.0191373501,
way/758926923,0,38.7228792001,Tor Hailoch,9.0114466001,
way/758926924,0,38.7228400001,Tor Hailoch,9.0113509001,
way/758926925,0,38.72925215,Cocacola,9.0120903001,
way/758926926,0,38.72924475,Cocacola,9.0120082001,
way/758926927,0,38.7358812,St. Lideta,9.0113260501,
way/758926928,0,38.735902,St. Lideta,9.0114191001,
way/758926929,0,38.74251165,Tegbared,9.0104883001,
way/758926930,0,38.74252605,Tegbared,9.0105720501,
way/758926931,0,38.7486780499,Mexico,9.0110042001,
way/758926932,0,38.7486304499,Mexico,9.0111035001,
way/758926933,0,38.75364485,Leghar,9.0118976001,
way/758926934,0,38.7536616,Leghar,9.0118055501,
way/758926935,0,38.75765945,Stadium,9.0119426001,
way/758926936,0,38.75768125,Stadium,9.0120396501,
way/758926937,0,38.7633933,St. Estifanos,9.0110094501,
way/758926938,0,38.7634148,St. Estifanos,9.0110866501,
way/759354435,0,38.7383589,Gojam Berenda,9.0341520001,
way/759354436,0,38.73838775,Gojam Berenda,9.0342421001,
way/759354437,0,38.7469346,Atikilt Tera,9.0345698501,
way/759354438,0,38.7469217,Atikilt Tera,9.0346634001,
way/759359409,0,38.7631070001,Kality,8.938011,
way/759359410,0,38.7630034001,Kality,8.93795435,
way/759359411,0,38.7663008501,Abo Junction,8.94501825,
way/759359412,0,38.7662190501,Abo Junction,8.9449765,
way/759359413,0,38.7634466333,Saris,8.9519971333,
way/759359414,0,38.7633591333,Saris,8.9519912333,
way/759359415,0,38.76388145,Adey Abeba,8.9567954,
way/759359416,0,38.76379965,Adey Abeba,8.9568021,
way/759359417,0,38.75926535,Lancha,8.9903485,
way/759359418,0,38.75916345,Lancha,8.9903366,
way/759359419,0,38.7598284334,Temenja Yazh,8.9952452,
way/759359420,0,38.7597271667,Temenja Yazh,8.9952399,
way/759359421,0,38.7587088,Riche,9.0005732,
way/759359422,0,38.7586096,Riche,9.00058575,
way/759359423,0,38.7588805,Meshwalekya,9.00485825,
way/759359424,0,38.7587524,Meshwalekya,9.00486215,
way/759359425,0,38.73475,Darmar,9.0154149,
way/759359426,0,38.73466315,Darmar,9.01542485,
way/759359427,0,38.73335125,Abnet,9.0212786,
way/759359428,0,38.73341865,Abnet,9.0212687,
way/759359429,0,38.73298775,Sebategna,9.0283819,
way/759359430,0,38.7330763,Sebategna,9.0284011,
way/759359431,0,38.7329878,Autobus Tera,9.0340910501,
way/759359432,0,38.7329908,Autobus Tera,9.0340079501,
way/759365358,0,38.7607979501,Nifas Silk 2,8.9731988,
way/759365359,0,38.7606849501,Nifas Silk 2,8.97316965,
way/759365360,0,38.7629963,Nifas Silk 1,8.9657149,
way/759365361,0,38.7628904,Nifas Silk 1,8.96571355,
node/847244293,0,38.7525538,Beherawi Theatre,9.0165395,
node/847244423,0,38.7521415,Black Lion,9.0209237,
node/4832025024,0,38.7632408,4 Kilo,9.0344007,
node/4884374622,0,38.8158571,Lamberet Terminal (Bus),9.0223057,
node/5248250425,0,38.738182,Sar Bet (Roundabout),8.9929728,
node/5330678521,0,38.7553162,Ambassador,9.0164409,
node/5736089088,0,38.7570615,A.A. Natoinal Stadium,9.0120865,
node/6251054285,0,38.7146778,Mebrathail,9.0295451,
node/6307600909,0,38.6928185,Asko,9.0654733,
node/6373574986,0,38.7718334,Bole Printing Press,8.9976331,
node/6728583386,0,38.7516761,Arada,9.0331479,
node/6814022390,0,38.7444332,Mexico,9.0094665,
node/6967142984,0,38.7438796,Mebrat Condominium,8.9644773,
node/6967165728,0,38.7486643,Mebrat,8.9673396,
node/6967179322,0,38.7491221,Gofa Gebriel,8.9771232,
node/6967179323,0,38.7498599,Kera (Gofa Road),8.9825519,
node/6967225474,0,38.7516602,Tewodros Square,9.0277111,
node/6967234177,0,38.732897,German Square,8.9655968,
node/6967281153,0,38.7859995,Friendship Building,8.9899905,
node/6967281241,0,38.7512565,Piassa (Downtown Cafe),9.0319356,
node/6967281242,0,38.7526242,Piassa Arada (2),9.0330123,
node/6967318740,0,38.6217166,Gojo,9.0418236,
node/7022361366,0,38.8026673,Megenagna Terminal,9.0203188,
node/7022397409,0,38.7897496,Bole Millenium,8.9885373,
node/7022397410,0,38.789886,Bole Millenium,8.9887535,
node/7022397411,0,38.8267584,Goro School,8.9937973,
node/7022397416,0,38.8906061,Bole Arabsa,8.9720161,
node/7022397417,0,38.8903477,Bole Arabsa,8.9732168,
node/7022397418,0,38.8785675,Aba Kiros Roundabout,9.0561038,
node/7022397420,0,38.875565,Yeka Abado G13,9.0689298,
node/7022397421,0,38.8756232,Yeka Abado G13,9.0688377,
node/7037142410,0,38.7894476,Gurara,9.0626109,
node/7037142417,0,38.8000289,Marathon Motor (Megenagna),9.0224201,
node/7037142419,0,38.7836264,Yeha,9.060739,
node/7037142420,0,38.7839285,Tena Tabya,9.0608445,
node/7037142421,0,38.7811505,Biret Dildiy (Bono Wuha),9.0598571,
node/7037142423,0,38.7797667,Atlas,9.0042786,
node/7037142424,0,38.7860596,Bole Medhanialem,8.9983386,
node/7037142426,0,38.7862428,Bole Medhanialem,8.9984556,
node/7037142428,0,38.7866932,Dinberwa Hospital,9.0221273,
node/7037142430,0,38.7802113,Kokebe Tsebah School,9.0345238,
node/7037142431,0,38.7799476,Kokebe Tsebah School,9.034441,
node/7037142433,0,38.7839469,Belgium Embassy,9.031876,
node/7037142434,0,38.784892,British Embassy,9.0311083,
node/7037142435,0,38.7855544,British Embassy,9.0309087,
node/7037142436,0,38.7887162,Abebe Sook,9.0287538,
node/7037142438,0,38.7952986,Shola Gebeya,9.0250779,
node/7037142439,0,38.7961373,Yeka Michael,9.0244101,
node/7037142441,0,38.8021491,Megenagna,9.0180934,
node/7037142442,0,38.8017521,Megenagna,9.0182711,
node/7037142444,0,38.7838409,Gelan Condominium,8.8857631,
node/7037142445,0,38.7856311,08 Adarash,8.8844583,
node/7037142446,0,38.7866432,Meshuwalekia Akaki,8.8769042,
node/7037142448,0,38.7887564,Akaki Beretaberet,8.8738867,
node/7037142450,0,38.8207065,G7 (Tulu Dimtu),8.870907,
node/7037142451,0,38.8198223,Tulu Dimtu (Adebabay),8.8736126,
node/7037142454,0,38.8042339,Tulu Dimtu,8.8552763,
node/7037142455,0,38.8041524,Tulu Dimtu,8.8556159,
node/7037142456,0,38.7961539,Akaki Korkoro,8.8597556,
node/7037142458,0,38.7987744,Belay Ab Moters (Alem Bank),8.8668237,
node/7037142459,0,38.8051915,Tulu Dimtu (Taf Gas Station),8.8688691,
node/7037142460,0,38.8136608,Arsema,8.8722685,
node/7037142462,0,38.8201689,Tulu Dimtu Adebabay,8.8747821,
node/7037142464,0,38.8218482,Project 12 Akababi,8.8658608,
node/7037142465,0,38.8148895,Mahiber Betoch,8.8592154,
node/7037142466,0,38.7912061,Bole Dildiy,8.9869933,
node/7037142467,0,38.8000136,Megenagna / Zefmesh,9.02034,
node/7037142469,0,38.8010592,Megenagna,9.0212969,
node/7037142470,0,38.8015921,Megenagna,9.0217137,
node/7037142471,0,38.8100422,Abysinia Cafe Area,9.0215363,
node/7037142472,0,38.810853,Abysinia Cafe Area,9.0213396,
node/7037142474,0,38.8132781,Century Mall,9.0196778,
node/7037142475,0,38.8215105,Gurd-shola,9.0187352,
node/7037142476,0,38.8192066,Menaheria,9.0239816,
node/7037142477,0,38.8192354,Menaheria,9.0238758,
node/7037142479,0,38.814876,Gerji Mebrat Haile,9.003632,
node/7037142483,0,38.8132574,Gerji Mebrat Haile,9.0037638,
node/7037142484,0,38.8251916,Lamberet,9.0253421,
node/7037183485,0,38.8271787,Lamberet Area,9.0258842,
node/7037183486,0,38.8273076,Lamberet Area,9.0260507,
node/7037183487,0,38.8271189,Lamberet Area,9.0259969,
node/7037183490,0,38.8294063,Yerer Goro,8.9913503,
node/7037183491,0,38.8292124,Yerer Goro,8.9913122,
node/7037183492,0,38.8265756,Se'alite Mihret Church,9.020263,
node/7037183493,0,38.82686,Management Institute,9.0203852,
node/7037183494,0,38.8273219,Sealite Mihret,9.0203048,
node/7037183495,0,38.8342032,Civil Service College,9.0216167,
node/7037183496,0,38.8414217,St. Michael,9.021312,
node/7037183497,0,38.8425033,St. Micheal Church,9.0215489,
node/7037183498,0,38.8331954,Salite Mihret,9.0283709,
node/7037183499,0,38.8333256,Hillside (Ethio-China Mebrathaile),9.0285264,
node/7037183501,0,38.838592,Wessen Michael,9.030459,
node/7037183504,0,38.8442968,Wessen,9.0330948,
node/7037183507,0,38.8446898,Wessen (Mariam),9.0330982,
node/7037183508,0,38.8466963,Kotebe Teachers College,9.0342084,
node/7037183509,0,38.8533863,Yabem Hotel,9.0357649,
node/7037183510,0,38.8545188,Kotebe Gebriel,9.036101,
node/7037183515,0,38.8539074,Yetebaberut,9.0207031,
node/7037183516,0,38.8603565,Meri,9.0207092,
node/7037183518,0,38.8610727,Meri (Yetebaberut),9.0205124,
node/7037183519,0,38.8686047,Ayat,9.0208331,
node/7037183520,0,38.8678248,Ayat Zone 2,9.0210633,
node/7037183521,0,38.8606002,Kara (Turn),9.0379427,
node/7037183523,0,38.8640163,Medhanalem Church,9.0401552,
node/7037183525,0,38.852259,Safari,9.0106828,
node/7037183527,0,38.8520658,Summit (MOHA),9.0043876,
node/7037183529,0,38.860685,Tena Tabeya,8.9941038,
node/7037183531,0,38.857405,Summit Condominiums,8.9863905,
node/7037183532,0,38.8582866,Gate 2,8.9894728,
node/7037183535,0,38.8719812,Ayat Train Station,9.0213287,
node/7037183536,0,38.872594,CMC,9.0211208,
node/7037183537,0,38.8767684,Ayat Square,9.0212396,
node/7037183538,0,38.8862575,Feres Bet,9.0216916,
node/7037183539,0,38.8946069,Police Tabia,9.0170704,
node/7037183540,0,38.891209,Tsebel,9.0222555,
node/7037183541,0,38.8902931,Bono Meskid,9.0219034,
node/7037183542,0,38.8946677,Ayat Chefe Condominium,9.0113906,
node/7037183543,0,38.8944878,Ayat Chefe Condominium,9.0109368,
node/7037183545,0,38.8767662,Nebu Mikael,9.0023517,
node/7037183546,0,38.8851706,Ayat Adebabay Hulet (2),8.9965746,
node/7037183547,0,38.8855436,Bole Arabsa (3),8.9963324,
node/7037183548,0,38.8851362,Bole Arabsa (2),8.9841602,
node/7037183550,0,38.8902717,Bole Arabsa,8.9733148,
node/7037183551,0,38.8849449,St. Gebereal,8.9654075,
node/7037183552,0,38.877919,Yeka Condominium 1,9.0354891,
node/7037183554,0,38.8777819,Tafo Gebrael,9.0381306,
node/7037183555,0,38.8779667,Tafo Condominium 1,9.0505157,
node/7037183557,0,38.8773973,Tafo Mebrathail,9.0425957,
node/7037183558,0,38.877866,Tafo Mebrathail,9.0427743,
node/7037183559,0,38.8779122,Tafo Condominium 2,9.0465834,
node/7037183561,0,38.8777974,Aba Kiros Roundabout,9.0557042,
node/7037183562,0,38.8705589,Kara Condominium,9.0501511,
node/7037183563,0,38.8647703,Yeka Abado,9.0666282,
node/7037183565,0,38.8737753,Sara Ampol (Gedera),9.0571811,
node/7037183567,0,38.8742538,Sara Ampol,9.0580264,
node/7037183569,0,38.8812971,Aba Kiros,9.0606875,
node/7037183570,0,38.8841651,Makefafeya,9.0630654,
node/7037183571,0,38.8892044,Gari Tera,9.0670494,
node/7037183572,0,38.8938058,CCD,9.0707009,
node/7037183573,0,38.8952147,140,9.0718221,
node/7037183574,0,38.9074861,Legedadi Mission,9.0818058,
node/7037183575,0,38.90832,Legedadi Mission,9.0821737,
node/7041052894,0,38.7771628,Selam Building,8.8832064,
node/7041052895,0,38.7768399,Gojo Hotel,8.8910898,
node/7041052896,0,38.7717913,Kality Meneharia,8.8958596,
node/7041052897,0,38.7668359,Cheralia Factory,8.9029458,
node/7041052898,0,38.7667452,Cheralia Factory,8.9029223,
node/7041052900,0,38.7638335,Kality Gebriel,8.9113422,
node/7041052901,0,38.7633323,Kality Prison,8.9124672,
node/7041052926,0,38.7417161,Gofa Camp,8.9713916,
node/7041052927,0,38.73129,Mekanisa (Old Revenues Office),8.9683942,
node/7041052928,0,38.7327236,German Square,8.9656974,
node/7041052930,0,38.7327953,German Bridge,8.9616036,
node/7041052932,0,38.7324437,Gebriel Bridge,8.9556239,
node/7041052934,0,38.7327233,Gebriel Bridge,8.955596,
node/7041052935,0,38.7339608,Mebrathile (EEPCo),8.9469471,
node/7041052936,0,38.7341955,Mekanisa School,8.9790248,
node/7041052937,0,38.7339384,Abo,8.9785916,
node/7041052938,0,38.7246092,Sheged Hotel,8.973373,
node/7041052939,0,38.720836,Jemo Michael,8.9673959,
node/7041052940,0,38.7209392,Jemo Michael,8.966996,
node/7041052942,0,38.7152564,Jemo YBP (All Mart),8.9614893,
node/7041052944,0,38.7123763,Jemo 1,8.9606358,
node/7041052945,0,38.7124284,Jemo 1,8.9604074,
node/7041052946,0,38.7084697,Mestawet Fabrica,8.9595125,
node/7041052948,0,38.7059934,Mestawet Fabrica,8.958513,
node/7041052949,0,38.6992718,Jemo 3,8.9564,
node/7041052950,0,38.6985348,Jemo 3,8.9556244,
node/7041052951,0,38.7077567,Zenebework,8.9866742,
node/7041052953,0,38.7272059,Mickael Bridge,8.9657858,
node/7041052954,0,38.6894646,Gerar,8.9813118,
node/7041052955,0,38.6852022,Repi (Gerar),8.9793804,
node/7041052959,0,38.7488548,Gofa Gebriel (2),8.9753751,
node/7041052962,0,38.7452732,JFK Building,8.9753633,
node/7041052965,0,38.7560783,MOHA (Pepsi Factory),8.9822682,
node/7041052966,0,38.7743852,Addis Sefer (Gebriel),8.9555778,
node/7041052967,0,38.77441,Addis Sefer (Gebriel),8.9555403,
node/7041052969,0,38.7600125,Gotera (Oilibiya),8.9762662,
node/7041052970,0,38.7598239,Gotera (Oilibiya),8.976182,
node/7041052975,0,38.7620577,St. Joseph Church,8.9697308,
node/7041052976,0,38.7623204,St. Joseph Church,8.9686822,
node/7041052977,0,38.7627885,kadisco Building,8.9659447,
node/7041052978,0,38.762999,kadisco Building,8.965927,
node/7041052979,0,38.7630788,Kadisco,8.9637596,
node/7041052980,0,38.7640609,Adey Abeba,8.9583017,
node/7041052982,0,38.7638459,Adey Abeba,8.9582595,
node/7041071286,0,38.7635583,Saris (CBE),8.9528662,
node/7041071287,0,38.7633266,Saris (CBE/Shoa Bakery),8.9527596,
node/7041071288,0,38.7637856,Universal Leather Factory,8.9500425,
node/7041071289,0,38.7661044,Abo Junction,8.9450003,
node/7041071290,0,38.7663069,Abo Junction,8.9450733,
node/7041071291,0,38.763132,Customs (Train Station),8.9380959,
node/7041071295,0,38.766627,Kality Maseltegna,8.9323275,
node/7041071296,0,38.7681616,Wehalemat,8.9298185,
node/7041071342,0,38.7478244,Bulgaria Mazoria,8.9950292,
node/7041071344,0,38.7475059,Begtera,8.9971703,
node/7041071347,0,38.7394459,AU (Mikael) Rounrdabout,8.9990638,
node/7041071348,0,38.7395945,AU (Mikael) Rounrdabout,8.9990569,
node/7041071350,0,38.7478465,Bulgaria,8.9937942,
node/7041071352,0,38.7595772,Global Hotel,8.9941475,
node/7041071353,0,38.7598183,Global Hotel,8.9941836,
node/7041071354,0,38.7596352,Beklo Bet (Global),8.9953383,
node/7041071355,0,38.7584812,Tele Garage,9.000141,
node/7041071356,0,38.7586986,Riche,9.0043253,
node/7041071359,0,38.7669535,6th (Raddison Blu),9.0166957,
node/7041071360,0,38.7572645,Filweha (Hotsprings),9.017718,
node/7041071362,0,38.7570579,Filweha (Hotsprings),9.0175554,
node/7041071364,0,38.7576145,Ghion Hotel (Enterance),9.0138328,
node/7041071366,0,38.758961,St. Joseph School,9.009822,
node/7041071367,0,38.7591876,St. Joseph School,9.0098008,
node/7041071370,0,38.7592761,St. Joseph School,9.0104995,
node/7041071371,0,38.7590434,Admas University College,9.0105316,
node/7041071372,0,38.7570112,Lalibela Hotel,9.0118612,
node/7041071374,0,38.7560438,Stadium,9.0121294,
node/7041071376,0,38.7545386,Legehar,9.011849,
node/7041071378,0,38.7533069,Legehar (Old Train Station),9.0109604,
node/7041071379,0,38.7529712,Legehar (Old Train Station),9.0105723,
node/7041071380,0,38.7461963,Mexico,9.0097755,
node/7041071382,0,38.7414166,African Union,9.0031416,
node/7041071383,0,38.7423863,Popolare,9.0053059,
node/7041071384,0,38.7466748,Guenet Hotel,9.0046908,
node/7041071385,0,38.74694,Guenet Hotel,9.0032786,
node/7041071386,0,38.7488977,Tikur Anbessa Hospital,9.0210743,
node/7041071387,0,38.7464317,Goma Quteba,9.0175858,
node/7041071388,0,38.7334947,Abenet,9.0214263,
node/7041071389,0,38.7345522,Lideta Condominium,9.0132791,
node/7041071390,0,38.7348248,Darmar,9.0157856,
node/7041071395,0,38.7152417,3 Kutir Mazoriya (Total),8.9925902,
node/7041071397,0,38.7184074,Minaye Building,8.995414,
node/7041071399,0,38.7191221,Old Airport (Mobil),8.9998642,
node/7041071400,0,38.7206897,Tor Hailoch,9.0099949,
node/7041071401,0,38.7100309,Keranio Mewcha,9.0133411,
node/7041071402,0,38.7159484,Holand,9.0213057,
node/7041071403,0,38.714954,Meseret Edget,9.0245409,
node/7041071404,0,38.7440603,Teklehaymanot,9.0278226,
node/7041071405,0,38.7458014,Kebele 11,9.0247481,
node/7041071406,0,38.75166,Tewodros Square,9.0262634,
node/7041071407,0,38.7517909,Tewodros Square,9.0263826,
node/7041071411,0,38.7521859,Black Lion,9.0218352,
node/7041071414,0,38.751592,National Theatre,9.0158768,
node/7041071415,0,38.7513097,National Theatre,9.0156938,
node/7041071416,0,38.7494881,A.A. Commercial College,9.0139102,
node/7041071418,0,38.7495568,A.A. Commercial College,9.0138228,
node/7041071419,0,38.7490599,Buna Ena Shay,9.0114261,
node/7041071423,0,38.7468862,Mexico Shebelle Hotel,9.0119916,
node/7041071425,0,38.7429038,TVET College (Tegbare'd),9.0105894,
node/7041071429,0,38.7426638,Federal Police (Tegbare'd),9.0103865,
node/7041071430,0,38.738603,Lideta (Balcha Hospital),9.0109303,
node/7041071431,0,38.7385604,Lideta (Balcha Hospital),9.0111161,
node/7041071432,0,38.7377839,Lideta Condominium,9.0112357,
node/7041071434,0,38.7338119,Dessie Hotel,9.0093091,
node/7041071437,0,38.733431,Lideta High Court,9.0115829,
node/7041071439,0,38.7293132,Hintsa College,9.0121559,
node/7041071441,0,38.7292339,Coca Cafe,9.0119411,
node/7041071444,0,38.7265458,Mekonenoch (Golf) Club,9.011282,
node/7041071446,0,38.7220202,Tor Hailoch Junction,9.0115616,
node/7041071447,0,38.7216866,Tor Hailoch,9.0119442,
node/7041071448,0,38.7206478,Tor Hailoch,9.0139112,
node/7041071449,0,38.7209168,Tor Hailoch,9.013939,
node/7041071450,0,38.7089411,Keranio Bridge,9.0194506,
node/7041071451,0,38.7049748,Medhanialem,9.0175679,
node/7041071452,0,38.7006446,Keranio Adebabay,9.0176634,
node/7041071453,0,38.6994971,Kokebe,9.0180779,
node/7041071454,0,38.6954056,Yeshi Debele,9.0195382,
node/7041071455,0,38.6957701,Yeshi Debele,9.0190748,
node/7041071459,0,38.7752596,St. Urael Church,9.0110433,
node/7041071461,0,38.766397,Salcost Apartments (NOC),9.0104908,
node/7041071462,0,38.7626376,St. Estifanos Church,9.0118738,
node/7041071464,0,38.7675809,St. Gebriel,9.0199107,
node/7041071465,0,38.7680315,Zenebewerk Hotel,9.0193852,
node/7041071466,0,38.7715231,Meles Zenawi Foundation,9.0206693,
node/7041071468,0,38.770643,Azmari Bet (Traditional Music Club),9.0194316,
node/7041071469,0,38.7702335,Kazanchis (6th),9.0166401,
node/7041071471,0,38.7638714,Hilton Hotel (Apartments),9.0196382,
node/7041071473,0,38.7772342,Women Square,9.0233468,
node/7041071474,0,38.7771738,Women Square,9.0234508,
node/7041071479,0,38.7633615,Ministry Of Education,9.0319312,
node/7041071480,0,38.7652099,Sellasie Church (4 Kilo),9.0321438,
node/7041071481,0,38.7728461,Bel Air,9.032458,
node/7041071482,0,38.7730493,Addis View Hotel,9.0324918,
node/7041071483,0,38.7730546,Menlik II Hospital,9.0385863,
node/7041071484,0,38.7719268,Menlik Hospital,9.0388201,
node/7041071579,0,38.7522608,St. George Church,9.036585,
node/7041071580,0,38.7524122,St. George Church,9.0363918,
node/7041071592,0,38.7523243,Piassa,9.0354406,
node/7041071594,0,38.7491242,Habtegiorgis Bridge,9.0352553,
node/7041071595,0,38.7438917,Kurtu Building,9.0343899,
node/7041071596,0,38.7437548,Kurtu Building,9.0341887,
node/7041071597,0,38.7434135,Pharmacy,9.0343321,
node/7041071598,0,38.737968,Gojam Berenda,9.0343947,
node/7041071599,0,38.7337775,Autobis Tera (3),9.0342308,
node/7041071600,0,38.7298446,Autobus Tera,9.03371,
node/7041071601,0,38.7294433,Darsema Grosery,9.0338533,
node/7041071604,0,38.7200106,Girum Hospital,9.04636,
node/7041071605,0,38.7212396,Woreda 7 TVET,9.0407262,
node/7041071606,0,38.7219216,Sefere Salam,9.0366318,
node/7041071607,0,38.7173824,Kolfe,9.037044,
node/7041071608,0,38.7164487,Abysinia Coffee,9.0373422,
node/7041071609,0,38.7151531,Degu Hotel,9.0338162,
node/7041071610,0,38.7130781,18 Mazoria,9.0335338,
node/7041071612,0,38.7135105,18 Mazoria,9.0335825,
node/7041071614,0,38.7093322,Luwkanda,9.0333303,
node/7041071615,0,38.704541,Comprensive,9.0340139,
node/7041071616,0,38.6951186,Realstate,9.0327975,
node/7041071619,0,38.6888917,Police Tabiya,9.034058,
node/7041071622,0,38.6853297,Feli Doro (3),9.0353789,
node/7041071628,0,38.7568178,Ras Mekonene Bridge (Seba Dereja),9.0389362,
node/7041071629,0,38.7625491,5 Kilo (History Museum),9.0385989,
node/7041071630,0,38.761951,5 Kilo University,9.0408311,
node/7041071633,0,38.7615693,Lion Zoo (PEPSI Kiosk),9.0427151,
node/7041071636,0,38.7603878,Yekatit 12 Hospital,9.0438891,
node/7041071637,0,38.7593176,Yeatit 12 Hospital,9.0436921,
node/7041071638,0,38.7527639,Red-Cross (St. George Total),9.0386136,
node/7041071639,0,38.7517494,St. George Church (Total),9.0386684,
node/7041071640,0,38.7488778,Semen Hotel,9.0436522,
node/7041071641,0,38.7482928,Semen Hotel,9.0446929,
node/7041071642,0,38.7461719,Kelemwerk,9.0486023,
node/7041071643,0,38.7458026,Kelemwerk,9.0488673,
node/7041071646,0,38.7433813,Semen Mazegaga,9.0523631,
node/7041071647,0,38.7424925,Semen Mazagaja,9.0537306,
node/7041071648,0,38.7200104,Shegole Bank,9.0541015,
node/7041071649,0,38.7277601,Pawlos Hospital,9.0474202,
node/7041071650,0,38.7221677,Finance,9.0514832,
node/7041071651,0,38.7220512,Medhanialem (TOTAL),9.0513651,
node/7041071653,0,38.7201878,Finance,9.0528369,
node/7041071654,0,38.7199027,Finance,9.0531245,
node/7041071655,0,38.7149847,Winget Chaf,9.0544244,
node/7041071660,0,38.7116367,Awolia,9.0576087,
node/7041071661,0,38.7067279,Gulele Fana,9.0577975,
node/7041071662,0,38.7065488,Gulele Fana,9.0582376,
node/7041071663,0,38.7034077,Berchiko,9.0593548,
node/7041071665,0,38.69045,Gebriel (Sansusi),9.0665816,
node/7041071719,0,38.7722233,Mezan,9.053538,
node/7041071721,0,38.7690705,3rd Shaleka,9.0470252,
node/7041071723,0,38.7615547,6 kilo (University),9.0461753,
node/7041071725,0,38.7622054,Meksaye Hizunan Medhanialem,9.0513004,
node/7041071726,0,38.7622236,Teferi Mekonen,9.052326,
node/7041071729,0,38.7625698,Sebseba Maekel,9.0541533,
node/7041071737,0,38.7715088,Eyesus,9.0649811,
node/7041071738,0,38.7680987,Hamle 19,9.0585516,
node/7041071749,0,38.7374387,Dil Ber,9.0710901,
node/7041071753,0,38.7204079,Anbessa Garage (Shegole),9.0638294,
node/7041071755,0,38.7230011,Entoto Kela,9.0843712,
node/7041071758,0,38.7095299,Weserbi Realestate,9.1051152,
node/7041071759,0,38.7147037,Classy Water,9.1095355,
node/7041071760,0,38.7158285,Medret Hotel,9.1100449,
node/7041071761,0,38.7300979,Kburea,9.1176074,
node/7041071762,0,38.7304557,Kenenisa,9.1179357,
node/7041071763,0,38.7395293,Shefunea,9.1273122,
node/7041071764,0,38.7397834,Shefine,9.1277902,
node/7041071772,0,38.7522344,Doro Erbata,9.1339361,
node/7041071773,0,38.7524529,Abo Gabriel,9.1341343,
node/7041071774,0,38.7549356,Tulu Fati,9.1408321,
node/7041071775,0,38.7538733,Ashewa,9.1449015,
node/7041071776,0,38.7542489,Tabya Hotel,9.1560016,
node/7047495429,0,38.738359,Sar Bet (Roundabout),8.9929589,
node/7047495432,0,38.6600221,United Bank (Ashewa Meda),9.0286142,
node/7047495433,0,38.7346499,Sefera,8.9208064,
node/7049122264,0,38.7443229,Lafto,8.9473775,
node/7049122265,0,38.7440895,Hana Mariam (2),8.935835,
node/7049122266,0,38.7345586,Haile Garment,8.9387647,
node/7049921444,0,38.8779866,Yekiber Demena Church,9.0304285,
node/7049921445,0,38.8024339,Megenagna Terminal,9.0204726,
node/7049921447,0,38.8759579,Hill Bottom (Recreation),9.0220882,
node/7049921448,0,38.8775474,Zone 8,9.0304125,
node/7054842410,0,38.7617178,6 Kilo,9.0476858,
node/7054842414,0,38.7617169,6 Kilo,9.0476498,
node/7055060064,0,38.7533495,Legehar (Old Train Station),9.0101478,
node/7055598734,0,38.8546711,Kotebe Gebriel,9.0359897,
node/7055598736,0,38.8299268,Ahmed Building,9.0269686,
node/7055598738,0,38.7579049,St. Mary Church,9.0363488,
node/7055598739,0,38.7535483,Piassa Arada,9.0335541,
node/7055598742,0,38.7534018,Piassa Arada,9.0327818,
node/7055598743,0,38.7579442,St. Mary Church,9.0363807,
node/7055598744,0,38.8307544,NOC End,9.0274541,
node/7056754511,0,38.8467717,Kotebe Teachers College,9.0341209,
node/7056754514,0,38.8732637,Meskelegna (Ababdo),9.0630764,
node/7056754516,0,38.8022361,Megenagna,9.020907,
node/7057002158,0,38.779674,Atlas,9.0041945,
node/7057002161,0,38.7528717,Piassa Arada,9.0329242,
node/7057002162,0,38.7568279,Ras Mekonene Bridge (Seba Dereja),9.0389386,
node/7057002163,0,38.7626361,Gibi Gebriel Church,9.0226675,
node/7057187392,0,38.7929906,Brass Clinic (Bole),8.9904207,
node/7057187393,0,38.7932003,Brass Clinic (Bole),8.9903142,
node/7062689844,0,38.7519784,St.Gorgis,9.0379471,
node/7062689845,0,38.751629,St. George Church (2),9.0358742,
node/7062689848,0,38.7549398,Piassa,9.0345896,
node/7062689850,0,38.764362,4 Kilo,9.0325203,
node/7062689851,0,38.7630946,4 Kilo,9.0344021,
node/7062689854,0,38.7636034,Education Bureau (6 Kilo),9.0441091,
node/7062689855,0,38.7690204,Jan Meda,9.0471236,
node/7062689856,0,38.7742742,Frensaye Kela,9.0557922,
node/7062689857,0,38.7736282,Frensaye Kela,9.0551762,
node/7062689858,0,38.7777387,Abo Mazoriya,9.0569998,
node/7062689859,0,38.7881845,Beret Dildye (Gurara),9.0623294,
node/7067942461,0,38.7608987,Mamo (NFSL TVET),8.9730894,
node/7067942462,0,38.7595747,Agona Cinema,8.988213,
node/7067942463,0,38.7597959,Agona Cinema,8.9882665,
node/7067942464,0,38.7593562,Concord Hotel,8.9899694,
node/7067942465,0,38.7587377,Tele Garage,9.0004682,
node/7067990019,0,38.7824519,Zerihun Building,9.0145395,
node/7070861696,0,38.7872174,SNAP Building,8.9897614,
node/7070861697,0,38.7844888,Friendship,8.9908557,
node/7070861698,0,38.7822311,Heber Restaurant,8.9917592,
node/7070861699,0,38.7791533,RWANDA (Werbek House),8.992295,
node/7070861701,0,38.7798477,Rwanda,8.9924,
node/7070861702,0,38.7723732,Bole Printing Press,8.9966227,
node/7070861703,0,38.7715908,Bole Printing Press,8.9976714,
node/7070861704,0,38.7708659,Mega Printing Press,8.9993469,
node/7070861705,0,38.7697078,Shewa Dabo,9.001132,
node/7070861706,0,38.7697673,Getu Commercial Center,9.0014126,
node/7070861707,0,38.7678519,Dembel City Center,9.004953,
node/7070861710,0,38.7634195,Flamingo,9.0100482,
node/7070861712,0,38.7527123,Piassa,9.0358425,
node/7070861713,0,38.8054033,Anbessa Garage,9.0074376,
node/7070861714,0,38.876525,Ayat Roundabout,9.0221276,
node/7070861716,0,38.8777949,Gebriel,9.0401288,
node/7074233342,0,38.7433527,Semen Mazegaja | ሰሜን ማዘጋጃ,9.0527134,
node/7074233343,0,38.7411604,Del Ber School,9.0559007,
node/7074233344,0,38.7379037,Adisu Gebeya,9.0592088,
node/7074233345,0,38.7355505,Kelebat,9.061605,
node/7074233346,0,38.7347909,Oilibiya (Dil Ber),9.0679367,
node/7074267433,0,38.7301845,Pastor,9.0463006,
node/7074267434,0,38.7228618,Medhanialem,9.051161,
node/7074267435,0,38.7138884,Winget,9.0554455,
node/7074269464,0,38.6101592,Kela,9.0576131,
node/7074269465,0,38.6101611,Kela,9.0576152,
node/7074275407,0,38.7481339,Semen Hotel,9.0452427,
node/7074294627,0,38.7484333,Kera,8.9866969,
node/7074299254,0,38.6922669,Asko,9.0653014,
node/7074324043,0,38.733098,Sebategna,9.0286512,
node/7074324044,0,38.7324012,Autobis Tera (2),9.0317912,
node/7074324045,0,38.7321005,Autobis Tera,9.0347276,
node/7074326525,0,38.7315967,Mekanisa,8.9733512,
node/7074326526,0,38.7343058,Abo Mazoria,8.9822244,
node/7074330387,0,38.8580841,Gate 2,8.9894962,
node/7074330389,0,38.8605382,Tena Tabeya,8.9942098,
node/7074330391,0,38.8602323,Condminium (Gate),8.9984544,
node/7074330392,0,38.8573283,Gomista,9.0014062,
node/7074330394,0,38.8517162,Summit (MOHA),9.0040839,
node/7074330397,0,38.8518265,Safari,9.0106601,
node/7074330400,0,38.820944,Alemayehu,8.999474,
node/7074330401,0,38.8196821,Alemayehu,9.0005663,
node/7074330403,0,38.8095474,Condominium,9.0050845,
node/7074330407,0,38.8287819,Ethio-china,9.026612,
node/7074330409,0,38.8643277,Kara,9.0403987,
node/7074347184,0,38.7010211,Chereta,9.0616842,
node/7074387585,0,38.6891038,Sansusi,9.0714003,
node/7074496216,0,38.6722328,Kersa (2),9.0285405,
node/7074496217,0,38.6653802,Ashewa Meda,9.0326531,
node/7074496218,0,38.6653823,Ashewa Meda,9.0326414,
node/7074496219,0,38.6569665,United Bank (Ashewa Meda),9.0258997,
node/7074496221,0,38.6515848,St. Gebriel,9.027689,
node/7074496222,0,38.6515743,St. Gebriel,9.0276843,
node/7074496225,0,38.6216778,Gojo,9.0417975,
node/7074504387,0,38.6776598,Alem Bank,9.0010346,
node/7074504388,0,38.6982583,Ayer Tena,8.9831312,
node/7074504390,0,38.6944335,Betel,9.0045877,
node/7074525370,0,38.7486994,Mebrat Nigist Hotel,8.9700751,
node/7074541084,0,38.7326808,Lideta Kefetega Firdbet,9.0116457,
node/7074561391,0,38.7363202,Haile Garment,8.9368661,
node/7074561392,0,38.7334502,Mebrathile (EEPCo),8.9493593,
node/7074561393,0,38.7544146,Hana Mariam,8.9309368,
node/7074561394,0,38.7444615,Hana Mariam (2),8.9361698,
node/7074561395,0,38.7448233,Meskelgna,8.95299,
node/7074585943,0,38.7514315,Piassa,9.0357438,
node/7074585944,0,38.7633143,Arat Kilo,9.0324015,
node/7074599697,0,38.759835,Beklo Bet (Global),8.9953761,
node/7074691520,0,38.7673017,Dembel City Center,9.0055846,
node/7074707878,0,38.7471393,Mexico,9.010735,
node/7074707880,0,38.7478601,ERA Office (Big Mak),9.0127963,
node/7074707881,0,38.7591385,Saint Josphe School,9.0092034,
node/7074707883,0,38.7628296,St. Estifanos Church,9.0124825,
node/7074819178,0,38.7607684,Mamo (NFSL TVET),8.9725713,
node/7074841188,0,38.7643672,Kality Maseltegna,8.9339802,
node/7075101457,0,38.7498569,Dildiy Mariam,8.9585362,
node/7075101459,0,38.7498944,Kera (Gofa Stop),8.9837243,
node/7075129253,0,38.7208842,Tor Hailoch,9.009717,
node/7075129254,0,38.7207996,Torhayloch,9.0117428,
node/7075129255,0,38.7222467,Tor Hailoch,9.0117788,
node/7076294502,0,38.7588986,Riche,9.0043941,
node/7076294503,0,38.7438551,Mebrat Condominium,8.9645236,
node/7076294504,0,38.7633289,Kadisco,8.9638868,
node/7076294505,0,38.7646677,Flamingo,9.0089349,
node/7076294507,0,38.8601035,Condminium (Gate),8.9984013,
node/7076294509,0,38.7325725,Michael (2),9.0418835,
node/7076294510,0,38.7612538,Shero Meda,9.0622823,
node/7076294511,0,38.7613619,Shero Meda,9.0618175,
node/7076294512,0,38.7369836,Del Ber,9.0716602,
node/7076294516,0,38.7613887,Shiromeda,9.0618235,
node/7076310930,0,38.7612093,6 Kilo (Akim Genbata),9.0447597,
node/7076310931,0,38.7612397,Shiromeda Anbessa bus stop,9.0626379,
node/7077424942,0,38.7619991,Medhanialem,9.0507372,
node/7077601626,0,38.7551039,Ambassador,9.0163885,
node/7077785205,0,38.8139111,Lamberet,9.0216085,
node/7077785207,0,38.8676583,G-7 (Meskelegna),9.0655587,
node/7077785208,0,38.8732834,Meskelegna (Ababdo),9.064013,
node/7077785209,0,38.8695121,Kara Condominium,9.0480304,
node/7077863009,0,38.7325536,Autobis Tera (2),9.031811,
node/7077863010,0,38.6833448,Tropical,8.9960545,
node/7077863012,0,38.6779208,Alem Bank,9.0003767,
node/7077863014,0,38.6830207,Tropical,8.9965876,
node/7077863015,0,38.6892387,Kidane Mihret,8.9923549,
node/7077863016,0,38.6941906,Bethel,9.004479,
node/7077863017,0,38.7004836,Mendida,9.0151128,
node/7077863018,0,38.7327417,Abinet,9.019638,
node/7077863019,0,38.7329768,Sebategna,9.0280905,
node/7078164250,0,38.7440208,Mexico,9.0088714,
node/7078164251,0,38.7349155,Haile Garment,8.9381825,
node/7078164254,0,38.7311018,Mekanisa,8.9729343,
node/7078164255,0,38.7345326,Abo Mazoria,8.9820586,
node/7078164256,0,38.7437936,Mexico,9.0088201,
node/7078406225,0,38.7323925,Autobis Tera (1),9.0330269,
node/7078406227,0,38.7090191,Zenebework,8.9876369,
node/7078406228,0,38.6949214,Ayer Tena,8.9822919,
node/7078406231,0,38.6817556,Kara Kore,8.9755975,
node/7078406235,0,38.6823873,Kara Kore,8.9763865,
node/7078406236,0,38.6939258,Ayer Tena (Gerar-Repi),8.9822452,
node/7078406237,0,38.6853911,Repi (Gerar),8.9795049,
node/7078406238,0,38.7051886,Zenebework (Crossing),8.9852814,
node/7078406239,0,38.715946,3 Kutir Mazoriya (Total),8.992776,
node/7078406240,0,38.7322299,Autobis Tera (1),9.0330007,
node/7080251773,0,38.8100534,Condominium,9.0049451,
node/7080251774,0,38.8268744,Goro School,8.993889,
node/7080251776,0,38.8056204,Anbessa Garage,9.0071789,
node/7080440194,0,38.7636615,Estifanos,9.0110366,
node/7080440195,0,38.7690578,BAMBIS,9.0104866,
node/7080440196,0,38.7752996,St. Urael Church,9.0115088,
node/7080440197,0,38.7823039,Lex Plaza,9.0147285,
node/7080440198,0,38.7896417,22 (Haya Hulet),9.0164226,
node/7080440200,0,38.8004816,Megenagna (Bethelhem Bldg.),9.0194097,
node/7080440203,0,38.8005914,Megenagna (CBE Bank),9.019032,
node/7080440204,0,38.7955696,Lem Hotel,9.0177169,
node/7080440205,0,38.7896635,22 (Haya Hulet),9.0162149,
node/7080440206,0,38.7694936,BAMBIS,9.0102033,
node/7080440208,0,38.7467585,Mexico,9.0104304,
node/7080527281,0,38.7522923,Piassa Arada (3),9.0331073,
node/7080527282,0,38.7462899,Mexico,9.0098462,
node/7080527284,0,38.7487773,Kera,8.9863213,
node/7080611085,0,38.7487535,Mebrat,8.96688,
node/7080611091,0,38.746773,Mexico Shebelle Hotel,9.0120423,
node/7080893992,0,38.7322629,Michael,9.0412736,
node/7080893993,0,38.732023,Autobis Tera,9.034717,
node/7080893994,0,38.7306587,Pastor,9.0460782,
node/7080893995,0,38.713458,Winget,9.0560646,
node/7080893996,0,38.7009781,Chereta,9.0613645,
node/7080894001,0,38.6891732,Sansusi,9.0715888,
node/7081034797,0,38.7785478,Abo Mazoriya,9.0574672,
node/7081034799,0,38.7640045,Education Bureau (6 Kilo),9.0441923,
node/7084255331,0,38.732915,Total (Dil Ber),9.0648091,
node/7084255333,0,38.7533521,Piassa Arada,9.0341775,
node/7084255334,0,38.7374497,Addisu Gebeya,9.0594855,
node/7084255335,0,38.733166,Tsion Cafe (Addisu Gebeya),9.0638908,
node/7084255336,0,38.7327389,Total (Dil Ber),9.0653883,
node/7084722454,0,38.7405402,Ummar School,9.0337517,
node/7084722456,0,38.7337992,Autobus Tera,9.0341036,
node/7084722457,0,38.7418327,Gojam Berenda (Tefera Buillding),9.0341305,
node/7084722458,0,38.7533374,Dej. Wube (Ras Abebe School),9.0404538,
node/7084722459,0,38.7544994,Wube Bereha,9.0440672,
node/7084722460,0,38.7588473,Menen,9.0515491,
node/7084722461,0,38.7598297,Tsehay Chora (ShiroMeda),9.0584002,
node/7084873006,0,38.7332661,Sebategna (Taem Bakery),9.0274958,
node/7084873007,0,38.7380924,Mola Maru (Jos Hansen),9.0188835,
node/7084873008,0,38.7382054,Geja Sefer (Darmar),9.0167149,
node/7084873009,0,38.7486804,Kera (Green Market),8.9856954,
node/7084873010,0,38.7518917,Kera (Mexico Stop),8.9841757,
node/7084873011,0,38.7560749,MOHA (Pepsi Factory),8.9824212,
node/7084873012,0,38.7635412,Saris (Shoa Bakery),8.9547202,
node/7084873013,0,38.7509324,Kera (Saris Stop),8.9844206,
node/7084873014,0,38.7469466,Guenet Hotel (Orbis),9.002055,
node/7084873015,0,38.736541,St. Lideta Church,9.0111972,
node/7084873016,0,38.733649,Abenet (Joshansen),9.0192478,
node/7084932737,0,38.7373207,Canada Embassy,8.9951157,
node/7084932738,0,38.7311778,Mechare Meda,8.9973163,
node/7084932739,0,38.7239615,Bisrate Gebrael,8.9892732,
node/7084932740,0,38.705264,Zenebework (Crossing),8.9850622,
node/7084932741,0,38.6960209,Ayer Tena (Alemu Abera),8.9838697,
node/7084932742,0,38.6887357,Kidane Mihret (Roundabout),8.9917639,
node/7084932743,0,38.690106,Kidane Mihret (2),8.9910254,
node/7084932744,0,38.6967733,Ayer Tena (Alemu Abera),8.9834187,
node/7084932745,0,38.7185689,Augusta Bridge (Tor Hailoch),9.0056187,
node/7084932747,0,38.7445753,Mexico,9.0114539,
node/7098810331,0,38.8285018,Goro Roundabout,8.9839859,
node/7098810332,0,38.8370059,Kotebe Shet',8.9678887,
node/7098810333,0,38.8352869,Bole Lemi,8.9585287,
node/7098810334,0,38.8219339,Endorro 2,8.9405669,
node/7098810335,0,38.8152364,kilinto Right (Heniken),8.9007946,
node/7098810336,0,38.8240221,Koye Feche 4,8.8947925,
node/7098810337,0,38.8277372,Koye Feche 3,8.8925887,
node/7098810338,0,38.8313712,Koye Feche 2,8.896302,
node/7098810340,0,38.8289328,Goro Roundabout,8.9837967,
node/7098810341,0,38.8374461,Kotebe Shet',8.9678046,
node/7098810342,0,38.8354629,Bole Lemi,8.9573187,
node/7098810343,0,38.8217947,Endorro 2,8.9393928,
node/7098810344,0,38.820007,Endorro 1,8.9307029,
node/7098810345,0,38.8155747,kilinto (Heniken Brewery),8.9005132,
node/7098833728,0,38.8196082,Gurd-shola,9.0192718,
node/7098833729,0,38.8331381,Civil Service College,9.021924,
node/7098833730,0,38.8400876,St. Michael,9.021617,
node/7098833731,0,38.8524287,Sunshine Apartments,9.0193173,
node/7098833732,0,38.8575794,Gomista,9.0019915,
node/7098833735,0,38.8588022,Hasset Photo,8.9918735,
node/7098833736,0,38.8521013,Sunshine Apartments,9.0190988,
node/7098833737,0,38.8504565,CMC (Apartments),9.0208488,
node/7098833738,0,38.8401568,St. Michael,9.0213567,
node/7102193971,0,38.7312293,Merkato,9.0337594,
node/7102193972,0,38.7254909,Mesalemia (Area Police),9.0338552,
node/7102193973,0,38.7086533,Luwkanda,9.0332635,
node/7102193974,0,38.7049566,Comprensive,9.0338494,
node/7102193975,0,38.642409,Gefersa,9.031909,
node/7102193976,0,38.6117467,Gojo (Kela),9.0563274,
node/7102193977,0,38.6120244,Gojo (Kela),9.0560454,
node/7102193978,0,38.6265192,Gefersa (2),9.0375371,
node/7102193979,0,38.6329501,Gefersa,9.0356795,
node/7102193980,0,38.6674596,Ashewa Meda (1),9.0328635,
node/7102193981,0,38.6760437,Kersa (1),9.0286003,
node/7102193982,0,38.687173,Feli Doro (2),9.0343761,
node/7102193983,0,38.7244946,Mesalemia,9.0344498,
node/7102269985,0,38.7312074,Merkato,9.0338637,
node/7103202615,0,38.6977085,Ayer Tena,8.9821491,
node/7103202616,0,38.7316085,German Bridge,8.9647174,
node/7103202617,0,38.7342372,Mebrathile (EEPCo),8.9470109,
node/7103202619,0,38.7692016,Saris Abo,8.9444277,
node/7103202620,0,38.7666082,Saris Abo,8.944353,
node/7103202621,0,38.7645892,Kality Maseltegna,8.9336411,
node/7103202622,0,38.7550031,Hana Mariam (Bridge),8.930547,
node/7103202623,0,38.72738,Mickael Bridge,8.9653607,
node/7103202625,0,38.6976219,Ayer Tena,8.9820533,
node/7104888674,0,38.7729637,Bel Air,9.0323651,
node/7105158906,0,38.8506098,CMC (Apartments),9.0211237,
node/7105158907,0,38.8774831,Tafo Condominium 2,9.0462589,
node/7105158908,0,38.8775457,Tafo Condominium 1,9.0502639,
node/7105268824,0,38.7490031,Mebrat (Lafto),8.9593839,
node/7105268825,0,38.7497551,Dildiy Mariam,8.9587047,
node/7105268826,0,38.7504407,Lafto (Mickael),8.9537745,
node/7105268828,0,38.7493803,Lafto,8.9465504,
node/7105268830,0,38.7450783,Lafto (Primary School),8.9558865,
node/7105398617,0,38.753418,Post Office (Ambassador),9.0184923,
node/7105398618,0,38.7614232,6 kilo (University),9.0461705,
node/7105398619,0,38.7623138,Teferi Mekonen,9.0522977,
node/7105584907,0,38.7999868,Marathon Motor (Megenagna),9.022269,
node/7105584908,0,38.762507,Tourist Hotel (4 Kilo),9.0332665,
node/7105584909,0,38.7532588,Piassa Arada,9.0341288,
node/7105584911,0,38.7625094,Tourist Hotel (4 Kilo),9.0332715,
node/7105584912,0,38.7888307,Abebe Sook,9.0289345,
node/7105840324,0,38.7492708,Abune Petros,9.0358919,
node/7105840325,0,38.745898,Yohannes,9.0424895,
node/7105840326,0,38.7421685,Arbegnoch Primary School,9.0472271,
node/7105840327,0,38.7376837,Enqulal Fabrica,9.0485317,
node/7105840330,0,38.7450108,Yohannes,9.0434044,
node/7105840331,0,38.7373533,Enqulal Fabrica,9.0481067,
node/7107670562,0,38.7350351,Sefera,8.9209066,
node/7107670563,0,38.7332384,Mebrathile (EEPCo),8.94963,
node/7107670564,0,38.7341183,Mekanisa Abo,8.9829863,
node/7107789218,0,38.6879228,Jemmo 2,8.9606298,
node/7107789219,0,38.7511477,Piassa (Downtown Cafe),9.0319297,
node/7107789220,0,38.6878636,Jemmo 2,8.9605732,
node/7108224469,0,38.7483037,Kera,8.9860956,
node/7110438104,0,38.7675202,6th (Raddison Blu),9.0166264,
node/7110438105,0,38.7701955,Kazanchis (6th),9.0171928,
node/7110438106,0,38.7758778,Aware Roundabout,9.0231177,
node/7110438107,0,38.7815333,Signal,9.0234853,
node/7110438108,0,38.7867845,Dinberwa Hospital,9.0221973,
node/7110438109,0,38.7940254,Lem Hotel,9.0212061,
node/7110438110,0,38.8157252,Lamberet (Queens),9.022362,
node/7110438111,0,38.8281186,Kotebe 01,9.0348925,
node/7110438113,0,38.8281855,Kotebe 01,9.0349074,
node/7110438114,0,38.7948696,Shola (United Bank),9.0217059,
node/7110438115,0,38.792498,Sumeya Mosque,9.021194,
node/7110438116,0,38.7815645,Signal,9.023369,
node/7110725239,0,38.7640618,Kality Gebriel,8.9104302,
node/7110725240,0,38.7673729,Addis Sefer (Overpass),8.9572931,
node/7110725241,0,38.7723221,Bole Mickael (2),8.9799499,
node/7110725242,0,38.7903601,Bole Bridge,8.9867261,
node/7110725243,0,38.7957512,MOENCO,8.9948785,
node/7110725244,0,38.7988652,Sport Academy,9.0009401,
node/7110725245,0,38.8030776,Anbessa Garage,9.0077883,
node/7110725246,0,38.8026698,IVECO,9.0158283,
node/7110725247,0,38.8032793,Anbessa Garage,9.0076034,
node/7110725248,0,38.8009424,Emperial Hotel,9.0037859,
node/7110725249,0,38.7961036,MOENCO,8.9950941,
node/7110725250,0,38.7946816,Bole (Bora Amusement),8.9910443,
node/7110725251,0,38.7721474,Bole Mickael (2),8.9795995,
node/7110725252,0,38.7676814,Addis Sefer,8.9603711,
node/7110725253,0,38.7692055,Saris Abo,8.9458024,
node/7110725254,0,38.7648588,Kality (Correctional Facility),8.9234126,
node/7110725256,0,38.7718808,Kality Meneharia,8.8959395,
node/7111821010,0,38.7588358,4 Kilo (Berhan Selam Printing),9.0354591,
node/7111821011,0,38.7538404,Piassa (EPPCO),9.0325113,
node/7111821013,0,38.7374552,Autobis Tera (Adarash),9.0317457,
node/7111821015,0,38.7373348,Autobis Tera (Adarash),9.0301828,relation/10550061
node/7111821016,0,38.7887833,Dinberwa Hospital (1),9.0216842,
node/7112123456,0,38.7373419,Autobis Tera (Adarash),9.0301871,relation/10550061
node/7112123457,0,38.7215949,Chid Tera,9.0374496,
node/7112123458,0,38.7149359,Mebrathail,9.0294949,
node/7112123459,0,38.7177803,Kolfe Keranyo,9.0173854,
node/7112123460,0,38.708993,Keranio Bridge,9.0193846,
node/7112123462,0,38.7176821,Kolfe Keranyo,9.0170237,
node/7112123463,0,38.7163686,Abysinia Coffee,9.0370321,
node/7112123464,0,38.7208971,Chid Tera,9.0376714,
node/7112215078,0,38.7188624,Old Airport (Mobil),8.9998854,
node/7112215079,0,38.7196192,Minaye (Shoa Supermarket),9.008471,
node/7112215080,0,38.7158287,Holand,9.0208524,
node/7112215081,0,38.7141478,18 Mazoria (Atena Tera),9.0361682,
node/7112215082,0,38.7125982,Atena Tera,9.0409736,
node/7112215083,0,38.7116581,Winget TVET,9.0491202,
node/7112215084,0,38.7124575,Winget,9.0555289,
node/7112280389,0,38.7117843,Winget TVET,9.0494004,
node/7112280390,0,38.7122352,kolfe (Atena Tera),9.0448145,
node/7112280391,0,38.712721,Atena Tera,9.0414434,
node/7112280392,0,38.7143961,18 Mazoria (Atena Tera),9.0362317,
node/7112280393,0,38.7152453,Meseret Edget,9.0244809,
node/7112280394,0,38.7188519,Augusta Bridge (Tor Hailoch),9.0056155,
node/7112648156,0,38.8146269,Mahiber Betoch,8.8596281,
node/7112648157,0,38.8210444,Project 12 Akababi,8.865212,
node/7112648158,0,38.8204129,G7 (Tulu Dimtu),8.8701237,
node/7112648159,0,38.7965426,Belay Ab Moters,8.871336,
node/7112648160,0,38.7794514,Gelan Condominium,8.8797285,
node/7112648161,0,38.7728422,Kality Total,8.894811,
node/7112648162,0,38.770309,Akaki Subcity Office (Menaheria),8.8973286,
node/7112648163,0,38.7641522,Kality (Correctional Facility),8.9224149,
node/7112648164,0,38.7676362,Techtra Engineering,8.9281178,
node/7112648165,0,38.7637599,Adey Abeba,8.9572677,
node/7112648166,0,38.7669427,Kality Maseltegna,8.9323914,
node/7112648167,0,38.768315,Wehalemat,8.9298175,
node/7112648168,0,38.7768426,Awash Bank (Akaki Kality),8.8837788,
node/7112648169,0,38.7793211,Gelan Condominium,8.8799589,
node/7112648170,0,38.7963837,Belay Ab Moters,8.8716847,
node/7112648171,0,38.798439,Belay Ab Moters (Alem Bank),8.8675171,
node/7112648172,0,38.8091005,TAF Oil (Tulu Dimtu),8.8705655,
node/7112755336,0,38.7723166,Addis Sefer (NFSL W09),8.9580023,
node/7112755337,0,38.7710152,Addis Sefer,8.9590585,
node/7112755338,0,38.7439418,Teklehaymanot,9.0278217,
node/7112755340,0,38.7376384,Merkato (Dubai Tera),9.0314996,
node/7112755342,0,38.7381207,Merkato (Dubai Tera),9.0308454,
node/7112755343,0,38.7468282,Meteorology,9.0194238,
node/7112755344,0,38.7468427,Sengatera,9.0148435,
node/7112755345,0,38.7706049,Addis Sefer,8.9587021,
node/7113004009,0,38.7199737,Girum Hospital,9.0462468,
node/7113004010,0,38.7211613,Ras Hailu (Medhanialem),9.0509733,
node/7113004011,0,38.7114101,Awolia,9.0572551,
node/7113004012,0,38.6983516,Bercheko Fabrica (Asko),9.0640587,
node/7113004013,0,38.70588,Gulele,9.0598807,
node/7113004014,0,38.7210939,Ras Hailu (Medhanialem),9.0507813,
node/7113004015,0,38.7212829,Woreda 7 TVET,9.040909,
node/7113004016,0,38.7213725,Chid Tera,9.0380466,
node/7113004018,0,38.7365754,Autobis Tera (Adarash 2),9.0312199,
node/7113004020,0,38.73268,Michael (2),9.0426217,
node/7113004021,0,38.7261371,Pawlos Hospital (Saba Mosque),9.0485205,
node/7113004022,0,38.7205811,Anbessa Garage (Shegole),9.0643796,
node/7113004024,0,38.7266132,Shegole (Mender 7),9.0641379,
node/7113004026,0,38.726699,Shegole (Mender 7),9.0641466,
node/7113004027,0,38.7189551,Hassen & Hussein Mosque (Shegole),9.0589167,
node/7113004028,0,38.7198445,Shegole Bank,9.0548351,
node/7113004029,0,38.7321449,Michael,9.0409541,
node/7113158623,0,38.7712666,Eyesus,9.0652655,
node/7122983960,0,38.7741153,Wello Sefer,8.9931107,
node/7122983961,0,38.7720567,Kassech Kitfo,8.9891423,
node/7122983962,0,38.7679985,Ambasel,8.9855755,
node/7122983963,0,38.7662234,WAGGA (Singer Liquior Store),8.9840055,
node/7122983964,0,38.7635127,Wengalawit,8.9814923,
node/7122983968,0,38.7636059,Wengalawit,8.9817105,
node/7122983969,0,38.7680101,MEDCO,8.9857381,
node/7122983970,0,38.7723942,Tebaber Berta,8.98977,
node/7122983972,0,38.7739711,Wello Sefer,8.9930626,
node/7123180286,0,38.8356151,Beshale Area,9.0113972,
node/7123180287,0,38.802106,Megenagna,9.0185063,
node/7123180289,0,38.821148,Jacros,9.0111777,
node/7123180290,0,38.8526604,Safari,9.0100121,
node/7123180291,0,38.8657082,Safari (Summit),9.0116739,
node/7123180293,0,38.8657494,Safari (Summit),9.0115148,
node/7123180295,0,38.8513684,Safari,9.0099646,
node/7123180296,0,38.8356503,Beshale Area,9.011279,
node/7123180297,0,38.8201425,Gurd Shola,9.0189315,
node/7123180298,0,38.803506,Megenagna,9.0194519,
node/7123265052,0,38.7650036,Meskel Flower,8.9882804,
node/7123265053,0,38.7659652,Loza (Adot),8.9911645,
node/7123265054,0,38.7663984,Nazra Hotel,8.9934001,
node/7123265055,0,38.7666123,Yetam Hotel,8.9959487,
node/7123265056,0,38.7667571,Kebele Kibeb,8.9980982,
node/7123265061,0,38.7669271,Mulu Shewa (Gazebo),8.9999844,
node/7123265062,0,38.7668423,Kebele Kibeb,8.9979306,
node/7123265063,0,38.7667132,Yetam Hotel,8.9959132,
node/7123265064,0,38.7665439,Nazra Hotel,8.9937071,
node/7123265065,0,38.7660467,Loza (Adot),8.9910552,
node/7123265066,0,38.7652457,Meskel Flower,8.9885268,
node/7182111861,0,38.7180191,Total 3 Kuter Mazoria,8.9921561,
node/7182111862,0,38.7466164,kera,8.9865485,
node/7214490241,0,38.7708485,Kality Menaheriya,8.8967488,
node/10672961242,0,38.717673,3 Kutir (TZNA Area),8.9943894,
node/10672961244,0,38.733585,Lideta High Court,9.011721,
node/10750378219,0,38.7024743,Ayer Tena Wereda 1,8.9839135,
node/10755917239,0,38.7394551,Sar Bet,8.9925223,
node/10755917241,0,38.7392871,Sar Bet,8.9924619,
node/10755917242,0,38.7471398,kera,8.986057,
node/10755917243,0,38.7418629,Kera,8.9900132,
node/10755917244,0,38.7376124,Sar Bet,8.995096,
node/10755917245,0,38.7309965,karl Square,8.9973975,
node/10755917246,0,38.7302642,karl Square,8.9970773,
node/10755917247,0,38.7268512,Bisrate Gebrael,8.9927368,
node/10755917248,0,38.7255644,Bisrate Gebrael,8.9914228,
node/10755917249,0,38.7226976,Bisrate Gebrael,8.9888937,
node/10755917250,0,38.7175917,Total 3 Kuter Mazoria,8.9922875,
node/10766121857,0,38.7708737,kality Meneharia,8.8967652,
node/10766121859,0,38.7669453,kality Maseltegna,8.9319554,
node/10766121860,0,38.7668102,Kadisco Roundabout,8.9632423,
node/10766121861,0,38.7761571,Bole Mickael,8.9816305,
node/10766121862,0,38.7721247,Bole Printing Press,8.9966149,
node/10766121863,0,38.7634141,Flamingo,9.0100526,
node/10766121864,0,38.7626278,St. Estifanos,9.0125659,
node/10766121865,0,38.7629874,4 Kilo (Menlik),9.035146,
node/10766121866,0,38.7631121,4 Kilo (Menlik),9.0352952,
node/10766121867,0,38.7641345,Place Parking (Gibi Gebriel),9.0214342,
node/10766121868,0,38.7636218,Flamingo,9.01014,
node/10766121869,0,38.7743234,Wollo Sefer,8.9944147,
node/10766121871,0,38.7765268,Bole Mikael,8.9813203,
node/10766121872,0,38.765481,Mamo (Nifas Silk),8.9737518,
node/10766121873,0,38.7670877,kality Maseltegna,8.9321192,
node/10766121874,0,38.7721261,kality Meneharia,8.8957067,
node/10766454593,0,38.7674734,Olympia,9.0056744,
node/10766454594,0,38.7908923,Bole Roundabout,8.9867247,
node/10768858718,0,38.7411322,African Union,9.003043,
node/10768858719,0,38.7370362,Autobis Tera Adarash,9.0296176,
node/10768858720,0,38.7470064,Guenet Hotel (Orbis),9.0026517,
node/10768858721,0,38.750024,Kera (Gofa Stop),8.9837078,
node/10768858722,0,38.7496962,Kera (Gofa Road),8.9813388,
node/10768858723,0,38.7340469,German Square,8.9651822,
node/10781643820,0,38.8198728,Lamberet Menaheria,9.0239162,
node/10781643821,0,38.7650098,4 kilo (Children Theatre),9.0322896,
node/10781643822,0,38.7666152,4 kilo (Children Theatre),9.0328365,
node/10781643823,0,38.7736753,Bel Air,9.0325481,
node/10781643824,0,38.7768069,Kebena,9.0344084,
node/10781643825,0,38.7794124,Kokebe Tsebah (Kebena),9.0350794,
node/10781643826,0,38.7823515,Kenya Embassy (Kebena),9.0324942,
node/10781643827,0,38.785575,British Embassy,9.0309005,
node/10781643828,0,38.7888226,Abebe Sook,9.0289673,
node/10781643829,0,38.7947497,Shola (Yeka Court),9.0251295,
node/10781643830,0,38.7984062,Shola Abyssinia Bank,9.0232585,
node/10781643831,0,38.7997354,Megenagna (Marathon Motors),9.0224046,
node/10781643832,0,38.8010368,Megenagna,9.0208971,
node/10781643833,0,38.8048559,Megenagna (Israel Embassy),9.0208722,
node/10781643834,0,38.8199227,Lamberet Menaheria,9.0240444,
node/10781643835,0,38.836729,Kotebe,9.0297042,
node/10781643836,0,38.8385612,Kotebe,9.0304539,
node/10781643837,0,38.8490303,Kotebe Teachers College,9.0348007,
node/10781643838,0,38.8553365,Kotebe Gebriel,9.0363204,
node/10781643839,0,38.8541265,Kotebe Gebriel,9.0358505,
node/10781643840,0,38.8443436,Wessen Grocery,9.032918,
node/10781643841,0,38.8648947,Kara,9.0407203,
node/10781643842,0,38.8653607,Kara,9.0411416,
node/10781844855,0,38.788672,Abebe Sook,9.0287927,
node/10781844856,0,38.7843424,British Embassy,9.0313214,
node/10781844857,0,38.7623866,5 Kilo St. Mary,9.038677,
node/10781844858,0,38.7614003,6 Kilo University,9.0462129,
node/10781844859,0,38.7615945,6 Kilo University,9.0462072,
node/10781844860,0,38.7615002,6 Kilo (Lion Zoo),9.0430896,
node/10781844861,0,38.7826601,Kenya Embassy (Kebena),9.032679,
node/10781844862,0,38.7953847,Shola (Yeka Court),9.0250431,
node/10781844863,0,38.7998471,Megenagna (Marathon Motors),9.0225097,
node/10823916391,0,38.8773834,Yeka 03,9.0381854,
node/10842065101,0,38.7341685,Sefera Atkilt Tera,8.931276,
node/10842065103,0,38.7646885,kality Maseltegna,8.9358559,
node/10842065104,0,38.7478806,Bulgaria,8.9948043,
node/10842129005,0,38.7628904,Kality Customs,8.9379429,
node/10842129006,0,38.7330813,Germen Square,8.9644696,
node/10842129008,0,38.7441345,Hana Mariam,8.93579,
node/10842129009,0,38.7703639,Gomista,8.9373819,
node/10842129010,0,38.780123,Nigd bank,8.948706,
node/10842129011,0,38.7642814,kality Maseltegna,8.9342123,
node/10842129012,0,38.7585214,Kadisco,8.9310906,
node/10842129013,0,38.7638648,Adey abeba,8.9582797,
node/10842129015,0,38.7690665,Saris abo,8.9457865,
node/10842129016,0,38.7345583,Haile Garment,8.93876,
node/10842129017,0,38.7635479,Saris,8.9546992,
node/10842129018,0,38.7590073,St. Joseph School,9.0106878,
node/10842129019,0,38.7819099,Bole Cargo,8.9834477,
node/10842129020,0,38.7483448,Bulgaria,8.9944221,
node/10842129021,0,38.7765022,Kore,8.9482742,
node/10842129022,0,38.7691994,Saris Abo,8.9444276,
node/10842129023,0,38.7704449,Kality Menaheria,8.8973782,
node/10842129024,0,38.7340982,Sefera Square,8.9254109,
node/10842129025,0,38.7463895,Mexico,9.009032,
node/10842129026,0,38.7644698,Kality Gebriel,8.9092945,
node/10842129027,0,38.7821218,Derartu,8.8869211,
node/10842129028,0,38.7818039,Bole Cargo,8.9836884,
node/10842129029,0,38.7729402,Kality Total,8.8948904,
node/10842129030,0,38.748144,Noc,8.9927142,
node/10842129031,0,38.7590821,Lancha,8.9901397,
node/10842129032,0,38.7359129,Haile Garment,8.9375158,
node/10842129033,0,38.759633,Agona,8.9880834,
node/10842129034,0,38.7646465,kality Maseltegna,8.9336549,
node/10842129035,0,38.7214531,Mesqelegna,8.9417644,
node/10842129036,0,38.7586311,መሿለኪያ,9.0061765,
node/10842129037,0,38.6979529,Jemo,8.9537651,
node/10842129038,0,38.7640443,Adey abeba,8.9577771,
node/10842129040,0,38.7661797,Saris Abo,8.9448318,
node/10842129041,0,38.7343973,Mebrat hayle,8.9457862,
node/10842129042,0,38.7669226,Kadisco,8.9633984,
node/10842129043,0,38.7453864,Hana Mariam,8.9356798,
node/10842129045,0,38.7609585,Mamo (NFSL),8.9729895,
node/10842129046,0,38.7785848,Medhani alem,8.9490785,
node/10842129047,0,38.7660661,Mosque (Mesged),8.9047633,
node/10842129048,0,38.7645559,Kality Gebriel,8.9093265,
node/10842129051,0,38.7888143,Bole Roundabout,8.9859342,
node/10842129052,0,38.7681435,Wuhalimat,8.9295556,
node/10842129053,0,38.7445142,Hana Mariam,8.9361549,
node/10842129054,0,38.7719673,Bole Mickael,8.9797944,
node/10842129055,0,38.7635639,Sheger building,8.9192813,
node/10842129056,0,38.7668114,Yoseph,8.9705748,
node/10842129057,0,38.7477478,Bulgaria,8.9947898,
node/10842129058,0,38.7342346,Mebrathayil,8.9470316,
node/10842129059,0,38.7346011,Sefera Square,8.9250202,
node/10842129060,0,38.758701,Tele Garage,9.0000494,
node/10842129061,0,38.7339445,Mebrathayil,8.9469179,
node/10842129062,0,38.7335906,Haile garment,8.9376734,
node/10842129063,0,38.758986,Meshualekia,9.0058652,
node/10842129064,0,38.7759035,Akaki Stadium,8.8886505,
node/10842129066,0,38.7640108,Adey abada,8.9571801,
node/10842129069,0,38.706617,Menaheria (Zenebu Werk),8.9755358,
node/10842129070,0,38.767446,Adis sefer,8.9602509,
node/10842129071,0,38.758758,Kadisco,8.930883,
node/10842129072,0,38.7478486,Bulgaria,8.993831,
node/10842129073,0,38.7627716,Kadisco,8.9661182,
node/10842129074,0,38.7861393,Bulbula,8.9517202,
node/10842129075,0,38.7629867,Kadisko,8.966096,
node/10842129076,0,38.7700795,Saris abo,8.9444437,
node/10842129077,0,38.7874349,Meshualekya,8.8758561,
node/10842129078,0,38.7597928,Agona,8.9871416,
node/10842129079,0,38.7595824,Gotera chaf,8.9771026,
node/10842129080,0,38.7633358,Saris,8.9528149,
node/10842129082,0,38.7593422,St. Joseph School,9.0106804,
node/10842129083,0,38.7338312,Kotari Condominium,8.9321621,
node/10842129084,0,38.7652695,Mamo,8.9732793,
node/10842129085,0,38.7664084,Saris Abo,8.9448603,
node/10842129086,0,38.7665547,Yosef,8.9705442,
node/10842129088,0,38.7654586,Kality Cheralia,8.9068482,
node/10842129089,0,38.7653555,Kality Cheralia,8.9066965,
node/10842129090,0,38.7593009,Lancha,8.9906489,
node/10842129091,0,38.7701062,Gomista,8.9375024,
node/10842129092,0,38.7331196,Haile Garment,8.9375082,
node/10842129093,0,38.7584826,Tele Garage,9.0001174,
node/10842129094,0,38.7767083,Selam Building,8.8840683,
node/10842129095,0,38.7769101,Medhani alem,8.9453322,
node/10842129096,0,38.7771627,Selam Building,8.8832033,
node/10842129097,0,38.7872182,Meshualekya,8.8758518,
node/10842129098,0,38.7635911,Saris,8.9531876,
node/10842129102,0,38.7328242,Germen adebabay,8.963723,
node/10842129103,0,38.7607874,Mamo (NFSL),8.972508,
node/10842129105,0,38.7486365,Kera,8.9875165,
node/10842129106,0,38.7599766,Agona,8.9867627,
node/10842129107,0,38.7701231,Saris abo,8.9446574,
node/10842129108,0,38.7483211,Kera,8.9860883,
node/10842129109,0,38.7598723,Temenja yasi,8.9952226,
node/10842129110,0,38.7666013,Gelan Condominium,8.8790966,
node/10842129111,0,38.7596133,Temenja yasi,8.9953066,
node/10842129112,0,38.7588933,Riche,9.0041803,
node/10842129113,0,38.7364242,Haile garment,8.9368154,
node/10842129114,0,38.7720906,Bole Mickael,8.9795749,
node/10842129115,0,38.7739681,Kality,8.893305,
node/10842129116,0,38.6971287,Ayer Tena,8.9835322,
node/10842129117,0,38.6977027,Jemo,8.9537239,
node/10842129118,0,38.7467544,Land mark,9.0052072,
node/10842129119,0,38.7218311,Meskelegna,8.9411484,
node/10842129120,0,38.7349153,Haile Garment,8.9381771,
node/10842129121,0,38.7586909,Riche,9.0040548,
node/10842129122,0,38.7841911,Kore,8.9476648,
node/10842129124,0,38.7866008,Meshualekya,8.8770203,
node/10842129125,0,38.7863461,Bulbula,8.9518942,
node/10842129126,0,38.7643342,kality Maseltegna,8.9357353,
node/10842129128,0,38.763701,Adey abada,8.9572678,
node/10842129129,0,38.7692278,Saris abo,8.9457601,
node/10842129131,0,38.7676873,Addis sefer,8.9603252,
node/10842129132,0,38.744852,Hana mariam,8.9352291,
node/10842129133,0,38.7484325,Kera,8.9866879,
node/10842129134,0,38.7601404,Gotera chaf,8.9757898,
node/10842129135,0,38.770318,Akaki Subcity Office (Menaheria),8.8972852,
node/10842129136,0,38.7717099,Condominium,8.9411922,
node/10842129137,0,38.7666701,Gelan Condominium,8.8789992,
node/10842129139,0,38.7683276,Wuhalimat,8.9295931,
node/10842129140,0,38.7461882,Mexico,9.0098761,
node/10845731573,0,38.7413343,Grand Anwar Mosque,9.0312472,
node/10845731574,0,38.7457773,kebele 11,9.0247282,
node/10845731575,0,38.7468651,Guenet hotel,9.0028738,
node/10845731576,0,38.7589891,Lancia,8.9923344,
node/10845731577,0,38.755826,Pepsi,8.9825134,
node/10845731578,0,38.7591215,Lancia,8.9919399,
node/10845731579,0,38.7438378,Tekle Haimanot,9.0279893,
node/10845731580,0,38.7666459,Saris Abo,8.9441872,
node/10845731581,0,38.7544517,Legehar,9.0120319,
node/10845731582,0,38.7521404,Kera,8.9840808,
node/10845731583,0,38.7631799,Kality Customs,8.9380577,
node/10845731584,0,38.7378007,Gojam Berenda,9.0342603,
node/10845731585,0,38.7381021,Gojam Berenda,9.0343553,
node/10845731586,0,38.7818893,Derartu,8.8869148,
node/10845731587,0,38.7557408,Pepsi,8.9824223,
node/10845731588,0,38.7596457,Global Hotel,8.9943898,
node/10845731589,0,38.7637542,Sheger Building,8.9208636,
node/10845731590,0,38.734431,Autobus Tera,9.0343246,
node/10845731591,0,38.7469738,Guenet hotel,9.0027786,
node/10845731592,0,38.7439714,Tekle Haimanot,9.0279685,
node/10845731593,0,38.7476261,Beg Tera,8.9970419,
node/10845731594,0,38.7598651,Global Hotel,8.9943499,
node/10845731595,0,38.7641252,Kality Correctional,8.9223845,
node/10845731596,0,38.7667306,Cheralia Factory,8.9029367,
node/10845731597,0,38.7457421,kebele 11,9.0246149,
node/10845731598,0,38.7414003,Grand Anwar Mosque,9.0310422,
node/10845731599,0,38.7526758,National Theatre,9.0165472,
node/10845731601,0,38.767986,Saris,8.95346,
node/10845731602,0,38.7475303,Beg Tera,8.9968163,
node/10845731603,0,38.7468099,Sengatera,9.014753,
node/10845731604,0,38.746301,Mexico,9.0096228,
node/10845749005,0,38.7479845,Bulgaria,8.9937615,
node/10845840895,0,38.7720203,kality Meneharia,8.8956285,
node/10845840896,0,38.6966586,Ayer Tena,8.9841307,
node/10845840897,0,38.7330269,Germen adebabay,8.9637758,
node/10846106471,0,38.7728316,Kality Total,8.8948231,
node/10881147490,0,38.7912092,Bole Bridge,8.9869946,
node/10881147492,0,38.7903563,Bole Bridge,8.9867302,
node/10883106542,0,38.7338003,Autobus Tera,9.0341009,
node/10886135782,0,38.7415025,Bajaj Tera,8.907041,
node/10886135783,0,38.7479978,Chera,8.904156,
node/10886135784,0,38.7622377,Gelan Condominium,8.8772921,
node/10886135785,0,38.7845626,Total,8.8549158,
node/10886135787,0,38.8197795,Tulu Dimtu,8.8737817,
node/10886135789,0,38.8202354,Tulu Dimtu,8.8738791,
node/10886135790,0,38.820802,G7,8.8709574,
node/10886135791,0,38.7847209,Total,8.8541896,
node/10886135793,0,38.7630121,Gelan Condominium,8.8758233,
node/10886281950,0,38.7928534,Bole Bridge,8.9906055,
node/10886281951,0,38.7887705,Bole Medhanyalem,8.9955183,
node/10886281952,0,38.7870108,Edna Mall Squar,8.9973425,
node/10886281953,0,38.7892817,Adey Ababa Stadium,9.0043569,
node/10886281954,0,38.7872566,22 Mazoria,9.0150262,
node/10886281956,0,38.787438,22 Mazoria,9.0150056,
node/10886281958,0,38.7887083,Freedom,9.0082739,
node/10886281997,0,38.7890587,Werku Building,9.0069454,
node/10886281998,0,38.7893444,Adey Ababa Stadium,9.0042976,
node/10886281999,0,38.7869491,Edna Mall Squar,8.9977034,
node/10886282000,0,38.7885714,Bole Medhanyalem,8.995948,
node/10886282001,0,38.7929596,Bole Bridge,8.9906936,
node/10886427067,0,38.7881236,22 Mazoria,9.0161537,
node/10886427068,0,38.7950715,Lem Hotel,9.017758,
node/10886427069,0,38.8019786,Megenagna,9.0198841,
node/10886427070,0,38.8200261,Gurd Shola,9.0191878,
node/10886427071,0,38.8345374,Civil Servis College,9.0218654,
node/10886427072,0,38.8536095,Yetebaberut,9.0209806,
node/10886427073,0,38.8750186,Ayat,9.0214852,
node/10886427074,0,38.8350083,Civil Servis College,9.0215577,
node/10886427075,0,38.8737977,Ayat,9.0211711,
node/10886427076,0,38.8598848,Meshageria,9.0204163,
node/10886427077,0,38.8535182,Yetebaberut,9.020619,
node/10886883544,0,38.7941243,Bole Bora Amusement,8.9907378,
node/10886883546,0,38.8016982,Megenagna,9.0185543,
node/10886883547,0,38.8034449,Anbessa Garage,9.0078296,
node/10886883548,0,38.8009392,Emperial Hotel,9.0037737,
node/10886883549,0,38.7961015,Hayat Hospital,8.9950343,
node/10886883550,0,38.7949793,Bole Bora Amusement,8.9916604,
node/10886991025,0,38.852562,Sun shine,9.0199832,
node/10886991026,0,38.8042842,Megenagna,9.0200202,
node/10886991027,0,38.841553,Meshualekia,9.021578,
node/10886991028,0,38.8522797,Safari,9.0110042,
node/10886991029,0,38.8519977,Summit,9.004015,
node/10886991031,0,38.8517386,Summit,9.004282,
node/10886991032,0,38.8519018,Safari,9.010941,
node/10886991033,0,38.8520834,Sun shine,9.0199154,
node/10886991034,0,38.8415391,Meshualekia,9.021324,
node/10886991035,0,38.8392942,Michael,9.021353,
node/10886991036,0,38.8211275,Gurd Shola,9.0187135,
node/10887120324,0,38.7938037,Bole Bridge,8.9901805,
node/10887120325,0,38.7956759,Hayat Hospital,8.9948468,
node/10887120326,0,38.798384,Sport Accadamy,9.0001969,
node/10887120327,0,38.8000262,Emperial Hotel,9.0027661,
node/10887120328,0,38.8016319,Mulugeta Building,9.0187177,
node/10889510244,0,38.8031146,IVECO,9.0155127,
node/10890083966,0,38.7855121,93 Mazoria,8.9603848,
node/10890083967,0,38.7863684,Kaldisco,8.9623057,
node/10890083968,0,38.7872114,Key Afer,8.9642046,
node/10890083969,0,38.7938037,Bole Bridge,8.9901805,
node/10890083970,0,38.7956759,Hayat Hospital,8.9948468,
node/10890290096,0,38.7873203,Key Afer,8.9642211,
node/10890290097,0,38.785703,93 Mazoria,8.9604784,
node/10890290098,0,38.7875752,Kebele,8.9581348,
node/10893030388,0,38.8031745,Anbessa Garage,9.0080412,
node/10893030389,0,38.8169267,Jacros,9.0035488,
node/10893030390,0,38.8210973,Alem Ayew Building,8.9993201,
node/10893030392,0,38.8283586,Goro,8.9923039,
node/10893030394,0,38.8287738,Goro,8.9917123,
node/10893030395,0,38.8266397,Goro School,8.9939213,
node/10893030396,0,38.8210064,Alem Ayew Building,8.9992455,
node/10893030397,0,38.8166485,Jacros,9.0035377,
node/10893030398,0,38.7986195,Sport Accadamy,8.9999982,
node/10893030400,0,38.7947324,Bole Bridge,8.9911487,
node/10893316186,0,38.8336594,Figa,9.0122741,
node/10893316189,0,38.8366122,Mesgid,9.0110639,
node/10893316190,0,38.8335762,Figa,9.0121764,
node/10898980600,0,38.7731313,Bole Mickael,8.984658,
node/10898980601,0,38.7551282,Ambasader,9.0162838,
node/10898980602,0,38.7662663,Dembel,9.0069448,
node/10898980603,0,38.7586647,Stadium,9.0123922,
node/10898980604,0,38.7466456,Metrology,9.0192676,
node/10898986005,0,38.7476072,Tikur Anbesa,9.0217285,
node/10898986007,0,38.7476005,Tikur Anbesa,9.0207753,
node/10898986008,0,38.7467207,Metrology,9.0188878,
node/10898986009,0,38.7553118,Ambasader,9.0164136,
node/10898986010,0,38.760062,Stadium,9.011485,
node/10898986011,0,38.7686303,Dembel,9.0038396,
node/10898986012,0,38.7717243,Bole Printing Press,8.9979213,
node/10898986014,0,38.7734946,Bole Mickael,8.9849144,
node/10899009892,0,38.7413697,Cinema Ras,9.0318094,
node/10899009893,0,38.7414723,Cinema Ras,9.0317766,
node/10899150564,0,38.7781683,Rwanda,8.992509,
node/10899150565,0,38.7693116,Shewa Dabo,9.0017627,
node/10899150566,0,38.7626611,St. Estifanos Church,9.0120704,
node/10899150567,0,38.7511048,Piassa Arada,9.0321752,
node/10899150568,0,38.7525581,Piassa Arada,9.0330229,
node/10899150569,0,38.7517894,Tewodros Square,9.0264157,
node/10899150570,0,38.7522625,Tikur Anbesa,9.0210948,
node/10899150571,0,38.7529153,Post Office,9.019064,
node/10899150572,0,38.7576138,Ghion Hotel,9.0138467,
node/10899278324,0,38.7897689,Bole Bridge,8.9885561,
node/10899278325,0,38.7840796,Friendship Building,8.9908062,
node/10899278326,0,38.7798445,Rwanda,8.9923825,
node/10899278327,0,38.7844715,Friendship Building,8.9908613,
node/10899278328,0,38.7898626,Bole Bridge,8.9887169,
node/10899524535,0,38.8038533,Anbessa Garage,9.0084115,
node/10899524536,0,38.8100683,Condominium - Gerji Mebrat hayle,9.0049309,
node/10899524537,0,38.814209,Gerji Mebrat hayle,9.0036683,
node/10899524538,0,38.8294024,Goro,8.9913434,
node/10899524539,0,38.815561,kilinto Right,8.900477,
node/10899524540,0,38.8197599,Tulu Dimtu,8.875391,
node/10899524542,0,38.8150743,kilinto Right,8.900461,
node/10899524543,0,38.8292469,Goro,8.9912832,
node/10899524544,0,38.8134376,Gerji Mebrat hayle,9.0035919,
node/10899524545,0,38.8095948,Condominium - Gerji Mebrat hayle,9.0050654,
node/10899524547,0,38.8055809,Anbessa Garage,9.0071868,
node/10899590290,0,38.8364067,Mesgid,9.011198,
node/10899590291,0,38.8518486,Saint Georgis,8.994461,
node/10899590293,0,38.8515329,Saint Georgis,8.994389,
node/10899652823,0,38.7332958,Mebrathile,8.9493529,
node/10899652824,0,38.7324445,Gebriel Bridge,8.9556186,
node/10899652825,0,38.7273491,Mickael Bridge,8.965384,
node/10899652826,0,38.7121031,Zenebewerk,8.9727473,
node/10899652827,0,38.7055213,Chaina Camp,8.975714,
node/10899652829,0,38.6982059,Ayer Tena,8.981635,
node/10901428140,0,38.7348966,Haile Garment,8.9385233,
node/10901428141,0,38.7353205,Sefera,8.9201595,
node/10901428142,0,38.7337094,Sefera Atkilt Tera,8.9311784,
node/10901428143,0,38.734667,Sefera,8.9208099,
node/10901522017,0,38.7519617,Mesalemia,8.8870433,
node/10901522018,0,38.7484085,Chera Medhanilem,8.9032086,
node/10901522020,0,38.7346387,Haile Garment,8.935726,
node/10901522021,0,38.7491293,Chera Medhanilem,8.9034769,
node/10901522022,0,38.7524365,Mesalemia,8.8871115,
node/10901643508,0,38.7629397,Saris,8.9530332,
node/10901643510,0,38.7540078,58 Mazoria,8.9431476,
node/10901643511,0,38.7500946,Kidane Mihret Stebel,8.9405222,
node/10902267327,0,38.7447143,Mexico,9.0084289,
node/10902267330,0,38.7448728,Mexico,9.0084377,
node/10902267332,0,38.7393711,AU (Mikael) Rounrdabout,8.9990666,
node/10902267333,0,38.7395668,AU (Mikael) Rounrdabout,8.9990162,
node/10902267334,0,38.7381301,Sar Bet,8.9923567,
node/10902267335,0,38.7383324,Sar Bet,8.9923453,
node/10902267336,0,38.7342938,Abo Mazoria,8.9822679,
node/10902267337,0,38.7344209,Abo Mazoria,8.9823292,
node/10902267338,0,38.7311351,Mekanisa,8.9729293,
node/10902267339,0,38.7312498,Mekanisa,8.9728812,
node/10902267340,0,38.732719,Gebriel Bridge,8.9555964,
node/10903393900,0,38.7539257,58 Mazoria,8.9432326,
node/10903398373,0,38.7267004,Varnelo Squer,8.9487486,
node/10903398374,0,38.7117668,Jemmo 1,8.9594798,
node/10903398375,0,38.712128,Jemmo 1,8.9585188,
node/10903398376,0,38.7161087,Jemmo Medhanialem,8.9524535,
node/10903398377,0,38.7162235,Jemmo Medhanialem,8.9525568,
node/10903398378,0,38.7221583,Kebele,8.9490672,
node/10903398379,0,38.7221797,Kebele,8.9491872,
node/10903398380,0,38.7267159,Varnelo Squer,8.9488837,
node/10904734315,0,38.7373285,Sar Bet,8.9951163,
node/10904734316,0,38.7276618,Austria Embassy,8.9936468,
node/10904734318,0,38.7177291,Total 3 Kuter Mazoria,8.9922476,
node/10905160356,0,38.7322404,Autobus Tera,9.0330017,
node/10905160357,0,38.7323851,Autobus Tera,9.033026,
node/10905160358,0,38.7329553,Sebategna,9.0282768,
node/10905160359,0,38.7331326,Sebategna,9.0283274,
node/10905160360,0,38.7333187,Abenet,9.021201,
node/10905160361,0,38.7335682,Abenet,9.0196344,
node/10905160362,0,38.7346366,Darmar,9.0158211,
node/10905160363,0,38.7347971,Darmar,9.0154497,
node/10905160364,0,38.7343382,Lideta Condominium,9.0133778,
node/10905160365,0,38.7345056,Lideta Condominium,9.0133623,
node/10905160366,0,38.7337879,Dessie Hotel,9.0094187,
node/10905160367,0,38.7339331,Dessie Hotel,9.0093029,
node/10905160368,0,38.7337058,Lideta,9.0046165,
node/10905160369,0,38.7338158,Lideta,9.0041332,
node/10905160370,0,38.7393722,AU (Mikael) Rounrdabout,9.0001611,
node/10905160371,0,38.7400667,AU (Mikael) Rounrdabout,8.9999889,
node/10905641592,0,38.7518774,Kera,8.9840367,
node/10905771998,0,38.7123799,Jemmo 1,8.9606229,
node/10905771999,0,38.7216431,Jemmo Mickael,8.9688439,
node/10905772000,0,38.7468034,Metrology,9.0192423,
node/10905772001,0,38.7304143,karl Square,8.9969985,
node/10905772002,0,38.7227062,Bisrate Gebrael,8.9883364,
node/10905772003,0,38.7218663,Jemmo Mickael,8.9687533,
node/10905772004,0,38.7124299,Jemmo 1,8.9604031,
node/10905866700,0,38.6701812,Noc,8.9493317,
node/10905876026,0,38.6639521,Alem Gena,8.9339514,
node/10905876027,0,38.6640124,Alem Gena,8.933851,
node/10905876029,0,38.670031,Noc,8.9493415,
node/10905876030,0,38.6965362,Jemmo 3 Squer,8.9538566,
node/10905876031,0,38.697557,Jemmo 3 Squer,8.9552123,
node/10905982178,0,38.7520387,Post Office,9.0220649,
node/10905982179,0,38.732839,Germen Square,8.9652918,
node/10905982180,0,38.7325545,Germen Square,8.9664306,
node/10906020778,0,38.7418952,Gofa,8.9717027,
node/10906020779,0,38.7419996,Gofa,8.9716231,
node/10906074341,0,38.6979766,Ayer Tena,8.9816221,
node/10906074342,0,38.7320917,Germen Square,8.9644965,
node/10906074343,0,38.732112,Germen Square,8.9646595,
node/10907679395,0,38.6922537,Mesked,8.9883474,
node/10907679396,0,38.6892908,Kidane Mihret,8.9913753,
node/10907679398,0,38.683541,Tropical,8.9958978,
node/10907679399,0,38.677926,Alem Bank,9.0003808,
node/10907679400,0,38.6776565,Alem Bank,9.0010321,
node/10907679401,0,38.6841485,Tropical,8.9957016,
node/10907679402,0,38.689491,Kidane Mihret,8.9915373,
node/10907679403,0,38.6925125,Mesked,8.9884696,
node/10907679404,0,38.7060819,Chaina Camp,8.9757717,
node/10907725405,0,38.7121867,Zenebewerk,8.9730472,
node/10907725406,0,38.7275949,Mickael Bridge,8.9655559,
node/10907781477,0,38.7333383,Germen Square,8.9648278,
node/10907781478,0,38.7500865,Kera,8.9844811,
node/10907781479,0,38.7502058,Kera,8.9843837,
node/10907781480,0,38.7490157,Gofa Gebriel,8.9770976,
node/10907781481,0,38.7491174,Gofa Gebriel,8.9770919,
node/10908143594,0,38.7343726,Mekanisa Abo,8.9832814,
node/10908143595,0,38.7341531,Mekanisa Abo,8.9830621,
node/10908143596,0,38.7440188,Mexico,9.0088673,
node/10908143597,0,38.7438,Mexico,9.0088181,
node/10908191497,0,38.7516402,Tewodros Square,9.0263912,
node/10908191498,0,38.7321651,Mekanisa,8.9739466,
node/10908191499,0,38.7322539,Mekanisa,8.9738507,
node/10908191500,0,38.7524753,Post Office,9.0187971,
node/10908661149,0,38.7334477,Mebrathile,8.9493572,
node/10909186645,0,38.729496,Coca Cola,9.0159317,
node/10909186646,0,38.735361,Merab Hotel,9.0294352,
node/10909186647,0,38.7334955,Abenet,9.0213907,
node/10909186648,0,38.7353749,Merab Hotel,9.0293588,
node/10909186649,0,38.7180312,Kolfe Keranyo,9.016555,
node/10909186650,0,38.7159578,Holand,9.0203575,
node/10909186651,0,38.7162551,Holand,9.0204824,
node/10909186652,0,38.7176312,Kolfe Keranyo,9.017036,
node/10909186653,0,38.7179346,Kolfe Keranyo,9.0171583,
node/10909186654,0,38.7202541,Torhayloch,9.0122446,
node/10909186655,0,38.7202419,Torhayloch,9.0120497,
node/10909186657,0,38.7097752,Keranio Mewcha,9.0134653,
node/10909186658,0,38.7097861,Keranio Mewcha,9.0133225,
node/10909186659,0,38.7049946,Mewcha,9.0140592,
node/10909186660,0,38.7050058,Mewcha,9.0139288,
node/10909186661,0,38.699427,Mendida,9.0153041,
node/10909186662,0,38.6995858,Mendida,9.0151509,
node/10909186663,0,38.6937692,Betel,9.0037697,
node/10909186664,0,38.6937746,Betel,9.0036921,
node/10909186665,0,38.6775777,Alem Bank,9.0017481,
node/10909186666,0,38.677633,Alem Bank,9.0016995,
node/10911198617,0,38.7080844,Zenebewerk,8.9868549,
node/10911198618,0,38.7081829,Zenebewerk,8.9867824,
node/10911198619,0,38.6960194,Ayer Tena,8.9838764,
node/10911242345,0,38.7446969,Mexico Shebelle Hotel,9.0114518,
node/10911242346,0,38.7445773,Mexico Shebelle Hotel,9.0114526,
node/10911242347,0,38.7336365,Lideta,9.0117415,
node/10911242348,0,38.7336469,Lideta,9.0115482,
node/10911242349,0,38.6772002,Alem Bank,9.001869,
node/10911242350,0,38.6769434,Alem Bank,9.0018954,
node/10911695404,0,38.7007283,Ayer Tena,8.9834957,
node/10911717876,0,38.6943792,Betel,9.0044227,
node/10911717877,0,38.6941796,Betel,9.0043775,
node/10911725505,0,38.6982237,Ayer Tena,8.9831049,
node/10912835918,0,38.7080303,Zenebewerk,8.9879977,
node/10912835920,0,38.7079594,Zenebewerk,8.9880219,
node/10913852032,0,38.714679,Mebrat Haile,9.0295143,
node/10913852033,0,38.7149385,Mebrat Haile,9.0294826,
node/10913852034,0,38.7146172,18 Mazoria,9.0334554,
node/10913852035,0,38.714468,18 Mazoria,9.0334598,
node/10913863174,0,38.7327435,Abenet,9.0196268,
node/10913863175,0,38.7327231,Abenet,9.0194053,
node/10913863176,0,38.7296372,Coca Cola,9.0159095,
node/10913863177,0,38.7222401,Torhayloch,9.0117875,
node/10913863178,0,38.7208808,Torhayloch,9.0096837,
node/10913863179,0,38.7185634,Augusta Bridge,9.0056583,
node/10913863180,0,38.7188581,Augusta Bridge,9.0055925,
node/10913863181,0,38.7188599,Old Airport,9.0000925,
node/10913863182,0,38.7191188,Old Airport,8.9998426,
node/10913863183,0,38.7170227,3 Kutir Mazoriya (Total),8.9932525,
node/10913863184,0,38.7158494,3 Kutir Mazoriya (Total),8.9926315,
node/10913974717,0,38.6817486,Kara Kore,8.9756363,
node/10913974718,0,38.6814504,Kara Kore,8.9754009,
node/10913974719,0,38.6894126,Gerar,8.9813701,
node/10913974720,0,38.6894421,Gerar,8.9813486,
node/10913974721,0,38.6982009,Ayer Tena,8.9829716,
node/10914160973,0,38.746198,Mexico,9.0116587,
node/10914160974,0,38.7438026,Mexico,9.0102476,
node/10914160976,0,38.708928,Zenebewerk,8.987734,
node/10914160977,0,38.7049751,Zenebewerk,8.9849086,
node/10914680945,0,38.7053463,Zenebewerk Meneharia,8.9853381,
node/10914680946,0,38.7056363,Zenebewerk Meneharia,8.9852574,
node/10914784456,0,38.71237,Atena Tera,9.0417169,
node/10914784457,0,38.7127192,Atena Tera,9.0414427,
node/10915613002,0,38.7426711,Tekle Haimanot,9.028352,
node/10915613003,0,38.742622,Tekle Haimanot,9.0281855,
node/10915905485,0,38.6937551,Asko,9.0658063,
node/10915905486,0,38.6937141,Asko,9.065919,
node/10915905487,0,38.7010467,Chereta,9.0612502,
node/10915905488,0,38.7011727,Chereta,9.0612523,
node/10915905489,0,38.7069671,Gulele Fana,9.0575666,
node/10915905490,0,38.7070447,Gulele Fana,9.0576638,
node/10915905491,0,38.7114229,Awolia,9.0572628,
node/10915905492,0,38.7116493,Awolia,9.0576104,
node/10915905493,0,38.7124522,Winget,9.0555179,
node/10915905494,0,38.7127252,Winget,9.0554488,
node/10918141989,0,38.6993091,Kokebe,9.018116,
node/10918141990,0,38.6991634,Kokebe,9.0178995,
node/10918141991,0,38.6969603,Yeshi Debele,9.0188526,
node/10918141992,0,38.6971815,Yeshi Debele,9.0185642,
node/10918141993,0,38.7017975,Keranio Adebabay,9.0177704,
node/10918141994,0,38.7006389,Keranio Adebabay,9.0176675,
node/10918141995,0,38.7049143,Medhanalem,9.0178222,
node/10918141996,0,38.7047128,Medhanalem,9.0175512,
node/10918245686,0,38.7208703,Torhayloch,9.0115804,
node/10918245687,0,38.720685,Torhayloch,9.0099639,
node/10918314820,0,38.7225031,Torhayloch,9.0114229,
node/10918339958,0,38.7206095,Torhayloch,9.0128836,
node/10922141942,0,38.7544283,Legehar,9.0118511,
node/10923884107,0,38.7174162,Zebera,9.0691686,
node/10923884109,0,38.7350114,Addisu Gebeya,9.0630022,
node/10923884110,0,38.7352489,Addisu Gebeya,9.0625854,
node/10923884111,0,38.725597,Bera Tera,9.0670589,
node/10923884112,0,38.7174444,Zebera,9.0689759,
node/10923941250,0,38.7374564,Addisu Gebeya,9.0594889,
node/10923941251,0,38.7379019,Addisu Gebeya,9.059208,
node/10923941252,0,38.7431266,Semen Mazegaga,9.0528165,
node/10923941253,0,38.7432318,Semen Mazegaga,9.0528691,
node/10923941254,0,38.7461562,Shola,9.0483987,
node/10923941255,0,38.7462522,Shola,9.0484505,
node/10923941256,0,38.7483104,Semen Hotel,9.0446634,
node/10923941257,0,38.7485012,Semen Hotel,9.0446029,
node/10923941258,0,38.745274,Yohanes,9.0425995,
node/10923941259,0,38.7453414,Yohanes,9.0425158,
node/10923941260,0,38.7394065,Eritrea Hotel,9.0346843,
node/10923941261,0,38.7393526,Eritrea Hotel,9.0347991,
node/10924087993,0,38.7517928,Medhanalem,9.0552727,
node/10924087994,0,38.7518779,Medhanalem,9.0552482,
node/10924087995,0,38.7497489,Chelote,9.0520868,
node/10924087996,0,38.7496604,Chelote,9.0521299,
node/10924087997,0,38.746423,Shola,9.0479898,
node/10924087998,0,38.7465175,Shola,9.0480732,
node/10924088002,0,38.7516855,St. George Church,9.0385287,
node/10924088003,0,38.7518109,St. George Church,9.0385651,
node/10924088004,0,38.7522648,Piassa,9.0365858,
node/10924116805,0,38.7533491,Piassa,9.0341764,
node/10924116806,0,38.7492165,Kechenie,9.0650022,
node/10924116808,0,38.7496684,Kechenie,9.0652478,
node/10924211089,0,38.7268465,Shegole,9.0639755,
node/10924211090,0,38.7269586,Shegole,9.0640548,
node/10924211093,0,38.7274953,Rufael,9.0590346,
node/10924211094,0,38.7274376,Rufael,9.0590438,
node/10924211095,0,38.7329754,Tureta Deldy,9.0544658,
node/10924211096,0,38.7330307,Tureta Deldy,9.054531,
node/10924211097,0,38.7377403,Enqulal Fabrica,9.0492619,
node/10924211098,0,38.7378298,Enqulal Fabrica,9.0492678,
node/10924212637,0,38.7440337,Ras Desta,9.0444679,
node/10924212638,0,38.7439161,Ras Desta,9.0444022,
node/10924212640,0,38.7483682,Sebara Babur,9.0375917,
node/10924212641,0,38.749271,Abune Petros,9.0358617,
node/10924212642,0,38.7494119,Abune Petros,9.0359205,
node/10924212643,0,38.7458165,Yohanes,9.04258,
node/10924212644,0,38.7459326,Yohanes,9.0426863,
node/10924342466,0,38.79823,Shola Abyssinia Bank,9.0230837,
node/10924342467,0,38.7854804,British Embassy,9.0307347,
node/10924342468,0,38.7730502,Menlik Hospital,9.0385815,
node/10924342469,0,38.7728666,Menlik Hospital,9.0385052,
node/10924342470,0,38.7618512,6 Kilo,9.0437484,
node/10924342471,0,38.7613161,6 Kilo,9.0453786,
node/10924981547,0,38.7527884,Piassa,9.0352542,
node/10924981836,0,38.7714084,Kazanchis,9.0168504,
node/10924981837,0,38.7712817,Kazanchis,9.0167816,
node/10924981839,0,38.767286,Meneharya,9.0199981,
node/10924981840,0,38.7614317,6 Kilo,9.0462061,
node/10924981841,0,38.7615616,6 Kilo,9.046202,
node/10925096455,0,38.7613028,6 Kilo (Lion Zoo),9.0430636,
node/10925096457,0,38.7621679,Medhanalem,9.0509212,
node/10925096458,0,38.7616364,Shiromeda,9.0609308,
node/10925096459,0,38.7618074,Shiromeda,9.0610296,
node/10925161777,0,38.7493321,Abune Petros,9.0350989,
node/10925161778,0,38.7492809,Abune Petros,9.0353615,
node/10925161780,0,38.7526253,St. George Total,9.0385895,
node/10925161781,0,38.7411822,Raguel Church,9.0338335,
node/10925161782,0,38.7413278,Raguel Church,9.0340374,
node/10925161783,0,38.7491307,Piassa,9.0352768,
node/10925161784,0,38.749266,Piassa,9.0350881,
node/10925195639,0,38.7462619,Mexico,9.0115722,
node/10925695034,0,38.7130281,Winget,9.0572967,
node/10925695035,0,38.7136024,Winget,9.0576478,
node/10925835130,0,38.7201372,Shegole,9.0630668,
node/10925835131,0,38.7202097,Shegole,9.0630348,
node/10925835153,0,38.7226821,Medhanalem,9.051016,
node/10925835154,0,38.7228048,Medhanalem,9.0512021,
node/10925835155,0,38.7275912,Pawlos Hospital,9.047368,
node/10925835156,0,38.7277025,Pawlos Hospital,9.0474739,
node/10925835157,0,38.7306013,Pastor,9.0462435,
node/10925835158,0,38.7305979,Pastor,9.0460773,
node/10925835159,0,38.7324674,Michael,9.041653,
node/10925835160,0,38.732621,Michael,9.0418749,
node/10925835161,0,38.731876,Autobus Tera,9.0356953,
node/10925835162,0,38.731937,Autobus Tera,9.0357033,
node/10925946103,0,38.8548285,Summit Condominiums,8.9844426,
node/10925946104,0,38.8525995,Summit Condominiums,8.9909634,
node/10925966505,0,38.8598883,Meshageria,9.0206981,
node/10925966506,0,38.8751635,Derartu Adebabay,9.0212039,
node/10925966507,0,38.8751433,Derartu Adebabay,9.0215357,
node/10925966508,0,38.8773377,Gebreal,9.0403679,
node/10925966509,0,38.8778174,Gebreal,9.0402783,
node/10925966510,0,38.877831,Aba Kiros,9.0556893,
node/10925966511,0,38.878549,Aba Kiros,9.0561133,
node/10926028111,0,38.8903446,Bole Arabsa,8.9732139,
node/10926028112,0,38.8904396,Bole Arabsa,8.9726241,
node/10926028113,0,38.8850892,Maseltegna,8.9932453,
node/10926028114,0,38.8854551,Maseltegna,8.9932023,
node/10926028115,0,38.8780839,Sun shine,9.0100814,
node/10926028116,0,38.8779385,Sun shine,9.0100956,
node/10926028117,0,38.8770142,Ayat,9.0215285,
node/10926040103,0,38.8848989,Mariam,8.9875932,
node/10926040104,0,38.8852531,Mariam,8.9875847,
node/10926074605,0,38.8767405,Ayat,9.0212341,
node/10926094674,0,38.8529201,Summit Condominiums,8.9910294,
node/10926094675,0,38.8033659,Megenagna,9.0195894,
node/10926817920,0,38.8038784,Megenagna,9.0203394,
node/10926817921,0,38.8779123,Tafo Square,9.057063,
node/10926817922,0,38.8780073,Tafo Square,9.0566681,
node/10926849848,0,38.8763861,Sun shine,9.0021737,
node/10926849849,0,38.8537813,Summit Chafe,9.0011674,
node/10926849850,0,38.8537842,Summit Chafe,9.0015569,
node/10926849851,0,38.8299574,Goro,8.9918731,
node/10926849852,0,38.8303339,Goro,8.9917492,
node/10926896755,0,38.8256621,Se'alite Mihret,9.0194791,
node/10926896756,0,38.8254269,Se'alite Mihret,9.0198404,
node/10926896757,0,38.8944977,Ayat Chefe Condominium,9.0109362,
node/10926896758,0,38.8946434,Ayat Chefe Condominium,9.0113892,
node/10928177661,0,38.8758009,Ayat,9.0207778,
node/10928876312,0,38.854445,Summit Condominiums,8.9846036,
node/10928876313,0,38.8548242,Summit Condominiums,8.9844416,
node/10929299420,0,38.751565,Tewodros Square,9.0273248,
node/10929299421,0,38.7517149,Tewodros Square,9.0273553,
node/10929299422,0,38.7480915,Tikur Anbesa,9.0209798,
node/10929337801,0,38.7449001,Mexico,9.0105347,
node/10929337802,0,38.7559408,Stadium,9.0119557,
node/10929337803,0,38.7559437,Stadium,9.0121328,
node/10929412718,0,38.8009614,Megenagna,9.0195364,
node/10929412719,0,38.8005907,Megenagna,9.0190569,
node/10929412721,0,38.787267,22 Mazoria,9.0155693,
node/10929694820,0,38.7940688,Lem Hotel,9.0211986,
node/10929694821,0,38.7939939,Lem Hotel,9.0210828,
node/10929694822,0,38.7815067,Signal,9.0235014,
node/10929694823,0,38.781471,Signal,9.0233755,
node/10929694824,0,38.7718347,Abuare Gebeya,9.0280712,
node/10929694825,0,38.7718123,Abuare Gebeya,9.0279894,
node/10929694826,0,38.7520638,Tewodros Square,9.0270034,
node/10929694827,0,38.7520149,Tewodros Square,9.0268625,
node/10929694828,0,38.744541,Tekle Haimanot,9.0285216,
node/10929694829,0,38.74454,Tekle Haimanot,9.0284531,
node/10929694830,0,38.8009431,Megenagna,9.020064,
node/10929694831,0,38.8005994,Megenagna,9.0200336,
node/10929752934,0,38.7209032,Torhayloch,9.0127448,
node/10931788261,0,38.7998465,Megenagna,9.0225048,
node/10931788262,0,38.8010821,Megenagna,9.021325,
node/10931809323,0,38.8385778,Kotebe,9.0303308,
node/10931809324,0,38.8331547,Se'alite Mihret,9.0284671,
node/10931809325,0,38.833187,Se'alite Mihret,9.0283689,
node/10931809326,0,38.8139293,Lamberet,9.0216042,
node/10931809327,0,38.813953,Lamberet,9.0214909,
node/10931809328,0,38.8642169,Kara,9.0404534,
node/10931809329,0,38.864319,Kara,9.0404001,
node/10931809330,0,38.8015712,Megenagna,9.0216983,
node/10931850027,0,38.799743,Megenagna,9.0224128,
node/10931850028,0,38.7799581,Kokebe Tsebah (Kebena),9.0344299,
node/10931884718,0,38.7628341,4 Kilo,9.036142,
node/10931884719,0,38.7769686,Ferensay,9.0571169,
node/10931884720,0,38.7769596,Ferensay,9.0570142,
node/10931884721,0,38.7722195,Mezan,9.0535366,
node/10931884722,0,38.7721316,Mezan,9.0535794,
node/10931884723,0,38.7690665,Jan Meda,9.0470261,
node/10931884724,0,38.7690208,Jan Meda,9.0471196,
node/10931937848,0,38.8021444,Megenagna,9.0180915,
node/10931937849,0,38.766754,Kadisco,8.9633989,
node/10931995346,0,38.776629,Kebena,9.0347501,
node/10932040828,0,38.7618304,6 Kilo,9.0436018,
node/10932040829,0,38.7526555,St. George Total,9.0386325,
node/10932040830,0,38.7527659,St. George Total,9.038614,
node/10932115661,0,38.7950974,Lem Hotel,9.017586,
node/10932115662,0,38.8198719,Lamberet,9.0239221,
node/10932115666,0,38.7471433,Mexico,9.0107294,
node/10932115667,0,38.7467607,Mexico,9.0104411,
node/10933668851,0,38.796095,Shola Gebeya,9.0249902,
node/10933668852,0,38.7963986,Shola Gebeya,9.0253078,
node/10933668868,0,38.8021516,Beg Tera,9.0290044,
node/10933668869,0,38.802143,Beg Tera,9.0289126,
node/10933668870,0,38.8093843,Zebera,9.0315916,
node/10933668871,0,38.8094344,Zebera,9.0314928,
node/10933668873,0,38.818742,Kidane Mihret,9.0355162,
node/10933668874,0,38.8186176,Kidane Mihret,9.0355971,
node/10933970678,0,38.7750759,St. Urael Church,9.0113969,
node/10933970679,0,38.7752362,St. Urael Church,9.0110384,
node/10934121405,0,38.7797684,Atlas,9.004269,
node/10934121406,0,38.779678,Atlas,9.0041884,
node/10934121407,0,38.7748368,St. Urael Church,9.0103387,
node/10934121408,0,38.7749361,St. Urael Church,9.0104642,
node/10934142102,0,38.7516693,Kera,8.9842694,
node/10934142103,0,38.7516071,Kera,8.9841384,
node/10934274056,0,38.7632997,4 Kilo,9.0324426,
node/10934274057,0,38.7635199,4 Kilo,9.0324401,
node/10934274058,0,38.762845,St. Estifanos,9.012454,
node/10934274059,0,38.7482685,Buna Ena Shay,9.0109591,
node/10934274060,0,38.748215,Buna Ena Shay,9.0106827,
node/10936313832,0,38.7645933,4 Kilo,9.032283,
node/10936313833,0,38.7648081,4 Kilo,9.0323383,
node/10936490562,0,38.7321818,Sebategna,9.0289759,
node/10936490563,0,38.7322093,Sebategna,9.028913,
node/10936490564,0,38.7211312,Amanuel Total,9.0258457,
node/10936490565,0,38.721144,Amanuel Total,9.0258301,
node/10936621813,0,38.7131944,Winget,9.0576027,
node/10936724096,0,38.7375414,Enqulal Fabrica,9.0486146,
node/10936724097,0,38.7377157,Enqulal Fabrica,9.0485559,
node/10937101933,0,38.731079,karl Square,8.9975486,
node/10937167108,0,38.7611528,6 Kilo,9.0441444,
node/10937167109,0,38.7613175,6 Kilo,9.0441155,
node/10937209934,0,38.7484685,Kera,8.9877236,
node/10937271651,0,38.7497889,Kechenie,9.0652302,
node/10961301939,0,38.7254794,Mesalemia,9.0338624,
node/10961301940,0,38.7255313,Mesalemia,9.0339779,
node/10961301941,0,38.7312096,Merkato,9.0338527,
node/10961301942,0,38.7312282,Merkato,9.0337645,
node/10961408041,0,38.7433286,Tekle Haimanot,9.028926,
node/10961408042,0,38.7757907,Abuare Roundabout,9.0264526,
node/10961408043,0,38.7759091,Abuare Roundabout,9.0265186,
node/10961408397,0,38.7007101,Keranio Adebabay,9.0178983,
node/10961408398,0,38.7004401,Mendida,9.014972,
node/10961408399,0,38.7004576,Mendida,9.0151204,
node/10963292174,0,38.7860616,Bole Medhanyalem,8.9983425,
node/10963292175,0,38.7862416,Bole Medhanyalem,8.9984526,
node/10963817572,0,38.688451,Weybla Mariam,9.0231558,
node/10963817573,0,38.6882249,Weybla Mariam,9.0233344,
node/10963932669,0,38.7889432,22 Mazoria,9.0159879,
node/10964879159,0,38.7226406,Bisrate Gebrael,8.9884101,
node/10970584167,0,38.7086432,Luwkanda,9.0333084,
node/10970584168,0,38.7086485,Luwkanda,9.0332835,
node/10970584169,0,38.7126753,18 Mazoria,9.0335266,
node/10970584170,0,38.7126794,18 Mazoria,9.0335023,
node/10970584171,0,38.7164132,Abysinia Coffee,9.0372905,
node/10970584172,0,38.7164416,Abysinia Coffee,9.037294,
node/10970748190,0,38.7149465,18 Mazoria,9.0337305,
node/10970748192,0,38.7087797,4 Menta Adebabay,9.0515413,
node/10970748193,0,38.7088057,4 Menta Adebabay,9.0514981,
node/10970748194,0,38.7058937,Tero Mosque,9.0503697,
node/10970748195,0,38.7058901,Tero Mosque,9.0503743,
node/10970823802,0,38.7327781,Sebategna,9.0294218,
node/10970823803,0,38.732906,Sebategna,9.0294686,
node/10970829160,0,38.7492677,Piassa Arada,9.0350955,
node/10970912911,0,38.7535518,Piassa Arada,9.033556,
node/10970912912,0,38.6992026,Rufael,9.0542225,
node/10970912913,0,38.6992201,Rufael,9.0542148,
node/10973319411,0,38.6737826,Selefia Mosque,8.9922493,
node/10973319412,0,38.6737682,Selefia Mosque,8.9922388,
node/10973319413,0,38.7498429,Piassa Arada,9.0343357,
node/10973319414,0,38.749831,Piassa Arada,9.0343492,
node/10973319416,0,38.7606274,Shiromeda,9.0610285,
node/10973319417,0,38.760666,Shiromeda,9.0610076,
node/10973446898,0,38.7886493,Akaki Gebeya,8.8697296,
node/10973446899,0,38.7886284,Akaki Gebeya,8.8697306,
node/10973446900,0,38.7865309,Meshualekya,8.8769656,
node/10973631794,0,38.734517,Mebrathayil,8.9482942,
node/10973631795,0,38.7344951,Mebrathayil,8.9481457,
node/10973631797,0,38.7443373,Lafto,8.9473757,
node/10973672014,0,38.7987757,Yeshi Total,8.8668288,
node/10973672015,0,38.798782,Yeshi Total,8.866829,
node/10973929780,0,38.8028464,Megenagna,9.0206661,
node/10973929781,0,38.8234705,Biretabret,9.0339313,
node/10973929783,0,38.8316053,Hanna Mariam,9.0375694,
node/10973929784,0,38.8316071,Hanna Mariam,9.037593,
node/10973929786,0,38.8388573,Kotebe Teachers College,9.0374618,
node/10973929787,0,38.8505525,Kotebe Gebriel,9.0390977,
node/10973929788,0,38.8505551,Kotebe Gebriel,9.039072,
node/10973960231,0,38.8279461,Kotebe,9.0357328,
node/10973960232,0,38.8279666,Kotebe,9.035744,
node/10973960233,0,38.7769466,Kebena,9.0343234,
node/10974036529,0,38.8735567,Yeka Abado,9.0637787,
node/10974036530,0,38.8734371,Yeka Abado,9.0638007,
node/10989247669,0,38.8092174,Taxi Tera,8.9948109,
node/10989247670,0,38.7944031,Bole Bridge,8.9888758,
node/10989247671,0,38.8517594,Summit,9.0048732,
node/10989247672,0,38.8520615,Summit,9.0050343,
node/10989306740,0,38.7737291,Bole Mickael,8.9791887,
node/10989306742,0,38.7732491,Bole Mickael,8.979439,
node/10989306744,0,38.798111,Riventy,8.9647488,
node/10989306745,0,38.7981165,Riventy,8.9647649,
node/10989322787,0,38.6992761,Lomi Meda,9.0436398,
node/10989322788,0,38.6991228,Lomi Meda,9.0437269,
node/10989322789,0,38.7046602,Philiphs,9.0423415,
node/10989322790,0,38.7046575,Philiphs,9.0423608,
node/10989322793,0,38.7116317,Atena Tera,9.0417374,
node/10989322794,0,38.7113214,Atena Tera,9.041685,
node/10989352901,0,38.7128543,Atena Tera,9.0418861,
node/10989352903,0,38.7136815,Atena Tera,9.0419946,
node/10989352904,0,38.7169566,Kolfe,9.037404,
node/10989388405,0,38.7170428,Kolfe,9.0373552,
node/10989388406,0,38.7213864,Chid Tera,9.0376969,
node/10989388407,0,38.7215618,Chid Tera,9.0375624,
node/10989495135,0,38.760933,Tourist Hotel,9.0339795,
node/10989495136,0,38.7627083,Tourist Hotel,9.0331899,
node/10989495137,0,38.752267,St. George Church,9.0365548,
node/10989495138,0,38.7523885,St. George Church,9.0365649,
node/10989606497,0,38.723026,Amanuel Church,9.0280891,
node/10989606498,0,38.7230514,Amanuel Church,9.0280827,
node/10989606501,0,38.7246409,Mesalemia,9.0330957,
node/10989606502,0,38.7246228,Mesalemia,9.0330994,
node/10989606503,0,38.729182,Coca Cola,9.0170151,
node/10989606504,0,38.7293902,Coca Cola,9.0169029,
node/10989700748,0,38.7477611,Tikur Anbesa,9.0216869,
node/10989700750,0,38.7476433,Tikur Anbesa,9.0214822,
node/10989765272,0,38.8028176,Megenagna,9.0198621,
node/10991706244,0,38.7619614,Tourist Hotel,9.0331305,
node/10991706246,0,38.7538719,Ambasader,9.018399,
node/10991706247,0,38.7539744,Ambasader,9.0182782,
node/10991763449,0,38.7588533,Manen,9.0515112,
node/10991763450,0,38.7588598,Manen,9.0515112,
node/10992050085,0,38.7766907,Selam Building,8.8840593,
node/10992073740,0,38.7693473,Saris Abo,8.944348,
node/10992247910,0,38.7771744,Selam Building,8.8832126,
node/10992247911,0,38.768463,Gelan Condominium,8.8801893,
node/10992247913,0,38.7684764,Gelan Condominium,8.8801651,
node/10994789635,0,38.7887302,Breta bret,8.8738823,
node/10994942333,0,38.7888076,Akaki CBE,8.867782,
node/10994942334,0,38.7887141,Akaki CBE,8.8679415,
node/10995013009,0,38.7462885,Mexico,9.0098456,
node/10995013010,0,38.7443751,Lafto,8.9470636,
node/10995013013,0,38.7504178,Lafto (Mickael),8.9537702,
node/10995013014,0,38.7443174,Lafto,8.9473785,
node/10995113524,0,38.7070388,Woyira Sefer,9.0051854,
node/10995113525,0,38.7068721,Woyira Sefer,9.0050595,
node/10996939227,0,38.7170312,Total 3 Kutir mazoria,8.9932233,
node/10997112356,0,38.7486669,Mebrat,8.9671943,
node/10997112357,0,38.7487468,Mebrat,8.9671522,
node/10997112358,0,38.7515775,Biharetsege,8.9621911,
node/10997112359,0,38.7515885,Biharetsege,8.9622089,
node/10997112361,0,38.7631284,Adey Abeba,8.9576758,
node/10997112362,0,38.7631332,Adey Abeba,8.9576954,
node/10997112364,0,38.7488713,Gofa Gebriel,8.9758799,
node/10997112365,0,38.7489751,Gofa Gebriel,8.9758721,
node/10997125769,0,38.7332825,Abenet,9.0196301,
node/10997242295,0,38.6708623,Weleta,8.963665,
node/10997242296,0,38.6708779,Weleta,8.9636677,
node/10997242298,0,38.6731812,Weleta Tele,8.9666342,
node/10997242299,0,38.6774372,Repi Highschool,8.9764681,
node/10997242300,0,38.6774017,Repi Highschool,8.9765185,
node/10997243557,0,38.8741609,Sara Ampol,9.0576594,
node/10997243558,0,38.874351,Sara Ampol,9.0575648,
node/10997243559,0,38.8693718,Kara Condominium,9.0480764,
node/10997243560,0,38.8695015,Kara Condominium,9.0480356,
node/10997360870,0,38.7207531,Torhayloch,9.0107982,
node/10997382833,0,38.7447026,Mexico,9.0114511,
node/10997382834,0,38.7445835,Mexico,9.0114533,
node/10997495133,0,38.7440492,Mexico,9.01285,
node/10997495134,0,38.74405,Mexico,9.01282,
node/10997495135,0,38.7345884,Darmar,9.0163639,
node/10998041498,0,38.7545702,Piassa Arada,9.0329801,
node/10998041499,0,38.7537202,Piassa Arada,9.0334582,
node/10998041503,0,38.7949306,Shola,9.025295,
node/10998041504,0,38.7947575,Shola,9.0251357,
