parent_station,stop_lon,stop_name,location_type,stop_id,stop_lat
,38.8504558,C.M.C,0,way/604046026,9.0210263001
,38.85044875,C.M.C,0,way/604046027,9.0209365501
,38.86039005,Meri,0,way/604046028,9.0206309001
,38.86039745,Meri,0,way/604046029,9.0205342501
,38.8717948,Ayat,0,way/604046052,9.0212283001
,38.87179745,Ayat,0,way/604046053,9.0211369001
,38.8426211,St. Michael,0,way/758915882,9.0213594001
,38.8426345,St. Michael,0,way/758915883,9.0214511001
,38.8284090499,Management Institute,0,way/758919087,9.0208269001
,38.8283603999,Management Institute,0,way/758919088,9.0209051001
,38.83479945,Civil Service College,0,way/758919089,9.0216842501
,38.83479775,Civil Service College,0,way/758919090,9.0217686501
,38.76879995,Bambis,0,way/758922739,9.0104366001
,38.76877485,Bambis,0,way/758922740,9.0103406001
,38.77470915,St. Urael,0,way/758922741,9.01097965
,38.7832560999,Hayahulet 2,0,way/758922742,9.0148301501
,38.7832141999,Hayahulet 2,0,way/758922743,9.0149096001
,38.7893457,ሃያ ሁለት 1,0,way/758922744,9.0161997001
,38.7893058,ሃያ ሁለት 1,0,way/758922745,9.0162805001
,38.7959030499,Lem Hotel,0,way/758922746,9.0178779001
,38.7958714999,Lem Hotel,0,way/758922747,9.0179702501
,38.8026662,Megenagna,0,way/758922751,9.0196319001
,38.81016615,Gurd Sholla 2,0,way/758922752,9.0201812501
,38.8101826,Gurd Sholla 2,0,way/758922753,9.0202704501
,38.8199118,Gurd Sholla 1,0,way/758922754,9.0190550501
,38.8199363,Gurd Sholla 1,0,way/758922755,9.0191373501
,38.7228792001,Tor Hailoch,0,way/758926923,9.0114466001
,38.7228400001,Tor Hailoch,0,way/758926924,9.0113509001
,38.72927195,Cocacola,0,way/758926925,9.0120608501
,38.7292679,Cocacola,0,way/758926926,9.0119827001
,38.7358812,St. Lideta,0,way/758926927,9.0113260501
,38.735902,St. Lideta,0,way/758926928,9.0114191001
,38.74251165,Tegbared,0,way/758926929,9.0104883001
,38.74252605,Tegbared,0,way/758926930,9.0105720501
,38.7486780499,Mexico,0,way/758926931,9.0110042001
,38.7486304499,Mexico,0,way/758926932,9.0111035001
,38.75364485,Leghar,0,way/758926933,9.0118976001
,38.7536616,Leghar,0,way/758926934,9.0118055501
,38.75765945,Stadium,0,way/758926935,9.0119426001
,38.75768125,Stadium,0,way/758926936,9.0120396501
,38.7633918,St. Estifanos,0,way/758926937,9.0109756501
,38.7634133,St. Estifanos,0,way/758926938,9.0110528501
,38.7383589,Gojam Berenda,0,way/759354435,9.0341520001
,38.73838775,Gojam Berenda,0,way/759354436,9.0342421001
,38.7469346,Atikilt Tera,0,way/759354437,9.0345698501
,38.7469217,Atikilt Tera,0,way/759354438,9.0346634001
,38.7631070001,Kality,0,way/759359409,8.938011
,38.7630034001,Kality,0,way/759359410,8.93795435
,38.7663008501,Abo Junction,0,way/759359411,8.94501825
,38.7662190501,Abo Junction,0,way/759359412,8.9449765
,38.7634466333,Saris,0,way/759359413,8.9519971333
,38.7633591333,Saris,0,way/759359414,8.9519912333
,38.76388145,Adey Abeba,0,way/759359415,8.9567954
,38.76379965,Adey Abeba,0,way/759359416,8.9568021
,38.75926535,Lancha,0,way/759359417,8.9903485
,38.75916345,Lancha,0,way/759359418,8.9903366
,38.7598284334,Temenja Yazh,0,way/759359419,8.9952452
,38.7597271667,Temenja Yazh,0,way/759359420,8.9952399
,38.7587088,Riche,0,way/759359421,9.0005732
,38.7586096,Riche,0,way/759359422,9.00058575
,38.7588805,Meshwalekya,0,way/759359423,9.00485825
,38.7587524,Meshwalekya,0,way/759359424,9.00486215
,38.73475,Darmar,0,way/759359425,9.0154149
,38.73466315,Darmar,0,way/759359426,9.01542485
,38.73335125,Abnet,0,way/759359427,9.0212786
,38.73341865,Abnet,0,way/759359428,9.0212687
,38.73298775,Sebategna,0,way/759359429,9.0283819
,38.7330763,Sebategna,0,way/759359430,9.0284011
,38.7329878,Autobus Tera,0,way/759359431,9.0340910501
,38.7329908,Autobus Tera,0,way/759359432,9.0340079501
,38.7607979501,Nifas Silk 2,0,way/759365358,8.9731988
,38.7606849501,Nifas Silk 2,0,way/759365359,8.97316965
,38.7629963,Nifas Silk 1,0,way/759365360,8.9657149
,38.7628904,Nifas Silk 1,0,way/759365361,8.96571355
,38.7525538,Beherawi Theatre,0,node/847244293,9.0165395
,38.7521415,Black Lion,0,node/847244423,9.0209237
,38.7632408,4 Kilo,0,node/4832025024,9.0344007
,38.8158571,Lamberet Terminal (Bus),0,node/4884374622,9.0223057
,38.738182,Sar Bet (Roundabout),0,node/5248250425,8.9929728
,38.7553162,Ambassador,0,node/5330678521,9.0164409
,38.7570321,Stadium,0,node/5736089088,9.0120276
,38.7146778,Mebrathail,0,node/6251054285,9.0295451
,38.6928185,Asko,0,node/6307600909,9.0654733
,38.7718334,Bole Printing Press,0,node/6373574986,8.9976331
,38.7516761,Arada,0,node/6728583386,9.0331479
,38.8053365,Kebede Wessene Rd.,0,node/6798927886,8.9986049
,38.7444332,Mexico,0,node/6814022390,9.0094665
,38.7438796,Mebrat Condominium,0,node/6967142984,8.9644773
,38.7486643,Mebrat,0,node/6967165728,8.9673396
,38.7491221,Gofa Gebriel,0,node/6967179322,8.9771232
,38.7498599,Kera (Gofa Road),0,node/6967179323,8.9825519
,38.7516602,Tewodros Square,0,node/6967225474,9.0277111
,38.732897,German Square,0,node/6967234177,8.9655968
,38.7859995,Friendship Building,0,node/6967281153,8.9899905
,38.7512565,Piassa (Downtown Cafe),0,node/6967281241,9.0319356
,38.7526242,Piassa Arada (2),0,node/6967281242,9.0330123
,38.6217166,Gojo,0,node/6967318740,9.0418236
,38.8026673,Megenagna Terminal,0,node/7022361366,9.0203188
,38.7897496,Bole Millenium,0,node/7022397409,8.9885373
,38.789886,Bole Millenium,0,node/7022397410,8.9887535
,38.8267584,Goro School,0,node/7022397411,8.9937973
,38.8569749,Summit Condominiums,0,node/7022397413,8.9842709
,38.8570885,Summit Condominiums,0,node/7022397414,8.9842404
,38.8906061,Bole Arabsa,0,node/7022397416,8.9720161
,38.8903477,Bole Arabsa,0,node/7022397417,8.9732168
,38.8785328,Aba Kiros Roundabout,0,node/7022397418,9.0561234
,38.875565,Yeka Abado,0,node/7022397420,9.0689298
,38.8756232,Yeka Abado,0,node/7022397421,9.0688377
,38.7893816,Gurara,0,node/7037142410,9.0626023
,38.7757967,Abuare Roundabout,0,node/7037142414,9.026427
,38.7759255,Abuare Roundabout,0,node/7037142415,9.026504
,38.8000289,Marathon Motor (Megenagna),0,node/7037142417,9.0224201
,38.7836264,Yeha,0,node/7037142419,9.060739
,38.7839285,Tena Tabya,0,node/7037142420,9.0608445
,38.7811505,Biret Dildiy (Bono Wuha),0,node/7037142421,9.0598571
,38.7810894,Bret Dildy (Bono Wuha),0,node/7037142422,9.0599927
,38.7797667,Atlas,0,node/7037142423,9.0042786
,38.7860596,Bole Medhanialem,0,node/7037142424,8.9983386
,38.7862428,Bole Medhanialem,0,node/7037142426,8.9984556
,38.800549,24,0,node/7037142427,9.0098865
,38.7866932,Dinberwa Hospital,0,node/7037142428,9.0221273
,38.7802113,Kokebe Tsebah School,0,node/7037142430,9.0345238
,38.7799476,Kokebe Tsebah School,0,node/7037142431,9.034441
,38.7839469,Belgium Embassy,0,node/7037142433,9.031876
,38.784892,British Embassy,0,node/7037142434,9.0311083
,38.7855544,British Embassy,0,node/7037142435,9.0309087
,38.7887162,Abebe Sook,0,node/7037142436,9.0287538
,38.7952986,Shola Gebeya,0,node/7037142438,9.0250779
,38.7961373,Yeka Michael,0,node/7037142439,9.0244101
,38.8021491,Megenagna,0,node/7037142441,9.0180934
,38.8017521,Megenagna,0,node/7037142442,9.0182711
,38.7818414,Derartu,0,node/7037142443,8.8868864
,38.7837651,Gelan Condominium,0,node/7037142444,8.8856808
,38.785491,08 Adarash,0,node/7037142445,8.8844052
,38.7865253,Meshuwalekia Akaki,0,node/7037142446,8.8767985
,38.7887478,Akaki Beretaberet,0,node/7037142448,8.8738843
,38.8207065,G7 (Tulu Dimtu),0,node/7037142450,8.870907
,38.8042339,Tulu Dimtu Unisa,0,node/7037142454,8.8552763
,38.8041524,Tulu Dimtu,0,node/7037142455,8.8556159
,38.7961539,Akaki Korkoro,0,node/7037142456,8.8597556
,38.8051915,Tulu Dimtu (Taf Gas Station),0,node/7037142459,8.8688691
,38.8136608,Arsema,0,node/7037142460,8.8722685
,38.8140262,Selam Sefer (Tapela Gar),0,node/7037142461,8.8722281
,38.8201689,Tulu Dimtu Adebabay,0,node/7037142462,8.8747821
,38.8218482,Project 12 Akababi,0,node/7037142464,8.8658608
,38.8148895,Mahiber Betoch,0,node/7037142465,8.8592154
,38.7912061,Bole Dildiy,0,node/7037142466,8.9869933
,38.8000136,Megenagna / Zefmesh,0,node/7037142467,9.02034
,38.8010735,Megenagna,0,node/7037142469,9.0213214
,38.8015921,Megenagna,0,node/7037142470,9.0217137
,38.8100422,Abysinia Cafe Area,0,node/7037142471,9.0215363
,38.810853,Abysinia Cafe Area,0,node/7037142472,9.0213396
,38.8132781,Century Mall,0,node/7037142474,9.0196778
,38.8215105,Gurd-shola,0,node/7037142475,9.0187352
,38.8192066,Menaheria,0,node/7037142476,9.0239816
,38.8192354,Menaheria,0,node/7037142477,9.0238758
,38.814876,Gerji Mebrat Haile,0,node/7037142479,9.003632
,38.8132574,Gerji Mebrat Haile,0,node/7037142483,9.0037638
,38.8251916,Lamberet,0,node/7037142484,9.0253421
,38.8271787,Lamberet Area,0,node/7037183485,9.0258842
,38.8273076,Lamberet Area,0,node/7037183486,9.0260507
,38.8271189,Lamberet Area,0,node/7037183487,9.0259969
,38.8294063,Yerer Goro,0,node/7037183490,8.9913503
,38.8292171,Yerer Goro,0,node/7037183491,8.9913222
,38.8265756,Se'alite Mihret Church,0,node/7037183492,9.020263
,38.82686,Management Institute,0,node/7037183493,9.0203852
,38.8273219,Sealite Mihret,0,node/7037183494,9.0203048
,38.8342032,Civil Service College,0,node/7037183495,9.0216167
,38.8414217,St. Michael,0,node/7037183496,9.021312
,38.8425033,St. Micheal Church,0,node/7037183497,9.0215489
,38.8331954,Salite Mihret,0,node/7037183498,9.0283709
,38.8333256,Hillside (Ethio-China Mebrathaile),0,node/7037183499,9.0285264
,38.838592,Wessen Michael,0,node/7037183501,9.030459
,38.8316144,Hanna Mariam,0,node/7037183502,9.0375551
,38.8316246,Hanna Mariam,0,node/7037183503,9.0375969
,38.8442968,Wessen,0,node/7037183504,9.0330948
,38.8445812,Wessen,0,node/7037183505,9.033228
,38.8446898,Wessen (Mariam),0,node/7037183507,9.0330982
,38.8466963,Kotebe Teachers College,0,node/7037183508,9.0342084
,38.8533863,Yabem Hotel,0,node/7037183509,9.0357649
,38.8545188,Kotebe Gebriel,0,node/7037183510,9.036101
,38.8526027,Yetebaberut,0,node/7037183513,9.0201901
,38.8539074,Yetebaberut,0,node/7037183515,9.0207031
,38.8603565,Meri,0,node/7037183516,9.0207092
,38.8610727,Meri (Yetebaberut),0,node/7037183518,9.0205124
,38.8686047,Ayat,0,node/7037183519,9.0208331
,38.8678248,Ayat Zone 2,0,node/7037183520,9.0210633
,38.8606002,Kara (Turn),0,node/7037183521,9.0379427
,38.8640163,Medhanalem Church,0,node/7037183523,9.0401552
,38.852259,Safari,0,node/7037183525,9.0106828
,38.8520658,Summit (MOHA),0,node/7037183527,9.0043876
,38.8513132,Saint Georgis,0,node/7037183528,8.9955228
,38.860685,Tena Tabeya,0,node/7037183529,8.9941038
,38.8582866,Gate 2,0,node/7037183532,8.9894728
,38.8544474,Summit Condominiums,0,node/7037183533,8.9846055
,38.8719812,Ayat Train Station,0,node/7037183535,9.0213287
,38.872594,CMC,0,node/7037183536,9.0211208
,38.8767684,Ayat Square,0,node/7037183537,9.0212396
,38.8862575,Feres Bet,0,node/7037183538,9.0216916
,38.8946069,Police Tabia,0,node/7037183539,9.0170704
,38.891209,Tsebel,0,node/7037183540,9.0222555
,38.8902931,Bono Meskid,0,node/7037183541,9.0219034
,38.8946677,Ayat Chefe Condominium,0,node/7037183542,9.0113906
,38.8944878,Ayat Chefe Condominium,0,node/7037183543,9.0109368
,38.8767662,Nebu Mikael,0,node/7037183545,9.0023517
,38.8851706,Ayat Adebabay Hulet (2),0,node/7037183546,8.9965746
,38.8855436,Bole Arabsa (3),0,node/7037183547,8.9963324
,38.8851362,Bole Arabsa (2),0,node/7037183548,8.9841602
,38.8902717,Bole Arabsa,0,node/7037183550,8.9733148
,38.877919,Yeka Condominium 1,0,node/7037183552,9.0354891
,38.8777819,Tafo Gebrael,0,node/7037183554,9.0381306
,38.8779667,Tafo Condominium 1,0,node/7037183555,9.0505157
,38.8773973,Tafo Mebrathail,0,node/7037183557,9.0425957
,38.877866,Tafo Mebrathail,0,node/7037183558,9.0427743
,38.8779122,Tafo Condominium 2,0,node/7037183559,9.0465834
,38.8705589,Kara Condominium,0,node/7037183562,9.0501511
,38.8647703,Yeka Abado,0,node/7037183563,9.0666282
,38.8737753,Sara Ampol (Gedera),0,node/7037183565,9.0571811
,38.8742538,Sara Ampol,0,node/7037183567,9.0580264
,38.8812971,Aba Kiros,0,node/7037183569,9.0606875
,38.8841651,Makefafeya,0,node/7037183570,9.0630654
,38.8892044,Gari Tera,0,node/7037183571,9.0670494
,38.8938058,CCD,0,node/7037183572,9.0707009
,38.8952147,140,0,node/7037183573,9.0718221
,38.9074861,Legedadi Mission,0,node/7037183574,9.0818058
,38.90832,Legedadi Mission,0,node/7037183575,9.0821737
,38.7771574,Selam Building,0,node/7041052894,8.8832831
,38.7768265,Gojo Hotel,0,node/7041052895,8.8910809
,38.7717989,Kality Meneharia,0,node/7041052896,8.8958584
,38.7668359,Cheralia Factory,0,node/7041052897,8.9029458
,38.7667452,Cheralia Factory,0,node/7041052898,8.9029223
,38.7638335,Kality Gebriel,0,node/7041052900,8.9113422
,38.7633399,Kality Prison,0,node/7041052901,8.912466
,38.7416641,Hana Maryam,0,node/7041052912,8.928137
,38.6590102,Tabelew,0,node/7041052914,8.9274906
,38.6548173,Ubedi Academy,0,node/7041052915,8.9244259
,38.6526472,Alem Gena,0,node/7041052916,8.9230001
,38.652656,Alem Gena,0,node/7041052917,8.9229882
,38.6465912,Mama,0,node/7041052918,8.9213858
,38.73129,Mekanisa (Old Revenues Office),0,node/7041052927,8.9683942
,38.7327236,German Square,0,node/7041052928,8.9656974
,38.7324437,Gebriel Bridge,0,node/7041052932,8.9556239
,38.7327233,Gebriel Bridge,0,node/7041052934,8.955596
,38.7339608,Mebrathile (EEPCo),0,node/7041052935,8.9469471
,38.7341955,Mekanisa School,0,node/7041052936,8.9790248
,38.7339384,Abo,0,node/7041052937,8.9785916
,38.7246092,Sheged Hotel,0,node/7041052938,8.973373
,38.720836,Jemo Michael,0,node/7041052939,8.9673959
,38.7209392,Jemo Michael,0,node/7041052940,8.966996
,38.7152564,Jemo YBP (All Mart),0,node/7041052942,8.9614893
,38.7123763,Jemmo 1,0,node/7041052944,8.9606358
,38.7124284,Jemmo 1,0,node/7041052945,8.9604074
,38.7084697,Mestawet Fabrica,0,node/7041052946,8.9595125
,38.7059934,Mestawet Fabrica,0,node/7041052948,8.958513
,38.6992718,Jemo 3,0,node/7041052949,8.9564
,38.6985348,Jemmo 3,0,node/7041052950,8.9556244
,38.7077567,Zenebework,0,node/7041052951,8.9866742
,38.6713097,Welete Maryam,0,node/7041052952,8.9611777
,38.7272059,Mickael Bridge,0,node/7041052953,8.9657858
,38.689429,Gerar,0,node/7041052954,8.9813447
,38.6851955,Repi (Gerar),0,node/7041052955,8.9794179
,38.7220154,Gebre Kirstos,0,node/7041052957,8.9773403
,38.7228933,Bisrate Gebrael,0,node/7041052958,8.9884304
,38.7488548,Gofa Gebriel (2),0,node/7041052959,8.9753751
,38.7490217,Gofa Gebriel,0,node/7041052960,8.9771139
,38.7772221,Bole Mickael,0,node/7041052963,8.9816131
,38.7560783,MOHA (Pepsi Factory),0,node/7041052965,8.9822682
,38.7600125,Gotera (Oilibiya),0,node/7041052969,8.9762662
,38.7598239,Gotera (Oilibiya),0,node/7041052970,8.976182
,38.7620577,St. Joseph Church,0,node/7041052975,8.9697308
,38.7627885,kadisco Building,0,node/7041052977,8.9659447
,38.762999,kadisco Building,0,node/7041052978,8.965927
,38.7630788,Kadisco,0,node/7041052979,8.9637596
,38.7640609,Adey Abeba,0,node/7041052980,8.9583017
,38.7638459,Adey Abeba,0,node/7041052982,8.9582595
,38.7635583,Saris (CBE),0,node/7041071286,8.9528662
,38.7633266,Saris (CBE/Shoa Bakery),0,node/7041071287,8.9527596
,38.7661044,Abo Junction,0,node/7041071289,8.9450003
,38.7663069,Abo Junction,0,node/7041071290,8.9450733
,38.763132,Customs (Train Station),0,node/7041071291,8.9380959
,38.766627,Kality Maseltegna,0,node/7041071295,8.9323275
,38.7681692,Wehalemat,0,node/7041071296,8.9298173
,38.7478244,Bulgaria Mazoria,0,node/7041071342,8.9950292
,38.7475059,Begtera,0,node/7041071344,8.9971703
,38.7394459,AU (Mikael) Rounrdabout,0,node/7041071347,8.9990638
,38.7395945,AU (Mikael) Rounrdabout,0,node/7041071348,8.9990569
,38.7478465,Bulgaria,0,node/7041071350,8.9937942
,38.7595772,Global Hotel,0,node/7041071352,8.9941475
,38.7598183,Global Hotel,0,node/7041071353,8.9941836
,38.7596352,Beklo Bet (Global),0,node/7041071354,8.9953383
,38.7584812,Tele Garage,0,node/7041071355,9.000141
,38.7586986,Riche,0,node/7041071356,9.0043253
,38.7669535,6th (Raddison Blu),0,node/7041071359,9.0166957
,38.7572645,Filweha (Hotsprings),0,node/7041071360,9.017718
,38.7570579,Filweha (Hotsprings),0,node/7041071362,9.0175554
,38.7574492,Ghion Hotel (Enterance),0,node/7041071363,9.0137609
,38.7576145,Ghion Hotel (Enterance),0,node/7041071364,9.0138328
,38.7591876,St. Joseph School,0,node/7041071367,9.0098008
,38.7592761,St. Joseph School,0,node/7041071370,9.0104995
,38.7590434,Admas University College,0,node/7041071371,9.0105316
,38.7570112,Lalibela Hotel,0,node/7041071372,9.0118612
,38.7560438,Stadium,0,node/7041071374,9.0121294
,38.7545386,Legehar,0,node/7041071376,9.011849
,38.7539285,Legehar,0,node/7041071377,9.0117857
,38.7533069,Legehar (Old Train Station),0,node/7041071378,9.0109604
,38.7461963,Mexico,0,node/7041071380,9.0097755
,38.7414166,African Union,0,node/7041071382,9.0031416
,38.7423863,Popolare,0,node/7041071383,9.0053059
,38.7466748,Guenet Hotel,0,node/7041071384,9.0046908
,38.74694,Guenet Hotel,0,node/7041071385,9.0032786
,38.7334947,Abenet,0,node/7041071388,9.0214263
,38.7345522,Lideta Condominium,0,node/7041071389,9.0132791
,38.7348248,Darmar,0,node/7041071390,9.0157856
,38.7294714,Coca Cola,0,node/7041071391,9.0159169
,38.7278809,Austria Embassy,0,node/7041071392,8.9939406
,38.727499,Mechare Meda,0,node/7041071393,8.9936591
,38.7152417,3 Kutir Mazoriya (Total),0,node/7041071395,8.9925902
,38.7184074,Minaye Building,0,node/7041071397,8.995414
,38.7191221,Old Airport (Mobil),0,node/7041071399,8.9998642
,38.7206897,Tor Hailoch,0,node/7041071400,9.0099949
,38.7100309,Keranio Mewcha,0,node/7041071401,9.0133411
,38.7159484,Holand,0,node/7041071402,9.0213057
,38.714954,Meseret Edget,0,node/7041071403,9.0245409
,38.7440603,Teklehaymanot,0,node/7041071404,9.0278226
,38.7458014,Kebele 11,0,node/7041071405,9.0247481
,38.75166,Tewodros Square,0,node/7041071406,9.0262634
,38.7517909,Tewodros Square,0,node/7041071407,9.0263826
,38.7521859,Black Lion,0,node/7041071411,9.0218352
,38.751592,National Theatre,0,node/7041071414,9.0158768
,38.7513097,National Theatre,0,node/7041071415,9.0156938
,38.7494881,A.A. Commercial College,0,node/7041071416,9.0139102
,38.7495568,A.A. Commercial College,0,node/7041071418,9.0138228
,38.7490599,Buna Ena Shay,0,node/7041071419,9.0114261
,38.7479733,Buna Ena Shay,0,node/7041071420,9.0105922
,38.7468862,Mexico Shebelle Hotel,0,node/7041071423,9.0119916
,38.7429038,TVET College (Tegbare'd),0,node/7041071425,9.0105894
,38.7426638,Federal Police (Tegbare'd),0,node/7041071429,9.0103865
,38.738603,Lideta (Balcha Hospital),0,node/7041071430,9.0109303
,38.7385604,Lideta (Balcha Hospital),0,node/7041071431,9.0111161
,38.7377815,Lideta Condominium,0,node/7041071432,9.011233
,38.733822,Lideta Tsebel,0,node/7041071433,9.0041706
,38.7338119,Dessie Hotel,0,node/7041071434,9.0093091
,38.7342297,High Court,0,node/7041071435,9.0108572
,38.733431,Lideta High Court,0,node/7041071437,9.0115829
,38.7293132,Hintsa College,0,node/7041071439,9.0121559
,38.7292339,Coca Cafe,0,node/7041071441,9.0119411
,38.7265458,Mekonenoch (Golf) Club,0,node/7041071444,9.011282
,38.7220202,Tor Hailoch Junction,0,node/7041071446,9.0115616
,38.7216866,Torhailoch,0,node/7041071447,9.0119442
,38.7206478,Tor Hailoch,0,node/7041071448,9.0139112
,38.7209168,Tor Hailoch,0,node/7041071449,9.013939
,38.7089411,Keranio Bridge,0,node/7041071450,9.0194506
,38.7049748,Medhanialem,0,node/7041071451,9.0175679
,38.7006446,Keranio Adebabay,0,node/7041071452,9.0176634
,38.6994971,Kokebe,0,node/7041071453,9.0180779
,38.6954056,Yeshi Debele,0,node/7041071454,9.0195382
,38.6957701,Yeshi Debele,0,node/7041071455,9.0190748
,38.6884518,Mariam,0,node/7041071456,9.0231539
,38.6742682,Anfo Meda,0,node/7041071458,9.021983
,38.7752596,St. Urael Church,0,node/7041071459,9.0110433
,38.766397,Salcost Apartments (NOC),0,node/7041071461,9.0104908
,38.7626376,St. Estifanos Church,0,node/7041071462,9.0118738
,38.7675809,St. Gebriel,0,node/7041071464,9.0199107
,38.7680315,Zenebewerk Hotel,0,node/7041071465,9.0193852
,38.7715231,Meles Zenawi Foundation,0,node/7041071466,9.0206693
,38.770643,Azmari Bet (Traditional Music Club),0,node/7041071468,9.0194316
,38.7702335,Kazanchis (6th),0,node/7041071469,9.0166401
,38.7638714,Hilton Hotel (Apartments),0,node/7041071471,9.0196382
,38.7772342,Women Square,0,node/7041071473,9.0233468
,38.7771738,Women Square,0,node/7041071474,9.0234508
,38.7765755,Aware Bridge,0,node/7041071475,9.0244322
,38.7633615,Arat Kilo,0,node/7041071479,9.0319312
,38.7652099,Arat Kilo,0,node/7041071480,9.0321438
,38.7728461,Bel Air,0,node/7041071481,9.032458
,38.7730493,Addis View Hotel,0,node/7041071482,9.0324918
,38.7730556,Menelik II Hospital,0,node/7041071483,9.0385857
,38.7719268,Menlik Hospital,0,node/7041071484,9.0388201
,38.7522029,Piassa Arada,0,node/7041071579,9.0365871
,38.7524445,Piassa Arada,0,node/7041071580,9.0363947
,38.7523326,Piassa Arada,0,node/7041071592,9.0354239
,38.7491242,Habtegiorgis Bridge,0,node/7041071594,9.0352553
,38.7438917,Kurtu Building,0,node/7041071595,9.0343899
,38.7437548,Kurtu Building,0,node/7041071596,9.0341887
,38.7434135,Pharmacy,0,node/7041071597,9.0343321
,38.737968,Gojam Berenda,0,node/7041071598,9.0343947
,38.7337775,Autobis Tera (3),0,node/7041071599,9.0342308
,38.7298446,Autobus Tera,0,node/7041071600,9.03371
,38.7294433,Darsema Grosery,0,node/7041071601,9.0338533
,38.7200106,Girum Hospital,0,node/7041071604,9.04636
,38.7212396,Woreda 7 TVET,0,node/7041071605,9.0407262
,38.7219216,Sefere Salam,0,node/7041071606,9.0366318
,38.7173824,Kolfe,0,node/7041071607,9.037044
,38.7164487,Abysinia Coffee,0,node/7041071608,9.0373422
,38.7151531,Degu Hotel,0,node/7041071609,9.0338162
,38.7130781,18 Mazoria,0,node/7041071610,9.0335338
,38.7135105,18 Mazoria,0,node/7041071612,9.0335825
,38.7093322,Luwkanda,0,node/7041071614,9.0333303
,38.704541,Kolfe Secondary School,0,node/7041071615,9.0340139
,38.6951186,Realstate,0,node/7041071616,9.0327975
,38.6888917,Police Tabiya,0,node/7041071619,9.034058
,38.6875252,Feli Doro (1),0,node/7041071620,9.0342811
,38.6853297,Feli Doro,0,node/7041071622,9.0353789
,38.7568178,Ras Mekonene Bridge (Seba Dereja),0,node/7041071628,9.0389362
,38.7625491,5 Kilo (History Museum),0,node/7041071629,9.0385989
,38.761951,5 Kilo University,0,node/7041071630,9.0408311
,38.7615693,Lion Zoo (PEPSI Kiosk),0,node/7041071633,9.0427151
,38.7603878,Yekatit 12 Hospital,0,node/7041071636,9.0438891
,38.7593176,Yeatit 12 Hospital,0,node/7041071637,9.0436921
,38.7527639,Red-Cross (St. George Total),0,node/7041071638,9.0386136
,38.7517494,St. George Church (Total),0,node/7041071639,9.0386684
,38.7488778,Semen Hotel,0,node/7041071640,9.0436522
,38.7482928,Semen Hotel,0,node/7041071641,9.0446929
,38.7461719,Kelemwerk,0,node/7041071642,9.0486023
,38.7458026,Kelemwerk,0,node/7041071643,9.0488673
,38.7443439,Tibeb Ediget School,0,node/7041071645,9.0512494
,38.7433813,Semen Mazegaga,0,node/7041071646,9.0523631
,38.7424925,Semen Mazagaja,0,node/7041071647,9.0537306
,38.7200104,Shegole Bank,0,node/7041071648,9.0541015
,38.7277601,Pawlos Hospital,0,node/7041071649,9.0474202
,38.7221677,Finance,0,node/7041071650,9.0514832
,38.7220512,Medhanialem (TOTAL),0,node/7041071651,9.0513651
,38.7201878,Finance,0,node/7041071653,9.0528369
,38.7199027,Finance,0,node/7041071654,9.0531245
,38.7149847,Winget Chaf,0,node/7041071655,9.0544244
,38.7088754,4 Menta Adebabay,0,node/7041071657,9.0520588
,38.6987792,Mikili Land,0,node/7041071658,9.051327
,38.7137033,Winget Adebabay,0,node/7041071659,9.0571703
,38.7116367,Awolia,0,node/7041071660,9.0576087
,38.7067279,Gulele Fana,0,node/7041071661,9.0577975
,38.7065488,Gulele Fana,0,node/7041071662,9.0582376
,38.7034077,Berchiko,0,node/7041071663,9.0593548
,38.69045,Gebriel (Sansusi),0,node/7041071665,9.0665816
,38.7791204,Bono Weha,0,node/7041071718,9.057952
,38.7722233,Mezan,0,node/7041071719,9.053538
,38.7690705,3rd Shaleka,0,node/7041071721,9.0470252
,38.7615547,6 Kilo (University),0,node/7041071723,9.0461753
,38.7622054,Meksaye Hizunan Medhanialem,0,node/7041071725,9.0513004
,38.7622236,Teferi Mekonen,0,node/7041071726,9.052326
,38.7625698,Sebseba Maekel,0,node/7041071729,9.0541533
,38.7715088,Eyesus,0,node/7041071737,9.0649811
,38.7680987,Hamle 19,0,node/7041071738,9.0585516
,38.7607205,Selassie,0,node/7041071740,9.0692162
,38.7590628,Sanba Nekersa-Shiromeda,0,node/7041071741,9.0745256
,38.7572536,Kuskoam,0,node/7041071742,9.0777328
,38.7374397,Dil Ber,0,node/7041071749,9.0710894
,38.7204079,Anbessa Garage (Shegole),0,node/7041071753,9.0638294
,38.7182194,Kebt Beret,0,node/7041071754,9.0691617
,38.7230011,Entoto Kela,0,node/7041071755,9.0843712
,38.7095299,Weserbi Realestate,0,node/7041071758,9.1051152
,38.7147037,Classy Water,0,node/7041071759,9.1095355
,38.7158285,Medret Hotel,0,node/7041071760,9.1100449
,38.7300979,Kburea,0,node/7041071761,9.1176074
,38.7304557,Kenenisa,0,node/7041071762,9.1179357
,38.7395293,Shefunea,0,node/7041071763,9.1273122
,38.7397834,Shefine,0,node/7041071764,9.1277902
,38.7522344,Doro Erbata,0,node/7041071772,9.1339361
,38.7524529,Abo Gabriel,0,node/7041071773,9.1341343
,38.7549356,Tulu Fati,0,node/7041071774,9.1408321
,38.7538733,Ashewa,0,node/7041071775,9.1449015
,38.7542489,Tabya Hotel,0,node/7041071776,9.1560016
,38.738359,Sar Bet (Roundabout),0,node/7047495429,8.9929589
,38.6600221,United Bank (Ashewa Meda),0,node/7047495432,9.0286142
,38.7346499,Sefera,0,node/7047495433,8.9208064
,38.744323,Lafto,0,node/7049122264,8.9473774
,38.7440895,Hana Mariam (2),0,node/7049122265,8.935835
,38.7345586,Haile Garment,0,node/7049122266,8.9387647
,38.8779866,Yekiber Demena Church,0,node/7049921444,9.0304285
,38.8024339,Megenagna Terminal,0,node/7049921445,9.0204726
,38.8759579,Hill Bottom (Recreation),0,node/7049921447,9.0220882
,38.8775474,Zone 8,0,node/7049921448,9.0304125
,38.8779122,Aba Kiros (Tafo) Roundabout,0,node/7049921449,9.0570656
,38.8790275,Tafo Junction,0,node/7050234123,9.0566049
,38.8021323,Megenagna Terminal,0,node/7050327664,9.020626
,38.7617178,6 Kilo,0,node/7054842410,9.0476858
,38.7617169,6 Kilo,0,node/7054842414,9.0476498
,38.7532161,Legehar (Old Train Station),0,node/7055060064,9.0106346
,38.8546711,Kotebe Gebriel,0,node/7055598734,9.0359897
,38.8299268,Ahmed Building,0,node/7055598736,9.0269686
,38.7579049,St. Mary Church,0,node/7055598738,9.0363488
,38.7535483,Piassa Arada,0,node/7055598739,9.0335541
,38.7534018,Piassa Arada,0,node/7055598742,9.0327818
,38.7579442,St. Mary Church,0,node/7055598743,9.0363807
,38.8307544,NOC End,0,node/7055598744,9.0274541
,38.8467717,Kotebe Teachers College,0,node/7056754511,9.0341209
,38.8732637,Meskelegna (Ababdo),0,node/7056754514,9.0630764
,38.8022361,Megenagna,0,node/7056754516,9.020907
,38.779674,Atlas,0,node/7057002158,9.0041945
,38.7528717,Piassa Arada,0,node/7057002161,9.0329242
,38.7568279,Ras Mekonene Bridge (Seba Dereja),0,node/7057002162,9.0389386
,38.7626361,Gibi Gebriel Church,0,node/7057002163,9.0226675
,38.7929906,Brass Clinic (Bole),0,node/7057187392,8.9904207
,38.7932003,Brass Clinic (Bole),0,node/7057187393,8.9903142
,38.7519784,St.Gorgis,0,node/7062689844,9.0379471
,38.751629,St. George Church (2),0,node/7062689845,9.0358742
,38.7549398,Piassa,0,node/7062689848,9.0345896
,38.764362,Arat Kilo,0,node/7062689850,9.0325203
,38.7630946,4 Kilo,0,node/7062689851,9.0344021
,38.7621098,Medhanialem,0,node/7062689852,9.0506154
,38.7635923,Education Bureau (6 Kilo),0,node/7062689854,9.044142
,38.7690204,Jan Meda,0,node/7062689855,9.0471236
,38.7742742,Frensaye Kela,0,node/7062689856,9.0557922
,38.7736282,Frensaye Kela,0,node/7062689857,9.0551762
,38.7777387,Abo Mazoriya,0,node/7062689858,9.0569998
,38.7881845,Gurara,0,node/7062689859,9.0623294
,38.7608987,Mamo (NFSL TVET),0,node/7067942461,8.9730894
,38.7595747,Agona Cinema,0,node/7067942462,8.988213
,38.7597959,Agona Cinema,0,node/7067942463,8.9882665
,38.7587377,Tele Garage,0,node/7067942465,9.0004682
,38.7589773,Meshualekia,0,node/7067942466,9.0057314
,38.7824519,Zerihun Building,0,node/7067990019,9.0145395
,38.7669539,6th (Raddison Blu),0,node/7067990020,9.0166971
,38.7621456,National Palace,0,node/7070861695,9.026432
,38.7872174,SNAP Building,0,node/7070861696,8.9897614
,38.7844888,Friendship,0,node/7070861697,8.9908557
,38.7822311,Heber Restaurant,0,node/7070861698,8.9917592
,38.7791533,RWANDA (Werbek House),0,node/7070861699,8.992295
,38.7740953,Wollo Sefer,0,node/7070861700,8.9946542
,38.7798477,Rwanda,0,node/7070861701,8.9924
,38.7723732,Bole Printing Press,0,node/7070861702,8.9966227
,38.7715908,Bole Printing Press,0,node/7070861703,8.9976714
,38.7708659,Mega Printing Press,0,node/7070861704,8.9993469
,38.7697078,Shewa Dabo,0,node/7070861705,9.001132
,38.7697673,Getu Commercial Center,0,node/7070861706,9.0014126
,38.7678519,Dembel City Center,0,node/7070861707,9.004953
,38.7634195,Flamingo,0,node/7070861710,9.0100482
,38.7528459,Piassa Arada,0,node/7070861712,9.0358386
,38.8054033,Anbessa Garage,0,node/7070861713,9.0074376
,38.876525,Ayat Roundabout,0,node/7070861714,9.0221276
,38.8777949,Gebriel,0,node/7070861716,9.0401288
,38.7433527,Semen Mazegaja | ሰሜን ማዘጋጃ,0,node/7074233342,9.0527134
,38.7411604,Del Ber School,0,node/7074233343,9.0559007
,38.7379037,Adisu Gebeya,0,node/7074233344,9.0592088
,38.7355505,Kelebat,0,node/7074233345,9.061605
,38.7347909,Oilibiya (Dil Ber),0,node/7074233346,9.0679367
,38.7301845,Pastor,0,node/7074267433,9.0463006
,38.7228618,Medhanialem,0,node/7074267434,9.051161
,38.7138884,Winget,0,node/7074267435,9.0554455
,38.6101592,Kela,0,node/7074269464,9.0576131
,38.6101611,Kela,0,node/7074269465,9.0576152
,38.7481339,Semen Hotel,0,node/7074275407,9.0452427
,38.7484333,Kera,0,node/7074294627,8.9866969
,38.6922669,Asko,0,node/7074299254,9.0653014
,38.733098,Sebategna,0,node/7074324043,9.0286512
,38.7324012,Autobis Tera (2),0,node/7074324044,9.0317912
,38.7321005,Autobis Tera,0,node/7074324045,9.0347276
,38.7315967,Mekanisa,0,node/7074326525,8.9733512
,38.7343058,Abo Mazoria,0,node/7074326526,8.9822244
,38.8580841,Gate 2,0,node/7074330387,8.9894962
,38.8605382,Tena Tabeya,0,node/7074330389,8.9942098
,38.8602323,Condminium (Gate),0,node/7074330391,8.9984544
,38.8573283,Gomista,0,node/7074330392,9.0014062
,38.8517162,Summit (MOHA),0,node/7074330394,9.0040839
,38.8518265,Safari,0,node/7074330397,9.0106601
,38.820944,Alemayehu,0,node/7074330400,8.999474
,38.8196821,Alemayehu,0,node/7074330401,9.0005663
,38.8095474,Condominium,0,node/7074330403,9.0050845
,38.8287819,Ethio-china,0,node/7074330407,9.026612
,38.8643277,Kara,0,node/7074330409,9.0403987
,38.8850641,Project 15,0,node/7074332290,8.9654679
,38.8845811,Kela,0,node/7074332294,8.9772657
,38.7010211,Chereta,0,node/7074347184,9.0616842
,38.6894082,Gerar,0,node/7074353066,8.9813585
,38.6959643,Jemo 3,0,node/7074374410,8.9538291
,38.6921288,Furi,0,node/7074374411,8.951847
,38.6891023,Sansusi,0,node/7074387585,9.0714186
,38.6722328,Kersa (2),0,node/7074496216,9.0285405
,38.6653802,Ashewa Meda,0,node/7074496217,9.0326531
,38.6653823,Ashewa Meda,0,node/7074496218,9.0326414
,38.6569665,United Bank (Ashewa Meda),0,node/7074496219,9.0258997
,38.6515848,St. Gebriel,0,node/7074496221,9.027689
,38.6515743,St. Gebriel,0,node/7074496222,9.0276843
,38.6216778,Gojo,0,node/7074496225,9.0417975
,38.6776598,Alem Bank,0,node/7074504387,9.0010346
,38.6982193,Ayer Tena,0,node/7074504388,8.9831093
,38.6944335,Bethel,0,node/7074504390,9.0045877
,38.7053132,Mewcha,0,node/7074504391,9.0139079
,38.7004735,Mendida,0,node/7074504392,9.0149626
,38.7486994,Mebrat Nigist Hotel,0,node/7074525370,8.9700751
,38.7326808,Lideta Kefetega Firdbet,0,node/7074541084,9.0116457
,38.7341804,Sefera Square,0,node/7074561389,8.9249315
,38.7363202,Haile Garment,0,node/7074561391,8.9368661
,38.7334502,Mebrathile (EEPCo),0,node/7074561392,8.9493593
,38.7544146,Hana Mariam,0,node/7074561393,8.9309368
,38.7444615,Hana Mariam (2),0,node/7074561394,8.9361698
,38.7448233,Meskelgna,0,node/7074561395,8.95299
,38.7514315,Piassa Arada,0,node/7074585943,9.0357438
,38.7633143,Arat Kilo,0,node/7074585944,9.0324015
,38.759835,Beklo Bet (Global),0,node/7074599697,8.9953761
,38.7672511,Dembel City Center,0,node/7074691520,9.0055741
,38.7471393,Mexico,0,node/7074707878,9.010735
,38.7478601,ERA Office (Big Mak),0,node/7074707880,9.0127963
,38.7591385,Saint Josphe School,0,node/7074707881,9.0092034
,38.7628296,St. Estifanos Church,0,node/7074707883,9.0124825
,38.7607684,Mamo (NFSL TVET),0,node/7074819178,8.9725713
,38.7585063,Kadisco,0,node/7074841187,8.9310399
,38.7643672,Kality Maseltegna,0,node/7074841188,8.9339802
,38.7442895,Teklehaimanot,0,node/7074921333,9.0291868
,38.7406481,Berbere Tera,0,node/7074921334,9.0266712
,38.7498569,Dildiy Mariam,0,node/7075101457,8.9585362
,38.7497528,Kera (Gofa Stop),0,node/7075101459,8.9837158
,38.7208842,Tor Hailoch,0,node/7075129253,9.009717
,38.7207996,Torhayloch,0,node/7075129254,9.0117428
,38.7222467,Tor Hailoch,0,node/7075129255,9.0117788
,38.7588986,Riche,0,node/7076294502,9.0043941
,38.7438551,Mebrat Condominium,0,node/7076294503,8.9645236
,38.7633289,Kadisco,0,node/7076294504,8.9638868
,38.7646677,Flamingo,0,node/7076294505,9.0089349
,38.8601035,Condminium (Gate),0,node/7076294507,8.9984013
,38.8738883,Sara Ampol (Gedera),0,node/7076294508,9.0571285
,38.7325725,Michael (2),0,node/7076294509,9.0418835
,38.7612538,Shero Meda,0,node/7076294510,9.0622823
,38.7613619,Shero Meda,0,node/7076294511,9.0618175
,38.7369836,Dil Ber,0,node/7076294512,9.0716602
,38.7607132,Shiromeda Selassie,0,node/7076294515,9.0692159
,38.7613887,Shero Meda,0,node/7076294516,9.0618235
,38.7612093,6 Kilo (Akim Genbata),0,node/7076310930,9.0447597
,38.7612397,Shero Meda,0,node/7076310931,9.0626379
,38.7619991,Medhanialem,0,node/7077424942,9.0507372
,38.7551039,Ambassador,0,node/7077601626,9.0163885
,38.8139111,Lamberet,0,node/7077785205,9.0216085
,38.8692642,Kara Condominium,0,node/7077785206,9.0479009
,38.8676583,G-7 (Meskelegna),0,node/7077785207,9.0655587
,38.8695121,Kara Condominium,0,node/7077785209,9.0480304
,38.7325536,Autobis Tera (2),0,node/7077863009,9.031811
,38.6833448,Tropical,0,node/7077863010,8.9960545
,38.6779208,Alem Bank,0,node/7077863012,9.0003767
,38.6830207,Tropical,0,node/7077863014,8.9965876
,38.6892387,Kidane Mihret,0,node/7077863015,8.9923549
,38.6941906,Bethel,0,node/7077863016,9.004479
,38.7004836,Mendida,0,node/7077863017,9.0151128
,38.7327417,Abinet,0,node/7077863018,9.019638
,38.7329768,Sebategna,0,node/7077863019,9.0280905
,38.7440208,Mexico,0,node/7078164250,9.0088714
,38.7349155,Haile Garment,0,node/7078164251,8.9381825
,38.7311018,Mekanisa,0,node/7078164254,8.9729343
,38.7345326,Abo Mazoria,0,node/7078164255,8.9820586
,38.7437936,Mexico,0,node/7078164256,9.0088201
,38.7323925,Autobis Tera (1),0,node/7078406225,9.0330269
,38.7090191,Zenebework,0,node/7078406227,8.9876369
,38.6949214,Ayer Tena,0,node/7078406228,8.9822919
,38.6817556,Kara Kore,0,node/7078406231,8.9755975
,38.6823873,Kara Kore,0,node/7078406235,8.9763865
,38.6939258,Ayer Tena (Gerar-Repi),0,node/7078406236,8.9822452
,38.6853377,Repi (Gerar),0,node/7078406237,8.9795411
,38.7051886,Zenebework (Crossing),0,node/7078406238,8.9852814
,38.715946,3 Kutir Mazoriya (Total),0,node/7078406239,8.992776
,38.7322299,Autobis Tera (1),0,node/7078406240,9.0330007
,38.8100534,Condominium,0,node/7080251773,9.0049451
,38.8268744,Goro School,0,node/7080251774,8.993889
,38.8056204,Anbessa Garage,0,node/7080251776,9.0071789
,38.76366,Estifanos,0,node/7080440194,9.0110028
,38.7690578,BAMBIS,0,node/7080440195,9.0104866
,38.7752996,St. Urael Church,0,node/7080440196,9.0115088
,38.7823039,Lex Plaza,0,node/7080440197,9.0147285
,38.7896417,22 (Haya Hulet),0,node/7080440198,9.0164226
,38.8004816,Megenagna,0,node/7080440200,9.0194097
,38.8005914,Megenagna,0,node/7080440203,9.019032
,38.7955696,Lem Hotel,0,node/7080440204,9.0177169
,38.7896635,22 (Haya Hulet),0,node/7080440205,9.0162149
,38.7694936,BAMBIS,0,node/7080440206,9.0102033
,38.7467585,Mexico,0,node/7080440208,9.0104304
,38.7462899,Mexico,0,node/7080527282,9.0098462
,38.7487773,Kera,0,node/7080527284,8.9863213
,38.7487535,Mebrat,0,node/7080611085,8.96688
,38.746773,Mexico Shebelle Hotel,0,node/7080611091,9.0120423
,38.7322629,Michael,0,node/7080893992,9.0412736
,38.732023,Autobis Tera,0,node/7080893993,9.034717
,38.7306587,Pastor,0,node/7080893994,9.0460782
,38.713458,Winget,0,node/7080893995,9.0560646
,38.7009781,Chereta,0,node/7080893996,9.0613645
,38.6891732,Sansusi,0,node/7080894001,9.0715888
,38.7624277,5 Kilo (History Museum),0,node/7081034796,9.0385658
,38.7785478,Abo Mazoriya,0,node/7081034797,9.0574672
,38.7640045,Education Bureau (6 Kilo),0,node/7081034799,9.0441923
,38.732915,Total (Dil Ber),0,node/7084255331,9.0648091
,38.7533521,Piassa Arada,0,node/7084255333,9.0341775
,38.7374497,Addisu Gebeya,0,node/7084255334,9.0594855
,38.733166,Tsion Cafe (Addisu Gebeya),0,node/7084255335,9.0638908
,38.7327389,Total (Dil Ber),0,node/7084255336,9.0653883
,38.7405402,Ummar School,0,node/7084722454,9.0337517
,38.7337992,Autobis Tera (3),0,node/7084722456,9.0341036
,38.7418327,Gojam Berenda (Tefera Buillding),0,node/7084722457,9.0341305
,38.7533374,Dej. Wube (Ras Abebe School),0,node/7084722458,9.0404538
,38.7544994,Wube Bereha,0,node/7084722459,9.0440672
,38.7588473,Menen,0,node/7084722460,9.0515491
,38.7598297,Tsehay Chora (ShiroMeda),0,node/7084722461,9.0584002
,38.7332661,Sebategna (Taem Bakery),0,node/7084873006,9.0274958
,38.7380924,Mola Maru (Jos Hansen),0,node/7084873007,9.0188835
,38.7382054,Geja Sefer (Darmar),0,node/7084873008,9.0167149
,38.7486804,Kera (Green Market),0,node/7084873009,8.9856954
,38.7518917,Kera (Mexico Stop),0,node/7084873010,8.9841757
,38.7560749,MOHA (Pepsi Factory),0,node/7084873011,8.9824212
,38.7635412,Saris (Shoa Bakery),0,node/7084873012,8.9547202
,38.7509324,Kera (Saris Stop),0,node/7084873013,8.9844206
,38.7469466,Guenet Hotel (Orbis),0,node/7084873014,9.002055
,38.736541,St. Lideta Church,0,node/7084873015,9.0111972
,38.733649,Abenet (Joshansen),0,node/7084873016,9.0192478
,38.7373207,Canada Embassy,0,node/7084932737,8.9951157
,38.7311778,Mechare Meda,0,node/7084932738,8.9973163
,38.7239615,Bisrate Gebrael,0,node/7084932739,8.9892732
,38.705264,Zenebework (Crossing),0,node/7084932740,8.9850622
,38.6961239,Ayer Tena,0,node/7084932741,8.9838449
,38.6887357,Kidane Mihret (Roundabout),0,node/7084932742,8.9917639
,38.690106,Kidane Mihret (2),0,node/7084932743,8.9910254
,38.7185689,Augusta Bridge (Tor Hailoch),0,node/7084932745,9.0056187
,38.7445753,Mexico,0,node/7084932747,9.0114539
,38.8285018,Goro Roundabout,0,node/7098810331,8.9839859
,38.8370059,Kotebe Shet',0,node/7098810332,8.9678887
,38.8352869,Bole Lemi,0,node/7098810333,8.9585287
,38.8219339,Endorro 2,0,node/7098810334,8.9405669
,38.8152364,Kilinto Right (Heniken),0,node/7098810335,8.9007946
,38.8240221,Koye Feche 4,0,node/7098810336,8.8947925
,38.8277372,Koye Feche 3,0,node/7098810337,8.8925887
,38.8313712,Koye Feche 2,0,node/7098810338,8.896302
,38.8270083,Koye Feche,0,node/7098810339,8.9045894
,38.8289328,Goro Roundabout,0,node/7098810340,8.9837967
,38.8374461,Kotebe Shet',0,node/7098810341,8.9678046
,38.8354629,Bole Lemi,0,node/7098810342,8.9573187
,38.8217947,Endorro 2,0,node/7098810343,8.9393928
,38.820007,Endorro 1,0,node/7098810344,8.9307029
,38.8155747,kilinto (Heniken Brewery),0,node/7098810345,8.9005132
,38.8196082,Gurd-shola,0,node/7098833728,9.0192718
,38.8331381,Civil Service College,0,node/7098833729,9.021924
,38.8400876,St. Michael,0,node/7098833730,9.021617
,38.8524287,Sunshine Apartments,0,node/7098833731,9.0193173
,38.8575794,Gomista,0,node/7098833732,9.0019915
,38.8588022,Hasset Photo,0,node/7098833735,8.9918735
,38.8521013,Sunshine Apartments,0,node/7098833736,9.0190988
,38.8504565,CMC (Apartments),0,node/7098833737,9.0208488
,38.8401568,St. Michael,0,node/7098833738,9.0213567
,38.7312293,Merkato,0,node/7102193971,9.0337594
,38.7254909,Mesalemia (Area Police),0,node/7102193972,9.0338552
,38.7086533,Luwkanda,0,node/7102193973,9.0332635
,38.7049566,Comprensive,0,node/7102193974,9.0338494
,38.642409,Gefersa,0,node/7102193975,9.031909
,38.6117467,Gojo (Kela),0,node/7102193976,9.0563274
,38.6120244,Gojo (Kela),0,node/7102193977,9.0560454
,38.6265192,Gefersa (2),0,node/7102193978,9.0375371
,38.6329501,Gefersa,0,node/7102193979,9.0356795
,38.6674596,Ashewa Meda (1),0,node/7102193980,9.0328635
,38.6760437,Kersa (1),0,node/7102193981,9.0286003
,38.687173,Feli Doro (2),0,node/7102193982,9.0343761
,38.7244946,Mesalemia,0,node/7102193983,9.0344498
,38.7312074,Merkato,0,node/7102269985,9.0338637
,38.6977085,Ayer Tena,0,node/7103202615,8.9821491
,38.7316085,German Bridge,0,node/7103202616,8.9647174
,38.7342372,Mebrathile (EEPCo),0,node/7103202617,8.9470109
,38.7692016,Saris Abo,0,node/7103202619,8.9444277
,38.7666082,Saris Abo,0,node/7103202620,8.944353
,38.7645892,Kality Maseltegna,0,node/7103202621,8.9336411
,38.7550031,Hana Mariam (Bridge),0,node/7103202622,8.930547
,38.72738,Mickael Bridge,0,node/7103202623,8.9653607
,38.6976219,Ayer Tena,0,node/7103202625,8.9820533
,38.7729637,Bel Air,0,node/7104888674,9.0323651
,38.8506098,CMC (Apartments),0,node/7105158906,9.0211237
,38.8774831,Tafo Condominium 2,0,node/7105158907,9.0462589
,38.8775457,Tafo Condominium 1,0,node/7105158908,9.0502639
,38.7490031,Mebrat (Lafto),0,node/7105268824,8.9593839
,38.7497551,Dildiy Mariam,0,node/7105268825,8.9587047
,38.7504407,Lafto (Mickael),0,node/7105268826,8.9537745
,38.7493803,Lafto,0,node/7105268828,8.9465504
,38.7450783,Lafto (Primary School),0,node/7105268830,8.9558865
,38.7534558,Post Office (Ambassador),0,node/7105398617,9.0185243
,38.761425,6 Kilo,0,node/7105398618,9.0462
,38.7623138,Teferi Mekonen,0,node/7105398619,9.0522977
,38.7999868,Marathon Motor (Megenagna),0,node/7105584907,9.022269
,38.762507,Arat Kilo,0,node/7105584908,9.0332665
,38.7532588,Piassa Arada,0,node/7105584909,9.0341288
,38.7625094,Arat Kilo,0,node/7105584911,9.0332715
,38.7888307,Abebe Sook,0,node/7105584912,9.0289345
,38.7492708,Abune Petros,0,node/7105840324,9.0358919
,38.745898,Yohannes,0,node/7105840325,9.0424895
,38.7421685,Arbegnoch Primary School,0,node/7105840326,9.0472271
,38.7376837,Enqulal Fabrica,0,node/7105840327,9.0485317
,38.7450108,Yohannes,0,node/7105840330,9.0434044
,38.7373533,Enqulal Fabrica,0,node/7105840331,9.0481067
,38.7350358,Sefera,0,node/7107670562,8.9209077
,38.7332384,Mebrathile (EEPCo),0,node/7107670563,8.94963
,38.7341183,Mekanisa Abo,0,node/7107670564,8.9829863
,38.6879228,Jemmo 2,0,node/7107789218,8.9606298
,38.7511477,Piassa (Downtown Cafe),0,node/7107789219,9.0319297
,38.6878636,Jemmo 2,0,node/7107789220,8.9605732
,38.7483037,Kera,0,node/7108224469,8.9860956
,38.7675202,6th (Raddison Blu),0,node/7110438104,9.0166264
,38.7701955,Kazanchis (6th),0,node/7110438105,9.0171928
,38.7758778,Aware Roundabout,0,node/7110438106,9.0231177
,38.7815333,Signal,0,node/7110438107,9.0234853
,38.7867845,Dinberwa Hospital,0,node/7110438108,9.0221973
,38.7940254,Lem Hotel,0,node/7110438109,9.0212061
,38.8157252,Lamberet (Queens),0,node/7110438110,9.022362
,38.8281186,Kotebe 01,0,node/7110438111,9.0348925
,38.8281855,Kotebe 01,0,node/7110438113,9.0349074
,38.7948696,Shola (United Bank),0,node/7110438114,9.0217059
,38.792498,Sumeya Mosque,0,node/7110438115,9.021194
,38.7815645,Signal,0,node/7110438116,9.023369
,38.7640618,Kality Gebriel,0,node/7110725239,8.9104302
,38.7673729,Addis Sefer (Overpass),0,node/7110725240,8.9572931
,38.7723221,Bole Mickael (2),0,node/7110725241,8.9799499
,38.7903601,Bole Bridge,0,node/7110725242,8.9867261
,38.7957512,MOENCO,0,node/7110725243,8.9948785
,38.7988652,Sport Academy,0,node/7110725244,9.0009401
,38.8030776,Anbessa Garage,0,node/7110725245,9.0077883
,38.8032793,Anbessa Garage,0,node/7110725247,9.0076034
,38.8009424,Emperial Hotel,0,node/7110725248,9.0037859
,38.7947105,Bole (Bora Amusement),0,node/7110725250,8.9910225
,38.7721474,Bole Mickael (2),0,node/7110725251,8.9795995
,38.7676814,Addis Sefer,0,node/7110725252,8.9603711
,38.7692206,Saris Abo,0,node/7110725253,8.945759
,38.7648588,Kality (Correctional Facility),0,node/7110725254,8.9234126
,38.7718808,Kality Meneharia,0,node/7110725256,8.8959395
,38.7588358,Arat Kilo,0,node/7111821010,9.0354591
,38.7538404,Piassa (EPPCO),0,node/7111821011,9.0325113
,38.7374552,Autobis Tera,0,node/7111821013,9.0317457
,38.7372851,Autobis Tera,0,node/7111821015,9.0302352
,38.7887833,Dinberwa Hospital (1),0,node/7111821016,9.0216842
,38.721592,Chid Tera,0,node/7112123457,9.0374493
,38.7149359,Mebrathail,0,node/7112123458,9.0294949
,38.7177803,Kolfe Keranyo,0,node/7112123459,9.0173854
,38.708993,Keranio Bridge,0,node/7112123460,9.0193846
,38.7176821,Kolfe Keranyo,0,node/7112123462,9.0170237
,38.7163686,Abysinia Coffee,0,node/7112123463,9.0370321
,38.7208971,Chid Tera,0,node/7112123464,9.0376714
,38.7188624,Old Airport (Mobil),0,node/7112215078,8.9998854
,38.7196192,Minaye (Shoa Supermarket),0,node/7112215079,9.008471
,38.7158287,Holand,0,node/7112215080,9.0208524
,38.7141478,18 Mazoria (Atena Tera),0,node/7112215081,9.0361682
,38.7125982,Atena Tera,0,node/7112215082,9.0409736
,38.7116581,Winget TVET,0,node/7112215083,9.0491202
,38.7124575,Winget,0,node/7112215084,9.0555289
,38.7127274,Winget,0,node/7112280388,9.0554541
,38.7117843,Winget TVET,0,node/7112280389,9.0494004
,38.7122352,kolfe (Atena Tera),0,node/7112280390,9.0448145
,38.712721,Atena Tera,0,node/7112280391,9.0414434
,38.7143961,18 Mazoria (Atena Tera),0,node/7112280392,9.0362317
,38.7152453,Meseret Edget,0,node/7112280393,9.0244809
,38.7188519,Augusta Bridge (Tor Hailoch),0,node/7112280394,9.0056155
,38.8146269,Mahiber Betoch,0,node/7112648156,8.8596281
,38.8210444,Project 12 Akababi,0,node/7112648157,8.865212
,38.8204129,G7 (Tulu Dimtu),0,node/7112648158,8.8701237
,38.7965426,Belay Ab Moters,0,node/7112648159,8.871336
,38.779459,Gelan Condominium,0,node/7112648160,8.8797273
,38.7728422,Kality Total,0,node/7112648161,8.894811
,38.770309,Akaki Subcity Office (Menaheria),0,node/7112648162,8.8973286
,38.7641522,Kality (Correctional Facility),0,node/7112648163,8.9224149
,38.7676362,Techtra Engineering,0,node/7112648164,8.9281178
,38.7637599,Adey Abeba,0,node/7112648165,8.9572677
,38.7669427,Kality Maseltegna,0,node/7112648166,8.9323914
,38.768315,Wehalemat,0,node/7112648167,8.9298175
,38.7768426,Awash Bank (Akaki Kality),0,node/7112648168,8.8837788
,38.7793211,Gelan Condominium,0,node/7112648169,8.8799589
,38.7963837,Belay Ab Moters,0,node/7112648170,8.8716847
,38.8091005,TAF Oil (Tulu Dimtu),0,node/7112648172,8.8705655
,38.7439418,Teklehaymanot,0,node/7112755338,9.0278217
,38.7376384,Autobis Tera,0,node/7112755340,9.0314996
,38.7381207,Autobis Tera,0,node/7112755342,9.0308454
,38.7468282,Meteorology,0,node/7112755343,9.0194238
,38.7199737,Girum Hospital,0,node/7113004009,9.0462468
,38.7211613,Ras Hailu (Medhanialem),0,node/7113004010,9.0509733
,38.7114101,Awolia,0,node/7113004011,9.0572551
,38.6983516,Bercheko Fabrica (Asko),0,node/7113004012,9.0640587
,38.70588,Gulele,0,node/7113004013,9.0598807
,38.7210939,Ras Hailu (Medhanialem),0,node/7113004014,9.0507813
,38.7212829,Woreda 7 TVET,0,node/7113004015,9.040909
,38.7213725,Chid Tera,0,node/7113004016,9.0380466
,38.7365754,Autobis Tera,0,node/7113004018,9.0312199
,38.73268,Michael (2),0,node/7113004020,9.0426217
,38.7261371,Pawlos Hospital (Saba Mosque),0,node/7113004021,9.0485205
,38.7205811,Anbessa Garage (Shegole),0,node/7113004022,9.0643796
,38.7266132,Shegole (Mender 7),0,node/7113004024,9.0641379
,38.726699,Shegole (Mender 7),0,node/7113004026,9.0641466
,38.7189551,Hassen & Hussein Mosque (Shegole),0,node/7113004027,9.0589167
,38.7198445,Shegole Bank,0,node/7113004028,9.0548351
,38.7321449,Michael,0,node/7113004029,9.0409541
,38.7712666,Eyesus,0,node/7113158623,9.0652655
,38.7741153,Wello Sefer,0,node/7122983960,8.9931107
,38.7720567,Kassech Kitfo,0,node/7122983961,8.9891423
,38.7679985,Ambasel,0,node/7122983962,8.9855755
,38.7662234,WAGGA (Singer Liquior Store),0,node/7122983963,8.9840055
,38.7635127,Wengalawit,0,node/7122983964,8.9814923
,38.7636059,Wengalawit,0,node/7122983968,8.9817105
,38.7680101,MEDCO,0,node/7122983969,8.9857381
,38.7723942,Tebaber Berta,0,node/7122983970,8.98977
,38.7739711,Wello Sefer,0,node/7122983972,8.9930626
,38.8356151,Beshale Area,0,node/7123180286,9.0113972
,38.802106,Megenagna,0,node/7123180287,9.0185063
,38.821148,Jacros,0,node/7123180289,9.0111777
,38.8526604,Safari,0,node/7123180290,9.0100121
,38.8657082,Safari (Summit),0,node/7123180291,9.0116739
,38.8657494,Safari (Summit),0,node/7123180293,9.0115148
,38.8513684,Safari,0,node/7123180295,9.0099646
,38.8356503,Beshale Area,0,node/7123180296,9.011279
,38.8201425,Gurd Shola,0,node/7123180297,9.0189315
,38.803506,Megenagna,0,node/7123180298,9.0194519
,38.7650036,Meskel Flower,0,node/7123265052,8.9882804
,38.7659652,Loza (Adot),0,node/7123265053,8.9911645
,38.7663984,Nazra Hotel,0,node/7123265054,8.9934001
,38.7666123,Yetam Hotel,0,node/7123265055,8.9959487
,38.7667571,Kebele Kibeb,0,node/7123265056,8.9980982
,38.7669271,Mulu Shewa (Gazebo),0,node/7123265061,8.9999844
,38.7668423,Kebele Kibeb,0,node/7123265062,8.9979306
,38.7667132,Yetam Hotel,0,node/7123265063,8.9959132
,38.7665439,Nazra Hotel,0,node/7123265064,8.9937071
,38.7660467,Loza (Adot),0,node/7123265065,8.9910552
,38.7652457,Meskel Flower,0,node/7123265066,8.9885268
,38.7180191,Total 3 Kuter Mazoria,0,node/7182111861,8.9921561
,38.7468023,Kera,0,node/7182111862,8.9865792
,38.7629695,4 Kilo Minilik School,0,node/7214490240,9.0351361
,38.7708485,Kality Menaheriya,0,node/7214490241,8.8967488
,38.497947,Holeta,0,node/10672522047,9.0675662
,38.53199,Sademo,0,node/10672522056,9.065884
,38.5920589,Cheshire Ethiopia,0,node/10672522057,9.0712731
,38.8085926,Delta Fuel Station,0,node/10672721751,8.8504983
,38.8243789,Sidama Awash NOC,0,node/10672739809,8.8412588
,38.8396009,Atlas Resort,0,node/10672739811,8.8314833
,38.818065,ODDA Fuel Station,0,node/10672739815,8.8447465
,38.717673,3 Kutir (TZNA Area),0,node/10672961242,8.9943894
,38.7335924,Lideta High Court,0,node/10672961244,9.0117316
,38.7024743,Ayer Tena,0,node/10750378219,8.9839135
,38.7394551,Sar Bet,0,node/10755917239,8.9925223
,38.7392871,Sar Bet,0,node/10755917241,8.9924619
,38.7469304,Kera,0,node/10755917242,8.9859671
,38.7418629,Kera,0,node/10755917243,8.9900132
,38.7376124,Sar Bet,0,node/10755917244,8.995096
,38.7309965,karl Square,0,node/10755917245,8.9973975
,38.7302642,karl Square,0,node/10755917246,8.9970773
,38.7268512,Bisrate Gebrael,0,node/10755917247,8.9927368
,38.7255644,Bisrate Gebrael,0,node/10755917248,8.9914228
,38.7226976,Bisrate Gebrael,0,node/10755917249,8.9888937
,38.7175917,Total 3 Kuter Mazoria,0,node/10755917250,8.9922875
,38.7708737,kality Meneharia,0,node/10766121857,8.8967652
,38.7669453,kality Maseltegna,0,node/10766121859,8.9319554
,38.7668102,Kadisco Roundabout,0,node/10766121860,8.9632423
,38.7761571,Bole Mickael,0,node/10766121861,8.9816305
,38.7721247,Bole Printing Press,0,node/10766121862,8.9966149
,38.7634141,Flamingo,0,node/10766121863,9.0100526
,38.7626278,St. Estifanos,0,node/10766121864,9.0125659
,38.7629874,4 Kilo (Menlik),0,node/10766121865,9.035146
,38.7631121,4 Kilo (Menlik),0,node/10766121866,9.0352952
,38.7641345,Place Parking (Gibi Gebriel),0,node/10766121867,9.0214342
,38.7636218,Flamingo,0,node/10766121868,9.01014
,38.7743234,Wollo Sefer,0,node/10766121869,8.9944147
,38.7761469,Bole Mikael,0,node/10766121871,8.9812653
,38.765481,Mamo (Nifas Silk),0,node/10766121872,8.9737518
,38.7670877,kality Maseltegna,0,node/10766121873,8.9321192
,38.7721261,kality Meneharia,0,node/10766121874,8.8957067
,38.7674734,Olympia,0,node/10766454593,9.0056744
,38.7908923,Bole Roundabout,0,node/10766454594,8.9867247
,38.7341844,German Square,0,node/10768858714,8.965437
,38.7420458,Gofa Camp,0,node/10768858715,8.97192
,38.7411322,African Union,0,node/10768858718,9.003043
,38.7370315,Autobis Tera,0,node/10768858719,9.0296254
,38.7470064,Guenet Hotel (Orbis),0,node/10768858720,9.0026517
,38.7340469,German Square,0,node/10768858723,8.9651822
,38.8198728,Lamberet Menaheria,0,node/10781643820,9.0239162
,38.7650098,Arat Kilo,0,node/10781643821,9.0322896
,38.7666152,4 kilo (Children Theatre),0,node/10781643822,9.0328365
,38.7736753,Bel Air,0,node/10781643823,9.0325481
,38.7768069,Kebena,0,node/10781643824,9.0344084
,38.7794124,Kokebe Tsebah (Kebena),0,node/10781643825,9.0350794
,38.7823515,Kenya Embassy (Kebena),0,node/10781643826,9.0324942
,38.785575,British Embassy,0,node/10781643827,9.0309005
,38.7888226,Abebe Sook,0,node/10781643828,9.0289673
,38.7947497,Shola (Yeka Court),0,node/10781643829,9.0251295
,38.7984062,Shola Abyssinia Bank,0,node/10781643830,9.0232585
,38.7997354,Megenagna (Marathon Motors),0,node/10781643831,9.0224046
,38.8010368,Megenagna,0,node/10781643832,9.0208971
,38.8048559,Megenagna (Israel Embassy),0,node/10781643833,9.0208722
,38.8199227,Lamberet Menaheria,0,node/10781643834,9.0240444
,38.836729,Kotebe,0,node/10781643835,9.0297042
,38.8385612,Kotebe,0,node/10781643836,9.0304539
,38.8490303,Kotebe Teachers College,0,node/10781643837,9.0348007
,38.8553365,Kotebe Gebriel,0,node/10781643838,9.0363204
,38.8541265,Kotebe Gebriel,0,node/10781643839,9.0358505
,38.8443436,Wessen Grocery,0,node/10781643840,9.032918
,38.8648947,Kara,0,node/10781643841,9.0407203
,38.8653607,Kara,0,node/10781643842,9.0411416
,38.788672,Abebe Sook,0,node/10781844855,9.0287927
,38.7843424,British Embassy,0,node/10781844856,9.0313214
,38.7623866,5 Kilo St. Mary,0,node/10781844857,9.038677
,38.7614003,6 Kilo University,0,node/10781844858,9.0462129
,38.7615945,6 Kilo University,0,node/10781844859,9.0462072
,38.7615002,6 Kilo (Lion Zoo),0,node/10781844860,9.0430896
,38.7826601,Kenya Embassy (Kebena),0,node/10781844861,9.032679
,38.7953847,Shola (Yeka Court),0,node/10781844862,9.0250431
,38.7998471,Megenagna (Marathon Motors),0,node/10781844863,9.0225097
,38.8773834,Yeka 03,0,node/10823916391,9.0381854
,38.7341685,Sefera Atkilt Tera,0,node/10842065101,8.931276
,38.7646885,kality Maseltegna,0,node/10842065103,8.9358559
,38.7478806,Bulgaria,0,node/10842065104,8.9948043
,38.7628904,Kality Customs,0,node/10842129005,8.9379429
,38.7330813,Germen Square,0,node/10842129006,8.9644696
,38.7441345,Hana Mariam,0,node/10842129008,8.93579
,38.7703639,Gomista,0,node/10842129009,8.9373819
,38.780123,Nigd bank,0,node/10842129010,8.948706
,38.7642814,kality Maseltegna,0,node/10842129011,8.9342123
,38.7585214,Kadisco,0,node/10842129012,8.9310906
,38.7638648,Adey abeba,0,node/10842129013,8.9582797
,38.7690665,Saris abo,0,node/10842129015,8.9457865
,38.7345583,Haile Garment,0,node/10842129016,8.93876
,38.7635479,Saris,0,node/10842129017,8.9546992
,38.7819099,Bole Cargo,0,node/10842129019,8.9834477
,38.7483448,Bulgaria,0,node/10842129020,8.9944221
,38.7765022,Kore,0,node/10842129021,8.9482742
,38.7691994,Saris Abo,0,node/10842129022,8.9444276
,38.7704449,Kality Menaheria,0,node/10842129023,8.8973782
,38.7340982,Sefera Square,0,node/10842129024,8.9254109
,38.7463895,Mexico,0,node/10842129025,9.009032
,38.7644698,Kality Gebriel,0,node/10842129026,8.9092945
,38.7821218,Derartu,0,node/10842129027,8.8869211
,38.7818039,Bole Cargo,0,node/10842129028,8.9836884
,38.7729402,Kality Total,0,node/10842129029,8.8948904
,38.748144,Noc,0,node/10842129030,8.9927142
,38.7590821,Lancha,0,node/10842129031,8.9901397
,38.7359129,Haile Garment,0,node/10842129032,8.9375158
,38.759633,Agona,0,node/10842129033,8.9880834
,38.76464,kality Maseltegna,0,node/10842129034,8.9336783
,38.7214531,Mesqelegna,0,node/10842129035,8.9417644
,38.6979529,Jemo,0,node/10842129037,8.9537651
,38.7640443,Adey abeba,0,node/10842129038,8.9577771
,38.7661797,Saris Abo,0,node/10842129040,8.9448318
,38.7343973,Mebrat hayle,0,node/10842129041,8.9457862
,38.7669226,Kadisco,0,node/10842129042,8.9633984
,38.7453864,Hana Mariam,0,node/10842129043,8.9356798
,38.7609585,Mamo (NFSL),0,node/10842129045,8.9729895
,38.7785848,Medhani alem,0,node/10842129046,8.9490785
,38.7660661,Mosque (Mesged),0,node/10842129047,8.9047633
,38.7645559,Kality Gebriel,0,node/10842129048,8.9093265
,38.7888143,Bole Roundabout,0,node/10842129051,8.9859342
,38.7681435,Wuhalimat,0,node/10842129052,8.9295556
,38.7445142,Hana Mariam,0,node/10842129053,8.9361549
,38.7719673,Bole Mickael,0,node/10842129054,8.9797944
,38.7635639,Sheger building,0,node/10842129055,8.9192813
,38.7668114,Yoseph,0,node/10842129056,8.9705748
,38.7477478,Bulgaria,0,node/10842129057,8.9947898
,38.7342346,Mebrathayil,0,node/10842129058,8.9470316
,38.7346011,Sefera Square,0,node/10842129059,8.9250202
,38.758701,Tele Garage,0,node/10842129060,9.0000494
,38.7339445,Mebrathayil,0,node/10842129061,8.9469179
,38.7335906,Haile garment,0,node/10842129062,8.9376734
,38.758986,Meshualekia,0,node/10842129063,9.0058652
,38.7640108,Adey abada,0,node/10842129066,8.9571801
,38.706617,Menaheria (Zenebu Werk),0,node/10842129069,8.9755358
,38.767446,Adis sefer,0,node/10842129070,8.9602509
,38.758758,Kadisco,0,node/10842129071,8.930883
,38.7478486,Bulgaria,0,node/10842129072,8.993831
,38.7627716,Kadisco,0,node/10842129073,8.9661182
,38.7861393,Bulbula,0,node/10842129074,8.9517202
,38.7629867,Kadisko,0,node/10842129075,8.966096
,38.7700795,Saris abo,0,node/10842129076,8.9444437
,38.7875287,Meshualekya,0,node/10842129077,8.8759809
,38.7597928,Agona,0,node/10842129078,8.9871416
,38.7595824,Gotera chaf,0,node/10842129079,8.9771026
,38.7633358,Saris,0,node/10842129080,8.9528149
,38.7593422,St. Joseph School,0,node/10842129082,9.0106804
,38.7338312,Kotari Condominium,0,node/10842129083,8.9321621
,38.7652695,Mamo,0,node/10842129084,8.9732793
,38.7664084,Saris Abo,0,node/10842129085,8.9448603
,38.7665547,Yosef,0,node/10842129086,8.9705442
,38.7654586,Kality Cheralia,0,node/10842129088,8.9068482
,38.7653555,Kality Cheralia,0,node/10842129089,8.9066965
,38.7593009,Lancha,0,node/10842129090,8.9906489
,38.7701062,Gomista,0,node/10842129091,8.9375024
,38.7331196,Haile Garment,0,node/10842129092,8.9375082
,38.7584826,Tele Garage,0,node/10842129093,9.0001174
,38.7767338,Selam Building,0,node/10842129094,8.8840544
,38.7769101,Medhani alem,0,node/10842129095,8.9453322
,38.7772259,Selam Building,0,node/10842129096,8.8831855
,38.7872182,Meshualekya,0,node/10842129097,8.8759552
,38.7635911,Saris,0,node/10842129098,8.9531876
,38.7328242,Germen adebabay,0,node/10842129102,8.963723
,38.7607874,Mamo (NFSL),0,node/10842129103,8.972508
,38.7486365,Kera,0,node/10842129105,8.9875165
,38.7599766,Agona,0,node/10842129106,8.9867627
,38.7701231,Saris abo,0,node/10842129107,8.9446574
,38.7483211,Kera,0,node/10842129108,8.9860883
,38.7666013,Gelan Condominium,0,node/10842129110,8.8790966
,38.7596133,Temenja yasi,0,node/10842129111,8.9953066
,38.7588933,Riche,0,node/10842129112,9.0041803
,38.7364242,Haile garment,0,node/10842129113,8.9368154
,38.7720906,Bole Mickael,0,node/10842129114,8.9795749
,38.6971287,Ayer Tena,0,node/10842129116,8.9835322
,38.6977027,Jemo,0,node/10842129117,8.9537239
,38.7467544,Land mark,0,node/10842129118,9.0052072
,38.7218311,Meskelegna,0,node/10842129119,8.9411484
,38.7349153,Haile Garment,0,node/10842129120,8.9381771
,38.7586909,Riche,0,node/10842129121,9.0040548
,38.7841911,Kore,0,node/10842129122,8.9476648
,38.7866845,Meshualekya,0,node/10842129124,8.8770606
,38.7863461,Bulbula,0,node/10842129125,8.9518942
,38.7643342,kality Maseltegna,0,node/10842129126,8.9357353
,38.7692278,Saris abo,0,node/10842129129,8.9457601
,38.7676873,Addis sefer,0,node/10842129131,8.9603252
,38.744852,Hana mariam,0,node/10842129132,8.9352291
,38.7484325,Kera,0,node/10842129133,8.9866879
,38.7601404,Gotera chaf,0,node/10842129134,8.9757898
,38.770318,Akaki Subcity Office (Menaheria),0,node/10842129135,8.8972852
,38.7717099,Condominium,0,node/10842129136,8.9411922
,38.7666701,Gelan Condominium,0,node/10842129137,8.8789992
,38.7683276,Wuhalimat,0,node/10842129139,8.9295931
,38.7461882,Mexico,0,node/10842129140,9.0098761
,38.7413343,Grand Anwar Mosque,0,node/10845731573,9.0312472
,38.7457773,Kebele 11,0,node/10845731574,9.0247282
,38.7468651,Guenet hotel,0,node/10845731575,9.0028738
,38.7589891,Lancia,0,node/10845731576,8.9923344
,38.755826,Pepsi,0,node/10845731577,8.9825134
,38.7591215,Lancia,0,node/10845731578,8.9919399
,38.7438378,Tekle Haimanot,0,node/10845731579,9.0279893
,38.7666459,Saris Abo,0,node/10845731580,8.9441872
,38.7544517,Legehar,0,node/10845731581,9.0120319
,38.7522272,Kera,0,node/10845731582,8.9841589
,38.7631799,Kality Customs,0,node/10845731583,8.9380577
,38.7378007,Gojam Berenda,0,node/10845731584,9.0342603
,38.7381021,Gojam Berenda,0,node/10845731585,9.0343553
,38.7818631,Derartu,0,node/10845731586,8.8868675
,38.7557408,Pepsi,0,node/10845731587,8.9824223
,38.7596457,Global Hotel,0,node/10845731588,8.9943898
,38.7637542,Sheger Building,0,node/10845731589,8.9208636
,38.734431,Autobus Tera,0,node/10845731590,9.0343246
,38.7469738,Guenet hotel,0,node/10845731591,9.0027786
,38.7439714,Tekle Haimanot,0,node/10845731592,9.0279685
,38.7476261,Beg Tera,0,node/10845731593,8.9970419
,38.7598651,Global Hotel,0,node/10845731594,8.9943499
,38.7641252,Kality Correctional,0,node/10845731595,8.9223845
,38.7667306,Cheralia Factory,0,node/10845731596,8.9029367
,38.7457421,Kebele 11,0,node/10845731597,9.0246149
,38.7414003,Grand Anwar Mosque,0,node/10845731598,9.0310422
,38.7526758,National Theatre,0,node/10845731599,9.0165472
,38.7639368,Sheger Building,0,node/10845731600,8.9214902
,38.767986,Saris,0,node/10845731601,8.95346
,38.7475303,Beg Tera,0,node/10845731602,8.9968163
,38.7468099,Sengatera,0,node/10845731603,9.014753
,38.746301,Mexico,0,node/10845731604,9.0096228
,38.7479845,Bulgaria,0,node/10845749005,8.9937615
,38.7720203,kality Meneharia,0,node/10845840895,8.8956285
,38.6966894,Ayer Tena,0,node/10845840896,8.9841176
,38.7330269,Germen adebabay,0,node/10845840897,8.9637758
,38.7728316,Kality Total,0,node/10846106471,8.8948231
,38.7912092,Bole Bridge,0,node/10881147490,8.9869946
,38.7903563,Bole Bridge,0,node/10881147492,8.9867302
,38.7338003,Autobus Tera,0,node/10883106542,9.0341009
,38.7415025,Bajaj Tera,0,node/10886135782,8.907041
,38.7479978,Chera,0,node/10886135783,8.904156
,38.7622377,Gelan Condominium,0,node/10886135784,8.8772921
,38.7845626,Total,0,node/10886135785,8.8549158
,38.8197795,Tulu Dimtu,0,node/10886135787,8.8737817
,38.8202354,Tulu Dimtu,0,node/10886135789,8.8738791
,38.820802,G7,0,node/10886135790,8.8709574
,38.7847209,Total,0,node/10886135791,8.8541896
,38.7630121,Gelan Condominium,0,node/10886135793,8.8758233
,38.7928534,Bole Bridge,0,node/10886281950,8.9906055
,38.7887705,Bole Medhanyalem,0,node/10886281951,8.9955183
,38.7870108,Edna Mall Squar,0,node/10886281952,8.9973425
,38.7892817,Adey Ababa Stadium,0,node/10886281953,9.0043569
,38.7872566,22 Mazoria,0,node/10886281954,9.0150262
,38.787438,22 Mazoria,0,node/10886281956,9.0150056
,38.7887083,Freedom,0,node/10886281958,9.0082739
,38.7890587,Werku Building,0,node/10886281997,9.0069454
,38.7893444,Adey Ababa Stadium,0,node/10886281998,9.0042976
,38.7869491,Edna Mall Squar,0,node/10886281999,8.9977034
,38.7885714,Bole Medhanyalem,0,node/10886282000,8.995948
,38.7929596,Bole Bridge,0,node/10886282001,8.9906936
,38.7881236,22 Mazoria,0,node/10886427067,9.0161537
,38.7950715,Lem Hotel,0,node/10886427068,9.017758
,38.8019786,Megenagna,0,node/10886427069,9.0198841
,38.8200261,Gurd Shola,0,node/10886427070,9.0191878
,38.8345374,Civil Servis College,0,node/10886427071,9.0218654
,38.8536095,Yetebaberut,0,node/10886427072,9.0209806
,38.8750186,Ayat,0,node/10886427073,9.0214852
,38.8350083,Civil Servis College,0,node/10886427074,9.0215577
,38.8737977,Ayat,0,node/10886427075,9.0211711
,38.8598848,Meshageria,0,node/10886427076,9.0204163
,38.8535182,Yetebaberut,0,node/10886427077,9.020619
,38.7941243,Bole Bora Amusement,0,node/10886883544,8.9907378
,38.8016982,Megenagna,0,node/10886883546,9.0185543
,38.8034449,Anbessa Garage,0,node/10886883547,9.0078296
,38.8009392,Emperial Hotel,0,node/10886883548,9.0037737
,38.7961015,Hayat Hospital,0,node/10886883549,8.9950343
,38.7949793,Bole Bora Amusement,0,node/10886883550,8.9916604
,38.852562,Sun shine,0,node/10886991025,9.0199832
,38.8042842,Megenagna,0,node/10886991026,9.0200202
,38.841553,Meshualekia,0,node/10886991027,9.021578
,38.8522797,Safari,0,node/10886991028,9.0110042
,38.8519977,Summit,0,node/10886991029,9.004015
,38.8517386,Summit,0,node/10886991031,9.004282
,38.8519018,Safari,0,node/10886991032,9.010941
,38.8520834,Sun shine,0,node/10886991033,9.0199154
,38.8415391,Meshualekia,0,node/10886991034,9.021324
,38.8392942,Michael,0,node/10886991035,9.021353
,38.8211275,Gurd Shola,0,node/10886991036,9.0187135
,38.7956759,Hayat Hospital,0,node/10887120325,8.9948468
,38.798384,Sport Accadamy,0,node/10887120326,9.0001969
,38.8000262,Emperial Hotel,0,node/10887120327,9.0027661
,38.8016319,Mulugeta Building,0,node/10887120328,9.0187177
,38.7855121,93 Mazoria,0,node/10890083966,8.9603848
,38.7863684,Kaldisco,0,node/10890083967,8.9623057
,38.7872114,Key Afer,0,node/10890083968,8.9642046
,38.7938035,Bole Bridge,0,node/10890083969,8.9901774
,38.8025239,Mulugeta Building,0,node/10890083974,9.0169433
,38.7873203,Key Afer,0,node/10890290096,8.9642211
,38.785703,93 Mazoria,0,node/10890290097,8.9604784
,38.7875752,Kebele,0,node/10890290098,8.9581348
,38.8031745,Anbessa Garage,0,node/10893030388,9.0080412
,38.8169267,Jacros,0,node/10893030389,9.0035488
,38.8210973,Alem Ayew Building,0,node/10893030390,8.9993201
,38.8283586,Goro,0,node/10893030392,8.9923039
,38.8287738,Goro,0,node/10893030394,8.9917123
,38.8266397,Goro School,0,node/10893030395,8.9939213
,38.8210064,Alem Ayew Building,0,node/10893030396,8.9992455
,38.8166485,Jacros,0,node/10893030397,9.0035377
,38.7986195,Sport Accadamy,0,node/10893030398,8.9999982
,38.7947324,Bole Bridge,0,node/10893030400,8.9911487
,38.8336594,Figa,0,node/10893316186,9.0122741
,38.8366122,Mesgid,0,node/10893316189,9.0110639
,38.8335762,Figa,0,node/10893316190,9.0121764
,38.7731313,Bole Mickael,0,node/10898980600,8.984658
,38.7551282,Ambasader,0,node/10898980601,9.0162838
,38.7662663,Dembel,0,node/10898980602,9.0069448
,38.7586647,Stadium,0,node/10898980603,9.0123922
,38.7466456,Metrology,0,node/10898980604,9.0192676
,38.7476072,Tikur Anbesa,0,node/10898986005,9.0217285
,38.7476005,Tikur Anbesa,0,node/10898986007,9.0207753
,38.7467207,Metrology,0,node/10898986008,9.0188878
,38.7553118,Ambasader,0,node/10898986009,9.0164136
,38.760062,Stadium,0,node/10898986010,9.011485
,38.7686303,Dembel,0,node/10898986011,9.0038396
,38.7717243,Bole Printing Press,0,node/10898986012,8.9979213
,38.7734946,Bole Mickael,0,node/10898986014,8.9849144
,38.7413697,Cinema Ras,0,node/10899009892,9.0318094
,38.7414723,Cinema Ras,0,node/10899009893,9.0317766
,38.7781683,Rwanda,0,node/10899150564,8.992509
,38.7693116,Shewa Dabo,0,node/10899150565,9.0017627
,38.7626611,St. Estifanos Church,0,node/10899150566,9.0120704
,38.7511048,Piassa Arada,0,node/10899150567,9.0321752
,38.7525581,Piassa Arada,0,node/10899150568,9.0330229
,38.7517894,Tewodros Square,0,node/10899150569,9.0264157
,38.7522625,Tikur Anbesa,0,node/10899150570,9.0210948
,38.7529153,Post Office,0,node/10899150571,9.019064
,38.7576138,Ghion Hotel,0,node/10899150572,9.0138467
,38.7897689,Bole Bridge,0,node/10899278324,8.9885561
,38.7840796,Friendship Building,0,node/10899278325,8.9908062
,38.7798445,Rwanda,0,node/10899278326,8.9923825
,38.7844715,Friendship Building,0,node/10899278327,8.9908613
,38.7898626,Bole Bridge,0,node/10899278328,8.9887169
,38.8038533,Anbessa Garage,0,node/10899524535,9.0084115
,38.8100683,Condominium - Gerji Mebrat hayle,0,node/10899524536,9.0049309
,38.814209,Gerji Mebrat hayle,0,node/10899524537,9.0036683
,38.8294024,Goro,0,node/10899524538,8.9913434
,38.815561,kilinto Right,0,node/10899524539,8.900477
,38.8197368,Tulu Dimtu,0,node/10899524540,8.8753804
,38.8150743,kilinto Right,0,node/10899524542,8.900461
,38.8292469,Goro,0,node/10899524543,8.9912832
,38.8134376,Gerji Mebrat hayle,0,node/10899524544,9.0035919
,38.8095948,Condominium - Gerji Mebrat hayle,0,node/10899524545,9.0050654
,38.8055809,Anbessa Garage,0,node/10899524547,9.0071868
,38.8364067,Mesgid,0,node/10899590290,9.011198
,38.8518486,Saint Georgis,0,node/10899590291,8.994461
,38.8515329,Saint Georgis,0,node/10899590293,8.994389
,38.7332958,Mebrathile,0,node/10899652823,8.9493529
,38.7324445,Gebriel Bridge,0,node/10899652824,8.9556186
,38.7273491,Mickael Bridge,0,node/10899652825,8.965384
,38.7121031,Zenebewerk,0,node/10899652826,8.9727473
,38.7055213,Chaina Camp,0,node/10899652827,8.975714
,38.6982059,Ayer Tena,0,node/10899652829,8.981635
,38.7348966,Haile Garment,0,node/10901428140,8.9385233
,38.7353205,Sefera,0,node/10901428141,8.9201595
,38.7337094,Sefera Atkilt Tera,0,node/10901428142,8.9311784
,38.734667,Sefera,0,node/10901428143,8.9208099
,38.7519617,Mesalemia,0,node/10901522017,8.8870433
,38.7484085,Chera Medhanilem,0,node/10901522018,8.9032086
,38.7346387,Haile Garment,0,node/10901522020,8.935726
,38.7491293,Chera Medhanilem,0,node/10901522021,8.9034769
,38.7524365,Mesalemia,0,node/10901522022,8.8871115
,38.7629397,Saris,0,node/10901643508,8.9530332
,38.7540078,58 Mazoria,0,node/10901643510,8.9431476
,38.7500946,Kidane Mihret Stebel,0,node/10901643511,8.9405222
,38.7447143,Mexico,0,node/10902267327,9.0084289
,38.7448728,Mexico,0,node/10902267330,9.0084377
,38.7393711,AU (Mikael) Rounrdabout,0,node/10902267332,8.9990666
,38.7395668,AU (Mikael) Rounrdabout,0,node/10902267333,8.9990162
,38.7381301,Sar Bet,0,node/10902267334,8.9923567
,38.7383324,Sar Bet,0,node/10902267335,8.9923453
,38.7342938,Abo Mazoria,0,node/10902267336,8.9822679
,38.7344209,Abo Mazoria,0,node/10902267337,8.9823292
,38.7311351,Mekanisa,0,node/10902267338,8.9729293
,38.7312498,Mekanisa,0,node/10902267339,8.9728812
,38.732719,Gebriel Bridge,0,node/10902267340,8.9555964
,38.7539257,58 Mazoria,0,node/10903393900,8.9432326
,38.7267004,Varnelo Squer,0,node/10903398373,8.9487486
,38.7117668,Jemmo 1,0,node/10903398374,8.9594798
,38.712128,Jemmo 1,0,node/10903398375,8.9585188
,38.7161087,Jemmo Medhanialem,0,node/10903398376,8.9524535
,38.7162235,Jemmo Medhanialem,0,node/10903398377,8.9525568
,38.7221583,Kebele,0,node/10903398378,8.9490672
,38.7221797,Kebele,0,node/10903398379,8.9491872
,38.7267159,Varnelo Squer,0,node/10903398380,8.9488837
,38.7373285,Sar Bet,0,node/10904734315,8.9951163
,38.7276618,Austria Embassy,0,node/10904734316,8.9936468
,38.7177291,Total 3 Kuter Mazoria,0,node/10904734318,8.9922476
,38.7322404,Autobus Tera,0,node/10905160356,9.0330017
,38.7323851,Autobus Tera,0,node/10905160357,9.033026
,38.7329553,Sebategna,0,node/10905160358,9.0282768
,38.7331326,Sebategna,0,node/10905160359,9.0283274
,38.7333187,Abenet,0,node/10905160360,9.021201
,38.7335682,Abenet,0,node/10905160361,9.0196344
,38.7346366,Darmar,0,node/10905160362,9.0158211
,38.7347971,Darmar,0,node/10905160363,9.0154497
,38.7343382,Lideta Condominium,0,node/10905160364,9.0133778
,38.7345056,Lideta Condominium,0,node/10905160365,9.0133623
,38.7337879,Dessie Hotel,0,node/10905160366,9.0094187
,38.7339331,Dessie Hotel,0,node/10905160367,9.0093029
,38.7337058,Lideta,0,node/10905160368,9.0046165
,38.7338158,Lideta,0,node/10905160369,9.0041332
,38.7393722,AU (Mikael) Rounrdabout,0,node/10905160370,9.0001611
,38.7400667,AU (Mikael) Rounrdabout,0,node/10905160371,8.9999889
,38.7518897,Kera,0,node/10905641592,8.9839514
,38.7123799,Jemmo 1,0,node/10905771998,8.9606229
,38.7216431,Jemmo Mickael,0,node/10905771999,8.9688439
,38.7468034,Metrology,0,node/10905772000,9.0192423
,38.7304143,karl Square,0,node/10905772001,8.9969985
,38.7227062,Bisrate Gebrael,0,node/10905772002,8.9883364
,38.7218663,Jemmo Mickael,0,node/10905772003,8.9687533
,38.7124299,Jemmo 1,0,node/10905772004,8.9604031
,38.6701812,Noc,0,node/10905866700,8.9493317
,38.6639521,Alem Gena,0,node/10905876026,8.9339514
,38.6640124,Alem Gena,0,node/10905876027,8.933851
,38.670031,Noc,0,node/10905876029,8.9493415
,38.6965362,Jemmo 3 Squer,0,node/10905876030,8.9538566
,38.697557,Jemmo 3 Squer,0,node/10905876031,8.9552123
,38.7520387,Post Office,0,node/10905982178,9.0220649
,38.732839,Germen Square,0,node/10905982179,8.9652918
,38.7325545,Germen Square,0,node/10905982180,8.9664306
,38.7418952,Gofa,0,node/10906020778,8.9717027
,38.7419996,Gofa,0,node/10906020779,8.9716231
,38.6979766,Ayer Tena,0,node/10906074341,8.9816221
,38.7320917,Germen Square,0,node/10906074342,8.9644965
,38.732112,Germen Square,0,node/10906074343,8.9646595
,38.6922765,Mesked,0,node/10907679395,8.9883638
,38.6893136,Kidane Mihret,0,node/10907679396,8.9913917
,38.683541,Tropical,0,node/10907679398,8.9958978
,38.677926,Alem Bank,0,node/10907679399,9.0003808
,38.6776565,Alem Bank,0,node/10907679400,9.0010321
,38.6841485,Tropical,0,node/10907679401,8.9957016
,38.689491,Kidane Mihret,0,node/10907679402,8.9915373
,38.6925125,Mesked,0,node/10907679403,8.9884696
,38.7060819,Chaina Camp,0,node/10907679404,8.9757717
,38.7121867,Zenebewerk,0,node/10907725405,8.9730472
,38.7275949,Mickael Bridge,0,node/10907725406,8.9655559
,38.7333383,Germen Square,0,node/10907781477,8.9648278
,38.7500865,Kera,0,node/10907781478,8.9844811
,38.750364,Kera,0,node/10907781479,8.9842955
,38.7490157,Gofa Gebriel,0,node/10907781480,8.9770976
,38.7491174,Gofa Gebriel,0,node/10907781481,8.9770919
,38.7343726,Mekanisa Abo,0,node/10908143594,8.9832814
,38.7341531,Mekanisa Abo,0,node/10908143595,8.9830621
,38.7440188,Mexico,0,node/10908143596,9.0088673
,38.7438,Mexico,0,node/10908143597,9.0088181
,38.7516402,Tewodros Square,0,node/10908191497,9.0263912
,38.7321651,Mekanisa,0,node/10908191498,8.9739466
,38.7322539,Mekanisa,0,node/10908191499,8.9738507
,38.7524753,Post Office,0,node/10908191500,9.0187971
,38.7334477,Mebrathile,0,node/10908661149,8.9493572
,38.729496,Coca Cola,0,node/10909186645,9.0159317
,38.735361,Merab Hotel,0,node/10909186646,9.0294352
,38.7334955,Abenet,0,node/10909186647,9.0213907
,38.7353749,Merab Hotel,0,node/10909186648,9.0293588
,38.7180312,Kolfe Keranyo,0,node/10909186649,9.016555
,38.7159578,Holand,0,node/10909186650,9.0203575
,38.7162551,Holand,0,node/10909186651,9.0204824
,38.7176312,Kolfe Keranyo,0,node/10909186652,9.017036
,38.7179346,Kolfe Keranyo,0,node/10909186653,9.0171583
,38.7202541,Torhayloch,0,node/10909186654,9.0122446
,38.7202419,Torhayloch,0,node/10909186655,9.0120497
,38.7097752,Keranio Mewcha,0,node/10909186657,9.0134653
,38.7097861,Keranio Mewcha,0,node/10909186658,9.0133225
,38.7049946,Mewcha,0,node/10909186659,9.0140592
,38.7050058,Mewcha,0,node/10909186660,9.0139288
,38.6994498,Mendida,0,node/10909186661,9.0153205
,38.6995858,Mendida,0,node/10909186662,9.0151509
,38.6937692,Betel,0,node/10909186663,9.0037697
,38.6937746,Betel,0,node/10909186664,9.0036921
,38.6775777,Alem Bank,0,node/10909186665,9.0017481
,38.677633,Alem Bank,0,node/10909186666,9.0016995
,38.7080844,Zenebewerk,0,node/10911198617,8.9868549
,38.7081829,Zenebewerk,0,node/10911198618,8.9867824
,38.6961361,Ayer Tena,0,node/10911198619,8.9838366
,38.7446969,Mexico Shebelle Hotel,0,node/10911242345,9.0114518
,38.7445773,Mexico Shebelle Hotel,0,node/10911242346,9.0114526
,38.7336365,Lideta,0,node/10911242347,9.0117415
,38.7336469,Lideta,0,node/10911242348,9.0115482
,38.6772002,Alem Bank,0,node/10911242349,9.001869
,38.6769434,Alem Bank,0,node/10911242350,9.0018954
,38.7007283,Ayer Tena,0,node/10911695404,8.9834957
,38.6943792,Betel,0,node/10911717876,9.0044227
,38.6942024,Betel,0,node/10911717877,9.0043939
,38.6982237,Ayer Tena,0,node/10911725505,8.9831049
,38.7080303,Zenebewerk,0,node/10912835918,8.9879977
,38.7079594,Zenebewerk,0,node/10912835920,8.9880219
,38.714679,Mebrat Haile,0,node/10913852032,9.0295143
,38.7149385,Mebrat Haile,0,node/10913852033,9.0294826
,38.7146172,18 Mazoria,0,node/10913852034,9.0334554
,38.714468,18 Mazoria,0,node/10913852035,9.0334598
,38.7327435,Abenet,0,node/10913863174,9.0196268
,38.7327231,Abenet,0,node/10913863175,9.0194053
,38.7296372,Coca Cola,0,node/10913863176,9.0159095
,38.7222401,Torhayloch,0,node/10913863177,9.0117875
,38.7208808,Torhayloch,0,node/10913863178,9.0096837
,38.7185634,Augusta Bridge,0,node/10913863179,9.0056583
,38.7188581,Augusta Bridge,0,node/10913863180,9.0055925
,38.7188599,Old Airport,0,node/10913863181,9.0000925
,38.7191188,Old Airport,0,node/10913863182,8.9998426
,38.7170227,3 Kutir Mazoriya (Total),0,node/10913863183,8.9932525
,38.7158494,3 Kutir Mazoriya (Total),0,node/10913863184,8.9926315
,38.6817486,Kara Kore,0,node/10913974717,8.9756363
,38.6814462,Kara Kore,0,node/10913974718,8.9754096
,38.6894126,Gerar,0,node/10913974719,8.9813701
,38.6894421,Gerar,0,node/10913974720,8.9813486
,38.6982009,Ayer Tena,0,node/10913974721,8.9829716
,38.746198,Mexico,0,node/10914160973,9.0116587
,38.7438026,Mexico,0,node/10914160974,9.0102476
,38.708928,Zenebewerk,0,node/10914160976,8.987734
,38.7049751,Zenebewerk,0,node/10914160977,8.9849086
,38.7053463,Zenebewerk Meneharia,0,node/10914680945,8.9853381
,38.7056363,Zenebewerk Meneharia,0,node/10914680946,8.9852574
,38.71237,Atena Tera,0,node/10914784456,9.0417169
,38.7127192,Atena Tera,0,node/10914784457,9.0414427
,38.7426711,Tekle Haimanot,0,node/10915613002,9.028352
,38.742622,Tekle Haimanot,0,node/10915613003,9.0281855
,38.6937551,Asko,0,node/10915905485,9.0658063
,38.6937141,Asko,0,node/10915905486,9.065919
,38.7010467,Chereta,0,node/10915905487,9.0612502
,38.7011727,Chereta,0,node/10915905488,9.0612523
,38.7069671,Gulele Fana,0,node/10915905489,9.0575666
,38.7070447,Gulele Fana,0,node/10915905490,9.0576638
,38.7114229,Awolia,0,node/10915905491,9.0572628
,38.7116493,Awolia,0,node/10915905492,9.0576104
,38.7124522,Winget,0,node/10915905493,9.0555179
,38.7127252,Winget,0,node/10915905494,9.0554488
,38.6993091,Kokebe,0,node/10918141989,9.018116
,38.6991634,Kokebe,0,node/10918141990,9.0178995
,38.6969603,Yeshi Debele,0,node/10918141991,9.0188526
,38.6972043,Yeshi Debele,0,node/10918141992,9.0185806
,38.7017975,Keranio Adebabay,0,node/10918141993,9.0177704
,38.7006617,Keranio Adebabay,0,node/10918141994,9.0176839
,38.7049143,Medhanalem,0,node/10918141995,9.0178222
,38.7047128,Medhanalem,0,node/10918141996,9.0175512
,38.7208703,Torhayloch,0,node/10918245686,9.0115804
,38.720685,Torhayloch,0,node/10918245687,9.0099639
,38.7225031,Torhayloch,0,node/10918314820,9.0114229
,38.7206095,Torhayloch,0,node/10918339958,9.0128836
,38.7544283,Legehar,0,node/10922141942,9.0118511
,38.7174162,Zebera,0,node/10923884107,9.0691686
,38.7350114,Addisu Gebeya,0,node/10923884109,9.0630022
,38.7352489,Addisu Gebeya,0,node/10923884110,9.0625854
,38.725597,Bera Tera,0,node/10923884111,9.0670589
,38.7174444,Zebera,0,node/10923884112,9.0689759
,38.7374564,Addisu Gebeya,0,node/10923941250,9.0594889
,38.7379019,Addisu Gebeya,0,node/10923941251,9.059208
,38.7431266,Semen Mazegaga,0,node/10923941252,9.0528165
,38.7432318,Semen Mazegaga,0,node/10923941253,9.0528691
,38.7461562,Shola,0,node/10923941254,9.0483987
,38.7462522,Shola,0,node/10923941255,9.0484505
,38.7483104,Semen Hotel,0,node/10923941256,9.0446634
,38.7485012,Semen Hotel,0,node/10923941257,9.0446029
,38.745274,Yohanes,0,node/10923941258,9.0425995
,38.7453414,Yohanes,0,node/10923941259,9.0425158
,38.7394065,Eritrea Hotel,0,node/10923941260,9.0346843
,38.7393526,Eritrea Hotel,0,node/10923941261,9.0347991
,38.7517928,Medhanalem,0,node/10924087993,9.0552727
,38.7518851,Medhanalem,0,node/10924087994,9.0552441
,38.7497489,Chelote,0,node/10924087995,9.0520868
,38.7496604,Chelote,0,node/10924087996,9.0521299
,38.746423,Shola,0,node/10924087997,9.0479898
,38.7465175,Shola,0,node/10924087998,9.0480732
,38.7516855,St. George Church,0,node/10924088002,9.0385287
,38.7518109,St. George Church,0,node/10924088003,9.0385651
,38.7521881,Piassa,0,node/10924088004,9.0365922
,38.7533491,Piassa,0,node/10924116805,9.0341764
,38.7492165,Kechenie,0,node/10924116806,9.0650022
,38.7497807,Kechenie,0,node/10924116808,9.0652677
,38.7268465,Shegole,0,node/10924211089,9.0639755
,38.7269586,Shegole,0,node/10924211090,9.0640548
,38.7274953,Rufael,0,node/10924211093,9.0590346
,38.7274376,Rufael,0,node/10924211094,9.0590438
,38.7329754,Tureta Deldy,0,node/10924211095,9.0544658
,38.7330307,Tureta Deldy,0,node/10924211096,9.054531
,38.7377403,Enqulal Fabrica,0,node/10924211097,9.0492619
,38.7378298,Enqulal Fabrica,0,node/10924211098,9.0492678
,38.7440337,Ras Desta,0,node/10924212637,9.0444679
,38.7439161,Ras Desta,0,node/10924212638,9.0444022
,38.7483682,Sebara Babur,0,node/10924212640,9.0375917
,38.749271,Abune Petros,0,node/10924212641,9.0358617
,38.7494119,Abune Petros,0,node/10924212642,9.0359205
,38.7458165,Yohanes,0,node/10924212643,9.04258
,38.7459326,Yohanes,0,node/10924212644,9.0426863
,38.79823,Shola Abyssinia Bank,0,node/10924342466,9.0230837
,38.7854804,British Embassy,0,node/10924342467,9.0307347
,38.7730468,Menelik II Hospital,0,node/10924342468,9.0385889
,38.7728666,Menlik Hospital,0,node/10924342469,9.0385052
,38.761858,6 Kilo,0,node/10924342470,9.0437871
,38.7613161,6 Kilo,0,node/10924342471,9.0453786
,38.7527884,Piassa,0,node/10924981547,9.0352542
,38.7714084,Kazanchis,0,node/10924981836,9.0168504
,38.7712817,Kazanchis,0,node/10924981837,9.0167816
,38.767286,Meneharya,0,node/10924981839,9.0199981
,38.7614317,6 Kilo,0,node/10924981840,9.0462061
,38.7615616,6 Kilo,0,node/10924981841,9.046202
,38.7613028,6 Kilo (Lion Zoo),0,node/10925096455,9.0430636
,38.7621679,Medhanalem,0,node/10925096457,9.0509212
,38.7616364,Shiromeda,0,node/10925096458,9.0609308
,38.7618074,Shiromeda,0,node/10925096459,9.0610296
,38.7493321,Abune Petros,0,node/10925161777,9.0350989
,38.7492809,Abune Petros,0,node/10925161778,9.0353615
,38.7526253,St. George Total,0,node/10925161780,9.0385895
,38.7411822,Raguel Church,0,node/10925161781,9.0338335
,38.7413278,Raguel Church,0,node/10925161782,9.0340374
,38.7491307,Piassa,0,node/10925161783,9.0352768
,38.749266,Piassa,0,node/10925161784,9.0350881
,38.7462619,Mexico,0,node/10925195639,9.0115722
,38.7130281,Winget,0,node/10925695034,9.0572967
,38.7136024,Winget,0,node/10925695035,9.0576478
,38.7201372,Shegole,0,node/10925835130,9.0630668
,38.7201639,Shegole,0,node/10925835131,9.0630578
,38.7226821,Medhanalem,0,node/10925835153,9.051016
,38.7228048,Medhanalem,0,node/10925835154,9.0512021
,38.7275912,Pawlos Hospital,0,node/10925835155,9.047368
,38.7277025,Pawlos Hospital,0,node/10925835156,9.0474739
,38.7306013,Pastor,0,node/10925835157,9.0462435
,38.7305979,Pastor,0,node/10925835158,9.0460773
,38.7324674,Michael,0,node/10925835159,9.041653
,38.732621,Michael,0,node/10925835160,9.0418749
,38.731876,Autobus Tera,0,node/10925835161,9.0356953
,38.731937,Autobus Tera,0,node/10925835162,9.0357033
,38.8548285,Summit Condominiums,0,node/10925946103,8.9844426
,38.8525995,Summit Condominiums,0,node/10925946104,8.9909634
,38.8598883,Meshageria,0,node/10925966505,9.0206981
,38.8751635,Derartu Adebabay,0,node/10925966506,9.0212039
,38.8751433,Derartu Adebabay,0,node/10925966507,9.0215357
,38.8773377,Gebreal,0,node/10925966508,9.0403679
,38.8778174,Gebreal,0,node/10925966509,9.0402783
,38.8778648,Aba Kiros,0,node/10925966510,9.0556843
,38.8785325,Aba Kiros,0,node/10925966511,9.0561259
,38.8903446,Bole Arabsa,0,node/10926028111,8.9732139
,38.8904415,Bole Arabsa,0,node/10926028112,8.9726305
,38.8850892,Maseltegna,0,node/10926028113,8.9932453
,38.8854551,Maseltegna,0,node/10926028114,8.9932023
,38.8780839,Sun shine,0,node/10926028115,9.0100814
,38.8779385,Sun shine,0,node/10926028116,9.0100956
,38.8770142,Ayat,0,node/10926028117,9.0215285
,38.8848989,Mariam,0,node/10926040103,8.9875932
,38.8852531,Mariam,0,node/10926040104,8.9875847
,38.8767405,Ayat,0,node/10926074605,9.0212341
,38.8529201,Summit Condominiums,0,node/10926094674,8.9910294
,38.8033659,Megenagna,0,node/10926094675,9.0195894
,38.8038784,Megenagna,0,node/10926817920,9.0203394
,38.8779123,Tafo Square,0,node/10926817921,9.057063
,38.8780073,Tafo Square,0,node/10926817922,9.0566681
,38.8763861,Sun shine,0,node/10926849848,9.0021737
,38.8537813,Summit Chafe,0,node/10926849849,9.0011674
,38.8537842,Summit Chafe,0,node/10926849850,9.0015569
,38.8299549,Goro,0,node/10926849851,8.9918731
,38.8303813,Goro,0,node/10926849852,8.9917194
,38.8256621,Se'alite Mihret,0,node/10926896755,9.0194791
,38.8254269,Se'alite Mihret,0,node/10926896756,9.0198404
,38.8944977,Ayat Chefe Condominium,0,node/10926896757,9.0109362
,38.8946434,Ayat Chefe Condominium,0,node/10926896758,9.0113892
,38.8758009,Ayat,0,node/10928177661,9.0207778
,38.854445,Summit Condominiums,0,node/10928876312,8.9846036
,38.8548242,Summit Condominiums,0,node/10928876313,8.9844416
,38.751565,Tewodros Square,0,node/10929299420,9.0273248
,38.7517149,Tewodros Square,0,node/10929299421,9.0273553
,38.7480915,Tikur Anbesa,0,node/10929299422,9.0209798
,38.7449001,Mexico,0,node/10929337801,9.0105347
,38.7559408,Stadium,0,node/10929337802,9.0119557
,38.7559437,Stadium,0,node/10929337803,9.0121328
,38.8009614,Megenagna,0,node/10929412718,9.0195364
,38.8005907,Megenagna,0,node/10929412719,9.0190569
,38.787267,22 Mazoria,0,node/10929412721,9.0155693
,38.7940688,Lem Hotel,0,node/10929694820,9.0211986
,38.7939939,Lem Hotel,0,node/10929694821,9.0210828
,38.7815067,Signal,0,node/10929694822,9.0235014
,38.781471,Signal,0,node/10929694823,9.0233755
,38.7718347,Abuare Gebeya,0,node/10929694824,9.0280712
,38.7718123,Abuare Gebeya,0,node/10929694825,9.0279894
,38.7520638,Tewodros Square,0,node/10929694826,9.0270034
,38.7520149,Tewodros Square,0,node/10929694827,9.0268625
,38.744541,Tekle Haimanot,0,node/10929694828,9.0285216
,38.74454,Tekle Haimanot,0,node/10929694829,9.0284531
,38.8009431,Megenagna,0,node/10929694830,9.020064
,38.8005994,Megenagna,0,node/10929694831,9.0200336
,38.7209032,Torhayloch,0,node/10929752934,9.0127448
,38.7998465,Megenagna,0,node/10931788261,9.0225048
,38.8010821,Megenagna,0,node/10931788262,9.021325
,38.8385778,Kotebe,0,node/10931809323,9.0303308
,38.8331547,Se'alite Mihret,0,node/10931809324,9.0284671
,38.833187,Se'alite Mihret,0,node/10931809325,9.0283689
,38.8139293,Lamberet,0,node/10931809326,9.0216042
,38.813953,Lamberet,0,node/10931809327,9.0214909
,38.8642169,Kara,0,node/10931809328,9.0404534
,38.864319,Kara,0,node/10931809329,9.0404001
,38.8015712,Megenagna,0,node/10931809330,9.0216983
,38.799743,Megenagna,0,node/10931850027,9.0224128
,38.7799581,Kokebe Tsebah (Kebena),0,node/10931850028,9.0344299
,38.7628341,4 Kilo,0,node/10931884718,9.036142
,38.7769686,Ferensay,0,node/10931884719,9.0571169
,38.7769596,Ferensay,0,node/10931884720,9.0570142
,38.7722195,Mezan,0,node/10931884721,9.0535366
,38.7721316,Mezan,0,node/10931884722,9.0535794
,38.7690665,Jan Meda,0,node/10931884723,9.0470261
,38.7690208,Jan Meda,0,node/10931884724,9.0471196
,38.8021444,Megenagna,0,node/10931937848,9.0180915
,38.766754,Kadisco,0,node/10931937849,8.9633989
,38.776629,Kebena,0,node/10931995346,9.0347501
,38.7618099,6 Kilo,0,node/10932040828,9.0435664
,38.7526555,St. George Total,0,node/10932040829,9.0386325
,38.7527659,St. George Total,0,node/10932040830,9.038614
,38.7950974,Lem Hotel,0,node/10932115661,9.017586
,38.8198719,Lamberet,0,node/10932115662,9.0239221
,38.7471612,Mexico,0,node/10932115666,9.0107374
,38.7467607,Mexico,0,node/10932115667,9.0104411
,38.796095,Shola Gebeya,0,node/10933668851,9.0249902
,38.7963986,Shola Gebeya,0,node/10933668852,9.0253078
,38.8021516,Beg Tera,0,node/10933668868,9.0290044
,38.802143,Beg Tera,0,node/10933668869,9.0289126
,38.8093843,Zebera,0,node/10933668870,9.0315916
,38.8094344,Zebera,0,node/10933668871,9.0314928
,38.818742,Kidane Mihret,0,node/10933668873,9.0355162
,38.8186176,Kidane Mihret,0,node/10933668874,9.0355971
,38.7750759,St. Urael Church,0,node/10933970678,9.0113969
,38.7752362,St. Urael Church,0,node/10933970679,9.0110384
,38.7797684,Atlas,0,node/10934121405,9.004269
,38.779678,Atlas,0,node/10934121406,9.0041884
,38.7748368,St. Urael Church,0,node/10934121407,9.0103387
,38.7749361,St. Urael Church,0,node/10934121408,9.0104642
,38.7518505,Kera,0,node/10934142102,8.9843274
,38.7515846,Kera,0,node/10934142103,8.9840695
,38.7632997,4 Kilo,0,node/10934274056,9.0324426
,38.762845,St. Estifanos,0,node/10934274058,9.012454
,38.7482685,Buna Ena Shay,0,node/10934274059,9.0109591
,38.748215,Buna Ena Shay,0,node/10934274060,9.0106827
,38.7645933,4 Kilo,0,node/10936313832,9.032283
,38.7648081,4 Kilo,0,node/10936313833,9.0323383
,38.7321818,Sebategna,0,node/10936490562,9.0289759
,38.7322093,Sebategna,0,node/10936490563,9.028913
,38.7211312,Amanuel Total,0,node/10936490564,9.0258457
,38.721144,Amanuel Total,0,node/10936490565,9.0258301
,38.7131944,Winget,0,node/10936621813,9.0576027
,38.7375414,Enqulal Fabrica,0,node/10936724096,9.0486146
,38.7377157,Enqulal Fabrica,0,node/10936724097,9.0485559
,38.731079,karl Square,0,node/10937101933,8.9975486
,38.7610795,6 Kilo,0,node/10937167108,9.0442105
,38.7614376,6 Kilo,0,node/10937167109,9.0442026
,38.7484685,Kera,0,node/10937209934,8.9877236
,38.7497785,Kechenie,0,node/10937271651,9.0652788
,38.7252968,Mesalemia,0,node/10961301939,9.033877
,38.7255313,Mesalemia,0,node/10961301940,9.0339779
,38.7312096,Merkato,0,node/10961301941,9.0338527
,38.7312282,Merkato,0,node/10961301942,9.0337645
,38.7433286,Tekle Haimanot,0,node/10961408041,9.028926
,38.7757907,Abuare Roundabout,0,node/10961408042,9.0264526
,38.7759091,Abuare Roundabout,0,node/10961408043,9.0265186
,38.7007101,Keranio Adebabay,0,node/10961408397,9.0178983
,38.7004401,Mendida,0,node/10961408398,9.014972
,38.7004576,Mendida,0,node/10961408399,9.0151204
,38.7860616,Bole Medhanyalem,0,node/10963292174,8.9983425
,38.7862416,Bole Medhanyalem,0,node/10963292175,8.9984526
,38.688451,Weybla Mariam,0,node/10963817572,9.0231558
,38.6882249,Weybla Mariam,0,node/10963817573,9.0233344
,38.7889432,22 Mazoria,0,node/10963932669,9.0159879
,38.7226406,Bisrate Gebrael,0,node/10964879159,8.9884101
,38.7086432,Luwkanda,0,node/10970584167,9.0333084
,38.7086485,Luwkanda,0,node/10970584168,9.0332835
,38.7126753,18 Mazoria,0,node/10970584169,9.0335266
,38.7126794,18 Mazoria,0,node/10970584170,9.0335023
,38.7164132,Abysinia Coffee,0,node/10970584171,9.0372905
,38.7164416,Abysinia Coffee,0,node/10970584172,9.037294
,38.7149465,18 Mazoria,0,node/10970748190,9.0337305
,38.7087797,4 Menta Adebabay,0,node/10970748192,9.0515413
,38.7088057,4 Menta Adebabay,0,node/10970748193,9.0514981
,38.7058937,Tero Mosque,0,node/10970748194,9.0503697
,38.7058901,Tero Mosque,0,node/10970748195,9.0503743
,38.7327781,Sebategna,0,node/10970823802,9.0294218
,38.732906,Sebategna,0,node/10970823803,9.0294686
,38.7492677,Piassa Arada,0,node/10970829160,9.0350955
,38.7535518,Piassa Arada,0,node/10970912911,9.033556
,38.6992026,Rufael,0,node/10970912912,9.0542225
,38.6992201,Rufael,0,node/10970912913,9.0542148
,38.6737826,Selefia Mosque,0,node/10973319411,8.9922493
,38.6737682,Selefia Mosque,0,node/10973319412,8.9922388
,38.7498429,Piassa Arada,0,node/10973319413,9.0343357
,38.749831,Piassa Arada,0,node/10973319414,9.0343492
,38.7606274,Shiromeda,0,node/10973319416,9.0610285
,38.760666,Shiromeda,0,node/10973319417,9.0610076
,38.7886493,Akaki Gebeya,0,node/10973446898,8.8697296
,38.7886284,Akaki Gebeya,0,node/10973446899,8.8697306
,38.7864676,Meshualekya,0,node/10973446900,8.8769296
,38.734517,Mebrathayil,0,node/10973631794,8.9482942
,38.7344951,Mebrathayil,0,node/10973631795,8.9481457
,38.7443373,Lafto,0,node/10973631797,8.9473757
,38.798935,Yeshi Total,0,node/10973672014,8.8667554
,38.8028464,Megenagna,0,node/10973929780,9.0206661
,38.8234705,Biretabret,0,node/10973929781,9.0339313
,38.8316053,Hanna Mariam,0,node/10973929783,9.0375694
,38.8316071,Hanna Mariam,0,node/10973929784,9.037593
,38.8388573,Kotebe Teachers College,0,node/10973929786,9.0374618
,38.8505525,Kotebe Gebriel,0,node/10973929787,9.0390977
,38.8505551,Kotebe Gebriel,0,node/10973929788,9.039072
,38.8279461,Kotebe,0,node/10973960231,9.0357328
,38.8279666,Kotebe,0,node/10973960232,9.035744
,38.7769466,Kebena,0,node/10973960233,9.0343234
,38.8735567,Yeka Abado,0,node/10974036529,9.0637787
,38.8734371,Yeka Abado,0,node/10974036530,9.0638007
,38.8092174,Taxi Tera,0,node/10989247669,8.9948109
,38.7945353,Bole Bridge,0,node/10989247670,8.9888698
,38.8517594,Summit,0,node/10989247671,9.0048732
,38.8520615,Summit,0,node/10989247672,9.0050343
,38.838022,Medhanalem,0,node/10989247673,9.0005807
,38.8382224,Medhanalem,0,node/10989247674,9.0002413
,38.7737291,Bole Mickael,0,node/10989306740,8.9791887
,38.7732491,Bole Mickael,0,node/10989306742,8.979439
,38.798111,Riventy,0,node/10989306744,8.9647488
,38.7981165,Riventy,0,node/10989306745,8.9647649
,38.6991226,Lomi Meda,0,node/10989322788,9.0437261
,38.7046602,Philiphs,0,node/10989322789,9.0423415
,38.7046599,Philiphs,0,node/10989322790,9.0423523
,38.7116329,Atena Tera,0,node/10989322793,9.0417345
,38.7116327,Atena Tera,0,node/10989322794,9.0417198
,38.7128543,Atena Tera,0,node/10989352901,9.0418861
,38.7136815,Atena Tera,0,node/10989352903,9.0419946
,38.7169566,Kolfe,0,node/10989352904,9.037404
,38.7170428,Kolfe,0,node/10989388405,9.0373552
,38.7213864,Chid Tera,0,node/10989388406,9.0376969
,38.7215618,Chid Tera,0,node/10989388407,9.0375624
,38.760933,Tourist Hotel,0,node/10989495135,9.0339795
,38.7627083,Tourist Hotel,0,node/10989495136,9.0331899
,38.7522109,St. George Church,0,node/10989495137,9.0365466
,38.7524292,St. George Church,0,node/10989495138,9.0365649
,38.723026,Amanuel Church,0,node/10989606497,9.0280891
,38.7230514,Amanuel Church,0,node/10989606498,9.0280827
,38.7246409,Mesalemia,0,node/10989606501,9.0330957
,38.7246228,Mesalemia,0,node/10989606502,9.0330994
,38.729182,Coca Cola,0,node/10989606503,9.0170151
,38.7293902,Coca Cola,0,node/10989606504,9.0169029
,38.7477611,Tikur Anbesa,0,node/10989700748,9.0216869
,38.7476433,Tikur Anbesa,0,node/10989700750,9.0214822
,38.8028176,Megenagna,0,node/10989765272,9.0198621
,38.7619614,Tourist Hotel,0,node/10991706244,9.0331305
,38.7538719,Ambasader,0,node/10991706246,9.018399
,38.7539744,Ambasader,0,node/10991706247,9.0182782
,38.7588533,Manen,0,node/10991763449,9.0515112
,38.7588598,Manen,0,node/10991763450,9.0515112
,38.776766,Selam Building,0,node/10992050085,8.883961
,38.7693473,Saris Abo,0,node/10992073740,8.944348
,38.7772664,Selam Building,0,node/10992247910,8.883111
,38.768463,Gelan Condominium,0,node/10992247911,8.8801893
,38.7684764,Gelan Condominium,0,node/10992247913,8.8801651
,38.7887302,Breta bret,0,node/10994789635,8.8738823
,38.7888076,Akaki CBE,0,node/10994942333,8.867782
,38.7887141,Akaki CBE,0,node/10994942334,8.8679415
,38.7462885,Mexico,0,node/10995013009,9.0098456
,38.7443751,Lafto,0,node/10995013010,8.9470636
,38.7504178,Lafto (Mickael),0,node/10995013013,8.9537702
,38.7070388,Woyira Sefer,0,node/10995113524,9.0051854
,38.7068721,Woyira Sefer,0,node/10995113525,9.0050595
,38.7170312,Total 3 Kutir mazoria,0,node/10996939227,8.9932233
,38.7486669,Mebrat,0,node/10997112356,8.9671943
,38.7487468,Mebrat,0,node/10997112357,8.9671522
,38.7515775,Biharetsege,0,node/10997112358,8.9621911
,38.7515885,Biharetsege,0,node/10997112359,8.9622089
,38.7631284,Adey Abeba,0,node/10997112361,8.9576758
,38.7631332,Adey Abeba,0,node/10997112362,8.9576954
,38.7488713,Gofa Gebriel,0,node/10997112364,8.9758799
,38.7489751,Gofa Gebriel,0,node/10997112365,8.9758721
,38.7332825,Abenet,0,node/10997125769,9.0196301
,38.6708623,Weleta,0,node/10997242295,8.963665
,38.6708779,Weleta,0,node/10997242296,8.9636677
,38.6731812,Weleta Tele,0,node/10997242298,8.9666342
,38.6774372,Repi Highschool,0,node/10997242299,8.9764681
,38.6774017,Repi Highschool,0,node/10997242300,8.9765185
,38.8741609,Sara Ampol,0,node/10997243557,9.0576594
,38.874351,Sara Ampol,0,node/10997243558,9.0575648
,38.8693718,Kara Condominium,0,node/10997243559,9.0480764
,38.8695015,Kara Condominium,0,node/10997243560,9.0480356
,38.7207531,Torhayloch,0,node/10997360870,9.0107982
,38.7447026,Mexico,0,node/10997382833,9.0114511
,38.7445835,Mexico,0,node/10997382834,9.0114533
,38.7440492,Mexico,0,node/10997495133,9.01285
,38.74405,Mexico,0,node/10997495134,9.01282
,38.7345884,Darmar,0,node/10997495135,9.0163639
,38.7545702,Piassa Arada,0,node/10998041498,9.0329801
,38.7537202,Piassa Arada,0,node/10998041499,9.0334582
,38.7949306,Shola,0,node/10998041503,9.025295
,38.7947575,Shola,0,node/10998041504,9.0251357
,38.7722516,Kality Meneharia,0,node/11033818190,8.8954024
,38.7642175,Kality Maseltegna,0,node/11033818192,8.9361073
,38.7406449,AU (Mikael) Rounrdabout,0,node/11033818193,8.9994656
,38.7438741,Mexico,0,node/11033818195,9.0089885
,38.7440373,Mexico,0,node/11033818196,9.0089241
,38.7474194,Bulgaria Mazoria,0,node/11033818197,8.9945922
,38.7373077,Autobis Tera,0,node/11033818199,9.0316048
,38.7377146,Autobis Tera,0,node/11033818200,9.0299591
,38.7483364,Kera,0,node/11033903482,8.9864921
,38.7661144,Saris Abo,0,node/11034015157,8.9450004
,38.7522899,Piassa Arada,0,node/11034015158,9.0331054
,38.7511155,Piassa Arada,0,node/11034015159,9.0321742
,38.7370369,Autobis Tera,0,node/11034031010,9.03055
,38.7612633,Shero Meda,0,node/11034031011,9.0626384
,38.7598757,Tsehay Chora (ShiroMeda),0,node/11034031012,9.0583756
,38.7493262,Abune Petros,0,node/11034031013,9.0351037
,38.7572407,Kuskoam,0,node/11034054993,9.0777204
,38.7654122,Arat Kilo,0,node/11034209866,9.0321373
,38.6806691,Kara Kore,0,node/11034280233,8.9753965
,38.6960927,Ayer Tena,0,node/11034280234,8.9825611
,38.6805349,Kara Kore,0,node/11034280236,8.9753861
,38.7614325,Lion Zoo (PEPSI Kiosk),0,node/11034427397,9.0426561
,38.777181,Abo Mazoriya,0,node/11034427398,9.0571131
,38.7835816,Yeha,0,node/11034427399,9.0608545
,38.7880233,Gurara,0,node/11034427400,9.0622785
,38.7888027,Gurara,0,node/11034427401,9.0624066
,38.7634093,Saris,0,node/11034511605,8.9535755
,38.7636248,Saris,0,node/11034511606,8.9535945
,38.7371486,Autobis Tera,0,node/11034611751,9.0296904
,38.8004821,Megenagna,0,node/11034647605,9.0221498
,38.7220211,Torhailoch,0,node/11035234709,9.0115667
,38.7214866,Chid Tera,0,node/11035240260,9.0376857
,38.6971291,Ayer Tena,0,node/11035502832,8.9837379
,38.7015659,Ayer Tena,0,node/11035502833,8.9836981
,38.7255627,Bisrate Gebrael,0,node/11035532608,8.9914198
,38.7682089,Zenebewerk Hotel,0,node/11035607129,9.0191017
,38.7636411,Estifanos,0,node/11035607130,9.0107497
,38.7386025,Lideta Condominium,0,node/11035607131,9.0109263
,38.7080773,Zenebework,0,node/11035662205,8.9882771
,38.7377271,Darmar,0,node/11035734852,9.0165403
,38.7418753,Hana Maryam,0,node/11035734855,8.9270084
,38.700756,Bercheko Condominium,0,node/11035818337,9.058672
,38.6529741,Alem Gena,0,node/11035914858,8.9231915
,38.6701962,Noc,0,node/11035914859,8.9494175
,38.6699835,Noc,0,node/11035914860,8.9490541
,38.6732105,Welete Tele,0,node/11035914861,8.9665643
,38.6708945,Welete,0,node/11035914862,8.9635929
,38.6707668,Weleta,0,node/11035914863,8.9641803
,38.6731872,Weleta Tele,0,node/11035914864,8.9666144
