stop_name,stop_id,stop_lat,location_type,parent_station,stop_lon
C.M.C,way/604046026,9.0210561502,0,,38.8505081
C.M.C,way/604046027,9.0209504501,0,,38.8504555
Meri,way/604046028,9.0206309001,0,,38.86039005
Meri,way/604046029,9.0205342501,0,,38.86039745
Ayat,way/604046052,9.0212283001,0,,38.8717948
Ayat,way/604046053,9.0211369001,0,,38.87179745
St. Michael,way/758915882,9.0213594001,0,,38.8426211
St. Michael,way/758915883,9.0214511001,0,,38.8426345
Management Institute,way/758919087,9.0208269001,0,,38.8284090499
Management Institute,way/758919088,9.0209051001,0,,38.8283603999
Civil Service College,way/758919089,9.0216842501,0,,38.83479945
Civil Service College,way/758919090,9.0217686501,0,,38.83479775
Bambis,way/758922739,9.0104366001,0,,38.76879995
Bambis,way/758922740,9.0103406001,0,,38.76877485
St. Urael,way/758922741,9.01097965,0,,38.77470915
Hayahulet 2,way/758922742,9.0148301501,0,,38.7832560999
Hayahulet 2,way/758922743,9.0149096001,0,,38.7832141999
ሃያ ሁለት 1,way/758922744,9.0161997001,0,,38.7893457
ሃያ ሁለት 1,way/758922745,9.0162805001,0,,38.7893058
Lem Hotel,way/758922746,9.0178779001,0,,38.7959030499
Lem Hotel,way/758922747,9.0179702501,0,,38.7958714999
Megenagna,way/758922751,9.0196319001,0,,38.8026662
Gurd Sholla 2,way/758922752,9.0201812501,0,,38.81016615
Gurd Sholla 2,way/758922753,9.0202704501,0,,38.8101826
Gurd Sholla 1,way/758922754,9.0190550501,0,,38.8199118
Gurd Sholla 1,way/758922755,9.0191373501,0,,38.8199363
Tor Hailoch,way/758926923,9.0114466001,0,,38.7228792001
Tor Hailoch,way/758926924,9.0113509001,0,,38.7228400001
Cocacola,way/758926925,9.0120608501,0,,38.72927195
Cocacola,way/758926926,9.0119827001,0,,38.7292679
St. Lideta,way/758926927,9.0113260501,0,,38.7358812
St. Lideta,way/758926928,9.0114191001,0,,38.735902
Tegbared,way/758926929,9.0104883001,0,,38.74251165
Tegbared,way/758926930,9.0105720501,0,,38.74252605
Mexico,way/758926931,9.0110042001,0,,38.7486780499
Mexico,way/758926932,9.0111035001,0,,38.7486304499
Leghar,way/758926933,9.0118976001,0,,38.75364485
Leghar,way/758926934,9.0118055501,0,,38.7536616
Stadium,way/758926935,9.0119426001,0,,38.75765945
Stadium,way/758926936,9.0120396501,0,,38.75768125
St. Estifanos,way/758926937,9.0109756501,0,,38.7633918
St. Estifanos,way/758926938,9.0110528501,0,,38.7634133
Gojam Berenda,way/759354435,9.0341520001,0,,38.7383589
Gojam Berenda,way/759354436,9.0342421001,0,,38.73838775
Atikilt Tera,way/759354437,9.0345698501,0,,38.7469346
Atikilt Tera,way/759354438,9.0346634001,0,,38.7469217
Kality,way/759359409,8.938011,0,,38.7631070001
Kality,way/759359410,8.93795435,0,,38.7630034001
Abo Junction,way/759359411,8.94501825,0,,38.7663008501
Abo Junction,way/759359412,8.9449765,0,,38.7662190501
Saris,way/759359413,8.9519971333,0,,38.7634466333
Saris,way/759359414,8.9519912333,0,,38.7633591333
Adey Abeba,way/759359415,8.9567954,0,,38.76388145
Adey Abeba,way/759359416,8.9568021,0,,38.76379965
Lancha,way/759359417,8.9903485,0,,38.75926535
Lancha,way/759359418,8.9903366,0,,38.75916345
Temenja Yazh,way/759359419,8.9952452,0,,38.7598284334
Temenja Yazh,way/759359420,8.9952399,0,,38.7597271667
Riche,way/759359421,9.0005732,0,,38.7587088
Riche,way/759359422,9.00058575,0,,38.7586096
Meshwalekya,way/759359423,9.00485825,0,,38.7588805
Meshwalekya,way/759359424,9.00486215,0,,38.7587524
Darmar,way/759359425,9.0154149,0,,38.73475
Darmar,way/759359426,9.01542485,0,,38.73466315
Abnet,way/759359427,9.0212786,0,,38.73335125
Abnet,way/759359428,9.0212687,0,,38.73341865
Sebategna,way/759359429,9.0283819,0,,38.73298775
Sebategna,way/759359430,9.0284011,0,,38.7330763
Autobus Tera,way/759359431,9.0340910501,0,,38.7329878
Autobus Tera,way/759359432,9.0340079501,0,,38.7329908
Nifas Silk 2,way/759365358,8.9731988,0,,38.7607979501
Nifas Silk 2,way/759365359,8.97316965,0,,38.7606849501
Nifas Silk 1,way/759365360,8.9657149,0,,38.7629963
Nifas Silk 1,way/759365361,8.96571355,0,,38.7628904
Beherawi Theatre,node/847244293,9.0165395,0,,38.7525538
Black Lion,node/847244423,9.0209237,0,,38.7521415
4 Kilo,node/4832025024,9.0344007,0,,38.7632408
Lamberet Terminal (Bus),node/4884374622,9.0223057,0,,38.8158571
Sar Bet (Roundabout),node/5248250425,8.9929728,0,,38.738182
Ambassador,node/5330678521,9.0164409,0,,38.7553162
Stadium,node/5736089088,9.0120276,0,,38.7570321
Mebrathail,node/6251054285,9.0295451,0,,38.7146778
Asko,node/6307600909,9.0654733,0,,38.6928185
Bole Printing Press,node/6373574986,8.9976331,0,,38.7718334
Arada,node/6728583386,9.0331479,0,,38.7516761
Kebede Wessene Rd.,node/6798927886,8.9986049,0,,38.8053365
Mexico,node/6814022390,9.0094665,0,,38.7444332
Mebrat Condominium,node/6967142984,8.9644773,0,,38.7438796
Mebrat,node/6967165728,8.9673396,0,,38.7486643
Gofa Gebriel,node/6967179322,8.9771232,0,,38.7491221
Kera (Gofa Road),node/6967179323,8.9825519,0,,38.7498599
Tewodros Square,node/6967225474,9.0277111,0,,38.7516602
German Square,node/6967234177,8.9655968,0,,38.732897
Friendship Building,node/6967281153,8.9899905,0,,38.7859995
Piassa (Downtown Cafe),node/6967281241,9.0319356,0,,38.7512565
Piassa Arada (2),node/6967281242,9.0330123,0,,38.7526242
Gojo,node/6967318740,9.0418236,0,,38.6217166
Megenagna Terminal,node/7022361366,9.0203188,0,,38.8026673
Bole Millenium,node/7022397409,8.9885373,0,,38.7897496
Bole Millenium,node/7022397410,8.9887535,0,,38.789886
Goro School,node/7022397411,8.9937973,0,,38.8267584
Summit Condominiums,node/7022397413,8.9842709,0,,38.8569749
Summit Condominiums,node/7022397414,8.9842404,0,,38.8570885
Bole Arabsa,node/7022397416,8.9720161,0,,38.8906061
Bole Arabsa,node/7022397417,8.9732168,0,,38.8903477
Aba Kiros Roundabout,node/7022397418,9.0561234,0,,38.8785328
Yeka Abado,node/7022397420,9.0689298,0,,38.875565
Yeka Abado,node/7022397421,9.0688377,0,,38.8756232
Gurara,node/7037142410,9.0626023,0,,38.7893816
Abuare Roundabout,node/7037142414,9.026427,0,,38.7757967
Abuare Roundabout,node/7037142415,9.026504,0,,38.7759255
Marathon Motor (Megenagna),node/7037142417,9.0224201,0,,38.8000289
Yeha,node/7037142419,9.060739,0,,38.7836264
Tena Tabya,node/7037142420,9.0608445,0,,38.7839285
Biret Dildiy (Bono Wuha),node/7037142421,9.0598571,0,,38.7811505
Bret Dildy (Bono Wuha),node/7037142422,9.0599927,0,,38.7810894
Atlas,node/7037142423,9.0042786,0,,38.7797667
Bole Medhanialem,node/7037142424,8.9983386,0,,38.7860596
Bole Medhanialem,node/7037142426,8.9984556,0,,38.7862428
24,node/7037142427,9.0098865,0,,38.800549
Dinberwa Hospital,node/7037142428,9.0221273,0,,38.7866932
Kokebe Tsebah School,node/7037142430,9.0345238,0,,38.7802113
Kokebe Tsebah School,node/7037142431,9.034441,0,,38.7799476
Belgium Embassy,node/7037142433,9.031876,0,,38.7839469
British Embassy,node/7037142434,9.0311083,0,,38.784892
British Embassy,node/7037142435,9.0309087,0,,38.7855544
Abebe Sook,node/7037142436,9.0287538,0,,38.7887162
Shola Gebeya,node/7037142438,9.0250779,0,,38.7952986
Yeka Michael,node/7037142439,9.0244101,0,,38.7961373
Megenagna,node/7037142441,9.0180934,0,,38.8021491
Megenagna,node/7037142442,9.0182711,0,,38.8017521
Derartu,node/7037142443,8.8868864,0,,38.7818414
Gelan Condominium,node/7037142444,8.8856808,0,,38.7837651
08 Adarash,node/7037142445,8.8844052,0,,38.785491
Meshuwalekia Akaki,node/7037142446,8.8767985,0,,38.7865253
Akaki Beretaberet,node/7037142448,8.8738843,0,,38.7887478
G7 (Tulu Dimtu),node/7037142450,8.870907,0,,38.8207065
Tulu Dimtu Unisa,node/7037142454,8.8552763,0,,38.8042339
Tulu Dimtu,node/7037142455,8.8556159,0,,38.8041524
Akaki Korkoro,node/7037142456,8.8597556,0,,38.7961539
Tulu Dimtu (Taf Gas Station),node/7037142459,8.8688691,0,,38.8051915
Arsema,node/7037142460,8.8722685,0,,38.8136608
Selam Sefer (Tapela Gar),node/7037142461,8.8722281,0,,38.8140262
Tulu Dimtu Adebabay,node/7037142462,8.8747821,0,,38.8201689
Project 12 Akababi,node/7037142464,8.8658608,0,,38.8218482
Mahiber Betoch,node/7037142465,8.8592154,0,,38.8148895
Bole Dildiy,node/7037142466,8.9869933,0,,38.7912061
Megenagna / Zefmesh,node/7037142467,9.02034,0,,38.8000136
Megenagna,node/7037142469,9.0213214,0,,38.8010735
Megenagna,node/7037142470,9.0217137,0,,38.8015921
Abysinia Cafe Area,node/7037142471,9.0215363,0,,38.8100422
Abysinia Cafe Area,node/7037142472,9.0213396,0,,38.810853
Century Mall,node/7037142474,9.0196778,0,,38.8132781
Gurd-shola,node/7037142475,9.0187352,0,,38.8215105
Menaheria,node/7037142476,9.0239816,0,,38.8192066
Menaheria,node/7037142477,9.0238758,0,,38.8192354
Gerji Mebrat Haile,node/7037142479,9.003632,0,,38.814876
Gerji Mebrat Haile,node/7037142483,9.0037638,0,,38.8132574
Lamberet,node/7037142484,9.0253421,0,,38.8251916
Lamberet Area,node/7037183485,9.0258842,0,,38.8271787
Lamberet Area,node/7037183486,9.0260507,0,,38.8273076
Lamberet Area,node/7037183487,9.0259969,0,,38.8271189
Yerer Goro,node/7037183490,8.9913503,0,,38.8294063
Yerer Goro,node/7037183491,8.9913222,0,,38.8292171
Se'alite Mihret Church,node/7037183492,9.020263,0,,38.8265756
Management Institute,node/7037183493,9.0203852,0,,38.82686
Sealite Mihret,node/7037183494,9.0203048,0,,38.8273219
Civil Service College,node/7037183495,9.0216167,0,,38.8342032
St. Michael,node/7037183496,9.021312,0,,38.8414217
St. Micheal Church,node/7037183497,9.0215489,0,,38.8425033
Salite Mihret,node/7037183498,9.0283709,0,,38.8331954
Hillside (Ethio-China Mebrathaile),node/7037183499,9.0285264,0,,38.8333256
Wessen Michael,node/7037183501,9.030459,0,,38.838592
Hanna Mariam,node/7037183502,9.0375551,0,,38.8316144
Hanna Mariam,node/7037183503,9.0375969,0,,38.8316246
Wessen,node/7037183504,9.0330948,0,,38.8442968
Wessen,node/7037183505,9.033228,0,,38.8445812
Wessen (Mariam),node/7037183507,9.0330982,0,,38.8446898
Kotebe Teachers College,node/7037183508,9.0342084,0,,38.8466963
Yabem Hotel,node/7037183509,9.0357649,0,,38.8533863
Kotebe Gebriel,node/7037183510,9.036101,0,,38.8545188
Yetebaberut,node/7037183513,9.0201901,0,,38.8526027
Yetebaberut,node/7037183515,9.0207031,0,,38.8539074
Meri,node/7037183516,9.0207092,0,,38.8603565
Meri (Yetebaberut),node/7037183518,9.0205124,0,,38.8610727
Ayat,node/7037183519,9.0208331,0,,38.8686047
Ayat Zone 2,node/7037183520,9.0210633,0,,38.8678248
Kara (Turn),node/7037183521,9.0379427,0,,38.8606002
Medhanalem Church,node/7037183523,9.0401552,0,,38.8640163
Safari,node/7037183525,9.0106828,0,,38.852259
Summit (MOHA),node/7037183527,9.0043876,0,,38.8520658
Saint Georgis,node/7037183528,8.9955228,0,,38.8513132
Tena Tabeya,node/7037183529,8.9941038,0,,38.860685
Gate 2,node/7037183532,8.9894728,0,,38.8582866
Summit Condominiums,node/7037183533,8.9846055,0,,38.8544474
Ayat Train Station,node/7037183535,9.0213287,0,,38.8719812
CMC,node/7037183536,9.0211208,0,,38.872594
Ayat Square,node/7037183537,9.0212396,0,,38.8767684
Feres Bet,node/7037183538,9.0216916,0,,38.8862575
Police Tabia,node/7037183539,9.0170704,0,,38.8946069
Tsebel,node/7037183540,9.0222555,0,,38.891209
Bono Meskid,node/7037183541,9.0219034,0,,38.8902931
Ayat Chefe Condominium,node/7037183542,9.0113906,0,,38.8946677
Ayat Chefe Condominium,node/7037183543,9.0109368,0,,38.8944878
Nebu Mikael,node/7037183545,9.0023517,0,,38.8767662
Ayat Adebabay Hulet (2),node/7037183546,8.9965746,0,,38.8851706
Bole Arabsa (3),node/7037183547,8.9963324,0,,38.8855436
Bole Arabsa (2),node/7037183548,8.9841602,0,,38.8851362
Bole Arabsa,node/7037183550,8.9733148,0,,38.8902717
Yeka Condominium 1,node/7037183552,9.0354891,0,,38.877919
Tafo Gebrael,node/7037183554,9.0381306,0,,38.8777819
Tafo Condominium 1,node/7037183555,9.0505157,0,,38.8779667
Tafo Mebrathail,node/7037183557,9.0425957,0,,38.8773973
Tafo Mebrathail,node/7037183558,9.0427743,0,,38.877866
Tafo Condominium 2,node/7037183559,9.0465834,0,,38.8779122
Kara Condominium,node/7037183562,9.0501511,0,,38.8705589
Yeka Abado,node/7037183563,9.0666282,0,,38.8647703
Sara Ampol (Gedera),node/7037183565,9.0571811,0,,38.8737753
Sara Ampol,node/7037183567,9.0580264,0,,38.8742538
Aba Kiros,node/7037183569,9.0606875,0,,38.8812971
Makefafeya,node/7037183570,9.0630654,0,,38.8841651
Gari Tera,node/7037183571,9.0670494,0,,38.8892044
CCD,node/7037183572,9.0707009,0,,38.8938058
140,node/7037183573,9.0718221,0,,38.8952147
Legedadi Mission,node/7037183574,9.0818058,0,,38.9074861
Legedadi Mission,node/7037183575,9.0821737,0,,38.90832
Selam Building,node/7041052894,8.8832831,0,,38.7771574
Gojo Hotel,node/7041052895,8.8910809,0,,38.7768265
Kality Meneharia,node/7041052896,8.8958584,0,,38.7717989
Cheralia Factory,node/7041052897,8.9029458,0,,38.7668359
Cheralia Factory,node/7041052898,8.9029223,0,,38.7667452
Kality Gebriel,node/7041052900,8.9113422,0,,38.7638335
Kality Prison,node/7041052901,8.912466,0,,38.7633399
Hana Maryam,node/7041052912,8.928137,0,,38.7416641
Tabelew,node/7041052914,8.9274906,0,,38.6590102
Ubedi Academy,node/7041052915,8.9244259,0,,38.6548173
Alem Gena,node/7041052916,8.9230001,0,,38.6526472
Alem Gena,node/7041052917,8.9229882,0,,38.652656
Mama,node/7041052918,8.9213858,0,,38.6465912
Mekanisa (Old Revenues Office),node/7041052927,8.9683942,0,,38.73129
German Square,node/7041052928,8.9656974,0,,38.7327236
Gebriel Bridge,node/7041052932,8.9556239,0,,38.7324437
Gebriel Bridge,node/7041052934,8.955596,0,,38.7327233
Mebrathile (EEPCo),node/7041052935,8.9469471,0,,38.7339608
Mekanisa School,node/7041052936,8.9790248,0,,38.7341955
Abo,node/7041052937,8.9785916,0,,38.7339384
Sheged Hotel,node/7041052938,8.973373,0,,38.7246092
Jemo Michael,node/7041052939,8.9673959,0,,38.720836
Jemo Michael,node/7041052940,8.966996,0,,38.7209392
Jemo YBP (All Mart),node/7041052942,8.9614893,0,,38.7152564
Jemmo 1,node/7041052944,8.9606358,0,,38.7123763
Jemmo 1,node/7041052945,8.9604074,0,,38.7124284
Mestawet Fabrica,node/7041052946,8.9595125,0,,38.7084697
Mestawet Fabrica,node/7041052948,8.958513,0,,38.7059934
Jemo 3,node/7041052949,8.9564,0,,38.6992718
Jemmo 3,node/7041052950,8.9556244,0,,38.6985348
Zenebework,node/7041052951,8.9866742,0,,38.7077567
Welete Maryam,node/7041052952,8.9611777,0,,38.6713097
Mickael Bridge,node/7041052953,8.9657858,0,,38.7272059
Gerar,node/7041052954,8.9813447,0,,38.689429
Repi (Gerar),node/7041052955,8.9794179,0,,38.6851955
Gebre Kirstos,node/7041052957,8.9773403,0,,38.7220154
Bisrate Gebrael,node/7041052958,8.9884304,0,,38.7228933
Gofa Gebriel (2),node/7041052959,8.9753751,0,,38.7488548
Gofa Gebriel,node/7041052960,8.9771139,0,,38.7490217
Bole Mickael,node/7041052963,8.9816131,0,,38.7772221
MOHA (Pepsi Factory),node/7041052965,8.9822682,0,,38.7560783
Gotera (Oilibiya),node/7041052969,8.9762662,0,,38.7600125
Gotera (Oilibiya),node/7041052970,8.976182,0,,38.7598239
St. Joseph Church,node/7041052975,8.9697308,0,,38.7620577
kadisco Building,node/7041052977,8.9659447,0,,38.7627885
kadisco Building,node/7041052978,8.965927,0,,38.762999
Kadisco,node/7041052979,8.9637596,0,,38.7630788
Adey Abeba,node/7041052980,8.9583017,0,,38.7640609
Adey Abeba,node/7041052982,8.9582595,0,,38.7638459
Saris (CBE),node/7041071286,8.9528662,0,,38.7635583
Saris (CBE/Shoa Bakery),node/7041071287,8.9527596,0,,38.7633266
Abo Junction,node/7041071289,8.9450003,0,,38.7661044
Abo Junction,node/7041071290,8.9450733,0,,38.7663069
Customs (Train Station),node/7041071291,8.9380959,0,,38.763132
Kality Maseltegna,node/7041071295,8.9323275,0,,38.766627
Wehalemat,node/7041071296,8.9298173,0,,38.7681692
Bulgaria Mazoria,node/7041071342,8.9950292,0,,38.7478244
Begtera,node/7041071344,8.9971703,0,,38.7475059
AU (Mikael) Rounrdabout,node/7041071347,8.9990638,0,,38.7394459
AU (Mikael) Rounrdabout,node/7041071348,8.9990569,0,,38.7395945
Bulgaria,node/7041071350,8.9937942,0,,38.7478465
Global Hotel,node/7041071352,8.9941475,0,,38.7595772
Global Hotel,node/7041071353,8.9941836,0,,38.7598183
Beklo Bet (Global),node/7041071354,8.9953383,0,,38.7596352
Tele Garage,node/7041071355,9.000141,0,,38.7584812
Riche,node/7041071356,9.0043253,0,,38.7586986
6th (Raddison Blu),node/7041071359,9.0166957,0,,38.7669535
Filweha (Hotsprings),node/7041071360,9.017718,0,,38.7572645
Filweha (Hotsprings),node/7041071362,9.0175554,0,,38.7570579
Ghion Hotel (Enterance),node/7041071363,9.0137609,0,,38.7574492
Ghion Hotel (Enterance),node/7041071364,9.0138328,0,,38.7576145
St. Joseph School,node/7041071367,9.0098008,0,,38.7591876
St. Joseph School,node/7041071370,9.0104995,0,,38.7592761
Admas University College,node/7041071371,9.0105316,0,,38.7590434
Lalibela Hotel,node/7041071372,9.0118612,0,,38.7570112
Stadium,node/7041071374,9.0121294,0,,38.7560438
Legehar,node/7041071376,9.011849,0,,38.7545386
Legehar,node/7041071377,9.0117857,0,,38.7539285
Legehar (Old Train Station),node/7041071378,9.0109604,0,,38.7533069
Mexico,node/7041071380,9.0097755,0,,38.7461963
African Union,node/7041071382,9.0031416,0,,38.7414166
Popolare,node/7041071383,9.0053059,0,,38.7423863
Guenet Hotel,node/7041071384,9.0046908,0,,38.7466748
Guenet Hotel,node/7041071385,9.0032786,0,,38.74694
Abenet,node/7041071388,9.0214263,0,,38.7334947
Lideta Condominium,node/7041071389,9.0132791,0,,38.7345522
Darmar,node/7041071390,9.0157856,0,,38.7348248
Coca Cola,node/7041071391,9.0159169,0,,38.7294714
Austria Embassy,node/7041071392,8.9939406,0,,38.7278809
Mechare Meda,node/7041071393,8.9936591,0,,38.727499
3 Kutir Mazoriya (Total),node/7041071395,8.9925902,0,,38.7152417
Minaye Building,node/7041071397,8.995414,0,,38.7184074
Old Airport (Mobil),node/7041071399,8.9998642,0,,38.7191221
Tor Hailoch,node/7041071400,9.0099949,0,,38.7206897
Keranio Mewcha,node/7041071401,9.0133411,0,,38.7100309
Holand,node/7041071402,9.0213057,0,,38.7159484
Meseret Edget,node/7041071403,9.0245409,0,,38.714954
Teklehaymanot,node/7041071404,9.0278226,0,,38.7440603
Kebele 11,node/7041071405,9.0247481,0,,38.7458014
Tewodros Square,node/7041071406,9.0262634,0,,38.75166
Tewodros Square,node/7041071407,9.0263826,0,,38.7517909
Black Lion,node/7041071411,9.0218352,0,,38.7521859
National Theatre,node/7041071414,9.0158768,0,,38.751592
National Theatre,node/7041071415,9.0156938,0,,38.7513097
A.A. Commercial College,node/7041071416,9.0139102,0,,38.7494881
A.A. Commercial College,node/7041071418,9.0138228,0,,38.7495568
Buna Ena Shay,node/7041071419,9.0114261,0,,38.7490599
Buna Ena Shay,node/7041071420,9.0105922,0,,38.7479733
Mexico Shebelle Hotel,node/7041071423,9.0119916,0,,38.7468862
TVET College (Tegbare'd),node/7041071425,9.0105894,0,,38.7429038
Federal Police (Tegbare'd),node/7041071429,9.0103865,0,,38.7426638
Lideta (Balcha Hospital),node/7041071430,9.0109303,0,,38.738603
Lideta (Balcha Hospital),node/7041071431,9.0111161,0,,38.7385604
Lideta Condominium,node/7041071432,9.011233,0,,38.7377815
Lideta Tsebel,node/7041071433,9.0041706,0,,38.733822
Dessie Hotel,node/7041071434,9.0093091,0,,38.7338119
High Court,node/7041071435,9.0108572,0,,38.7342297
Lideta High Court,node/7041071437,9.0115829,0,,38.733431
Hintsa College,node/7041071439,9.0121559,0,,38.7293132
Coca Cafe,node/7041071441,9.0119411,0,,38.7292339
Mekonenoch (Golf) Club,node/7041071444,9.011282,0,,38.7265458
Tor Hailoch Junction,node/7041071446,9.0115616,0,,38.7220202
Torhailoch,node/7041071447,9.0119442,0,,38.7216866
Tor Hailoch,node/7041071448,9.0139112,0,,38.7206478
Tor Hailoch,node/7041071449,9.013939,0,,38.7209168
Keranio Bridge,node/7041071450,9.0194506,0,,38.7089411
Medhanialem,node/7041071451,9.0175679,0,,38.7049748
Keranio Adebabay,node/7041071452,9.0176634,0,,38.7006446
Kokebe,node/7041071453,9.0180779,0,,38.6994971
Yeshi Debele,node/7041071454,9.0195382,0,,38.6954056
Yeshi Debele,node/7041071455,9.0190748,0,,38.6957701
Mariam,node/7041071456,9.0231539,0,,38.6884518
Anfo Meda,node/7041071458,9.021983,0,,38.6742682
St. Urael Church,node/7041071459,9.0110433,0,,38.7752596
Salcost Apartments (NOC),node/7041071461,9.0104908,0,,38.766397
St. Estifanos Church,node/7041071462,9.0118738,0,,38.7626376
St. Gebriel,node/7041071464,9.0199107,0,,38.7675809
Zenebewerk Hotel,node/7041071465,9.0193852,0,,38.7680315
Meles Zenawi Foundation,node/7041071466,9.0206693,0,,38.7715231
Azmari Bet (Traditional Music Club),node/7041071468,9.0194316,0,,38.770643
Kazanchis (6th),node/7041071469,9.0166401,0,,38.7702335
Hilton Hotel (Apartments),node/7041071471,9.0196382,0,,38.7638714
Women Square,node/7041071473,9.0233468,0,,38.7772342
Women Square,node/7041071474,9.0234508,0,,38.7771738
Aware Bridge,node/7041071475,9.0244322,0,,38.7765755
Arat Kilo,node/7041071479,9.0319312,0,,38.7633615
Arat Kilo,node/7041071480,9.0321438,0,,38.7652099
Bel Air,node/7041071481,9.032458,0,,38.7728461
Addis View Hotel,node/7041071482,9.0324918,0,,38.7730493
Menelik II Hospital,node/7041071483,9.0385857,0,,38.7730556
Menlik Hospital,node/7041071484,9.0388201,0,,38.7719268
Piassa Arada,node/7041071579,9.0365871,0,,38.7522029
Piassa Arada,node/7041071580,9.0363947,0,,38.7524445
Piassa Arada,node/7041071592,9.0354239,0,,38.7523326
Habtegiorgis Bridge,node/7041071594,9.0352553,0,,38.7491242
Kurtu Building,node/7041071595,9.0343899,0,,38.7438917
Kurtu Building,node/7041071596,9.0341887,0,,38.7437548
Pharmacy,node/7041071597,9.0343321,0,,38.7434135
Gojam Berenda,node/7041071598,9.0343947,0,,38.737968
Autobis Tera (3),node/7041071599,9.0342308,0,,38.7337775
Autobus Tera,node/7041071600,9.03371,0,,38.7298446
Darsema Grosery,node/7041071601,9.0338533,0,,38.7294433
Girum Hospital,node/7041071604,9.04636,0,,38.7200106
Woreda 7 TVET,node/7041071605,9.0407262,0,,38.7212396
Sefere Salam,node/7041071606,9.0366318,0,,38.7219216
Kolfe,node/7041071607,9.037044,0,,38.7173824
Abysinia Coffee,node/7041071608,9.0373422,0,,38.7164487
Degu Hotel,node/7041071609,9.0338162,0,,38.7151531
18 Mazoria,node/7041071610,9.0335338,0,,38.7130781
18 Mazoria,node/7041071612,9.0335825,0,,38.7135105
Luwkanda,node/7041071614,9.0333303,0,,38.7093322
Kolfe Secondary School,node/7041071615,9.0340139,0,,38.704541
Realstate,node/7041071616,9.0327975,0,,38.6951186
Police Tabiya,node/7041071619,9.034058,0,,38.6888917
Feli Doro (1),node/7041071620,9.0342811,0,,38.6875252
Feli Doro,node/7041071622,9.0353789,0,,38.6853297
Ras Mekonene Bridge (Seba Dereja),node/7041071628,9.0389362,0,,38.7568178
5 Kilo (History Museum),node/7041071629,9.0385989,0,,38.7625491
5 Kilo University,node/7041071630,9.0408311,0,,38.761951
Lion Zoo (PEPSI Kiosk),node/7041071633,9.0427151,0,,38.7615693
Yekatit 12 Hospital,node/7041071636,9.0438891,0,,38.7603878
Yeatit 12 Hospital,node/7041071637,9.0436921,0,,38.7593176
Red-Cross (St. George Total),node/7041071638,9.0386136,0,,38.7527639
St. George Church (Total),node/7041071639,9.0386684,0,,38.7517494
Semen Hotel,node/7041071640,9.0436522,0,,38.7488778
Semen Hotel,node/7041071641,9.0446929,0,,38.7482928
Kelemwerk,node/7041071642,9.0486023,0,,38.7461719
Kelemwerk,node/7041071643,9.0488673,0,,38.7458026
Tibeb Ediget School,node/7041071645,9.0512494,0,,38.7443439
Semen Mazegaga,node/7041071646,9.0523631,0,,38.7433813
Semen Mazagaja,node/7041071647,9.0537306,0,,38.7424925
Shegole Bank,node/7041071648,9.0541015,0,,38.7200104
Pawlos Hospital,node/7041071649,9.0474202,0,,38.7277601
Finance,node/7041071650,9.0514832,0,,38.7221677
Medhanialem (TOTAL),node/7041071651,9.0513651,0,,38.7220512
Finance,node/7041071653,9.0528369,0,,38.7201878
Finance,node/7041071654,9.0531245,0,,38.7199027
Winget Chaf,node/7041071655,9.0544244,0,,38.7149847
4 Menta Adebabay,node/7041071657,9.0520588,0,,38.7088754
Mikili Land,node/7041071658,9.051327,0,,38.6987792
Winget Adebabay,node/7041071659,9.0571703,0,,38.7137033
Awolia,node/7041071660,9.0576087,0,,38.7116367
Gulele Fana,node/7041071661,9.0577975,0,,38.7067279
Gulele Fana,node/7041071662,9.0582376,0,,38.7065488
Berchiko,node/7041071663,9.0593548,0,,38.7034077
Gebriel (Sansusi),node/7041071665,9.0665816,0,,38.69045
Bono Weha,node/7041071718,9.057952,0,,38.7791204
Mezan,node/7041071719,9.053538,0,,38.7722233
3rd Shaleka,node/7041071721,9.0470252,0,,38.7690705
6 Kilo (University),node/7041071723,9.0461753,0,,38.7615547
Meksaye Hizunan Medhanialem,node/7041071725,9.0513004,0,,38.7622054
Teferi Mekonen,node/7041071726,9.052326,0,,38.7622236
Sebseba Maekel,node/7041071729,9.0541533,0,,38.7625698
Eyesus,node/7041071737,9.0649811,0,,38.7715088
Hamle 19,node/7041071738,9.0585516,0,,38.7680987
Selassie,node/7041071740,9.0692162,0,,38.7607205
Sanba Nekersa-Shiromeda,node/7041071741,9.0745256,0,,38.7590628
Kuskoam,node/7041071742,9.0777328,0,,38.7572536
Dil Ber,node/7041071749,9.0710894,0,,38.7374397
Anbessa Garage (Shegole),node/7041071753,9.0638294,0,,38.7204079
Kebt Beret,node/7041071754,9.0691617,0,,38.7182194
Entoto Kela,node/7041071755,9.0843712,0,,38.7230011
Weserbi Realestate,node/7041071758,9.1051152,0,,38.7095299
Classy Water,node/7041071759,9.1095355,0,,38.7147037
Medret Hotel,node/7041071760,9.1100449,0,,38.7158285
Kburea,node/7041071761,9.1176074,0,,38.7300979
Kenenisa,node/7041071762,9.1179357,0,,38.7304557
Shefunea,node/7041071763,9.1273122,0,,38.7395293
Shefine,node/7041071764,9.1277902,0,,38.7397834
Doro Erbata,node/7041071772,9.1339361,0,,38.7522344
Abo Gabriel,node/7041071773,9.1341343,0,,38.7524529
Tulu Fati,node/7041071774,9.1408321,0,,38.7549356
Ashewa,node/7041071775,9.1449015,0,,38.7538733
Tabya Hotel,node/7041071776,9.1560016,0,,38.7542489
Sar Bet (Roundabout),node/7047495429,8.9929589,0,,38.738359
United Bank (Ashewa Meda),node/7047495432,9.0286142,0,,38.6600221
Sefera,node/7047495433,8.9208064,0,,38.7346499
Lafto,node/7049122264,8.9473774,0,,38.744323
Hana Mariam (2),node/7049122265,8.935835,0,,38.7440895
Haile Garment,node/7049122266,8.9387647,0,,38.7345586
Yekiber Demena Church,node/7049921444,9.0304285,0,,38.8779866
Megenagna Terminal,node/7049921445,9.0204726,0,,38.8024339
Hill Bottom (Recreation),node/7049921447,9.0220882,0,,38.8759579
Zone 8,node/7049921448,9.0304125,0,,38.8775474
Aba Kiros (Tafo) Roundabout,node/7049921449,9.0570656,0,,38.8779122
Tafo Junction,node/7050234123,9.0566049,0,,38.8790275
Megenagna Terminal,node/7050327664,9.020626,0,,38.8021323
6 Kilo,node/7054842410,9.0476858,0,,38.7617178
6 Kilo,node/7054842414,9.0476498,0,,38.7617169
Legehar (Old Train Station),node/7055060064,9.0106346,0,,38.7532161
Kotebe Gebriel,node/7055598734,9.0359897,0,,38.8546711
Ahmed Building,node/7055598736,9.0269686,0,,38.8299268
St. Mary Church,node/7055598738,9.0363488,0,,38.7579049
Piassa Arada,node/7055598739,9.0335541,0,,38.7535483
Piassa Arada,node/7055598742,9.0327818,0,,38.7534018
St. Mary Church,node/7055598743,9.0363807,0,,38.7579442
NOC End,node/7055598744,9.0274541,0,,38.8307544
Kotebe Teachers College,node/7056754511,9.0341209,0,,38.8467717
Meskelegna (Ababdo),node/7056754514,9.0630764,0,,38.8732637
Megenagna,node/7056754516,9.020907,0,,38.8022361
Atlas,node/7057002158,9.0041945,0,,38.779674
Piassa Arada,node/7057002161,9.0329242,0,,38.7528717
Ras Mekonene Bridge (Seba Dereja),node/7057002162,9.0389386,0,,38.7568279
Brass Clinic (Bole),node/7057187392,8.9904207,0,,38.7929906
Brass Clinic (Bole),node/7057187393,8.9903142,0,,38.7932003
St.Gorgis,node/7062689844,9.0379471,0,,38.7519784
St. George Church (2),node/7062689845,9.0358742,0,,38.751629
Piassa,node/7062689848,9.0345896,0,,38.7549398
Arat Kilo,node/7062689850,9.0325203,0,,38.764362
4 Kilo,node/7062689851,9.0344021,0,,38.7630946
Medhanialem,node/7062689852,9.0506154,0,,38.7621098
Education Bureau (6 Kilo),node/7062689854,9.044142,0,,38.7635923
Jan Meda,node/7062689855,9.0471236,0,,38.7690204
Frensaye Kela,node/7062689856,9.0557922,0,,38.7742742
Frensaye Kela,node/7062689857,9.0551762,0,,38.7736282
Abo Mazoriya,node/7062689858,9.0569998,0,,38.7777387
Gurara,node/7062689859,9.0623294,0,,38.7881845
Mamo (NFSL TVET),node/7067942461,8.9730894,0,,38.7608987
Agona Cinema,node/7067942462,8.988213,0,,38.7595747
Agona Cinema,node/7067942463,8.9882665,0,,38.7597959
Tele Garage,node/7067942465,9.0004682,0,,38.7587377
Meshualekia,node/7067942466,9.0057314,0,,38.7589773
Zerihun Building,node/7067990019,9.0145395,0,,38.7824519
6th (Raddison Blu),node/7067990020,9.0166971,0,,38.7669539
National Palace,node/7070861695,9.0264536,0,,38.7621198
SNAP Building,node/7070861696,8.9897614,0,,38.7872174
Friendship,node/7070861697,8.9908557,0,,38.7844888
Heber Restaurant,node/7070861698,8.9917592,0,,38.7822311
RWANDA (Werbek House),node/7070861699,8.992295,0,,38.7791533
Wollo Sefer,node/7070861700,8.9946542,0,,38.7740953
Rwanda,node/7070861701,8.9924,0,,38.7798477
Bole Printing Press,node/7070861702,8.9966227,0,,38.7723732
Bole Printing Press,node/7070861703,8.9976714,0,,38.7715908
Mega Printing Press,node/7070861704,8.9993469,0,,38.7708659
Shewa Dabo,node/7070861705,9.001132,0,,38.7697078
Getu Commercial Center,node/7070861706,9.0014126,0,,38.7697673
Dembel City Center,node/7070861707,9.004953,0,,38.7678519
Flamingo,node/7070861710,9.0100482,0,,38.7634195
Piassa Arada,node/7070861712,9.0358386,0,,38.7528459
Anbessa Garage,node/7070861713,9.0074376,0,,38.8054033
Ayat Roundabout,node/7070861714,9.0221276,0,,38.876525
Gebriel,node/7070861716,9.0401288,0,,38.8777949
Semen Mazegaja | ሰሜን ማዘጋጃ,node/7074233342,9.0527134,0,,38.7433527
Del Ber School,node/7074233343,9.0559007,0,,38.7411604
Adisu Gebeya,node/7074233344,9.0592088,0,,38.7379037
Kelebat,node/7074233345,9.061605,0,,38.7355505
Oilibiya (Dil Ber),node/7074233346,9.0679367,0,,38.7347909
Pastor,node/7074267433,9.0463006,0,,38.7301845
Medhanialem,node/7074267434,9.051161,0,,38.7228618
Winget,node/7074267435,9.0554455,0,,38.7138884
Kela,node/7074269464,9.0576131,0,,38.6101592
Kela,node/7074269465,9.0576152,0,,38.6101611
Semen Hotel,node/7074275407,9.0452427,0,,38.7481339
Kera,node/7074294627,8.9866969,0,,38.7484333
Asko,node/7074299254,9.0653014,0,,38.6922669
Sebategna,node/7074324043,9.0286512,0,,38.733098
Autobis Tera (2),node/7074324044,9.0317912,0,,38.7324012
Autobis Tera,node/7074324045,9.0347276,0,,38.7321005
Mekanisa,node/7074326525,8.9733512,0,,38.7315967
Abo Mazoria,node/7074326526,8.9822244,0,,38.7343058
Gate 2,node/7074330387,8.9894962,0,,38.8580841
Tena Tabeya,node/7074330389,8.9942098,0,,38.8605382
Condminium (Gate),node/7074330391,8.9984544,0,,38.8602323
Gomista,node/7074330392,9.0014062,0,,38.8573283
Summit (MOHA),node/7074330394,9.0040839,0,,38.8517162
Safari,node/7074330397,9.0106601,0,,38.8518265
Alemayehu,node/7074330400,8.999474,0,,38.820944
Alemayehu,node/7074330401,9.0005663,0,,38.8196821
Condominium,node/7074330403,9.0050845,0,,38.8095474
Ethio-china,node/7074330407,9.026612,0,,38.8287819
Kara,node/7074330409,9.0403987,0,,38.8643277
Project 15,node/7074332290,8.9654679,0,,38.8850641
Kela,node/7074332294,8.9772657,0,,38.8845811
Chereta,node/7074347184,9.0616842,0,,38.7010211
Gerar,node/7074353066,8.9813585,0,,38.6894082
Jemo 3,node/7074374410,8.9538291,0,,38.6959643
Furi,node/7074374411,8.951847,0,,38.6921288
Sansusi,node/7074387585,9.0714186,0,,38.6891023
Kersa (2),node/7074496216,9.0285405,0,,38.6722328
Ashewa Meda,node/7074496217,9.0326531,0,,38.6653802
Ashewa Meda,node/7074496218,9.0326414,0,,38.6653823
United Bank (Ashewa Meda),node/7074496219,9.0258997,0,,38.6569665
St. Gebriel,node/7074496221,9.027689,0,,38.6515848
St. Gebriel,node/7074496222,9.0276843,0,,38.6515743
Gojo,node/7074496225,9.0417975,0,,38.6216778
Alem Bank,node/7074504387,9.0010346,0,,38.6776598
Ayer Tena,node/7074504388,8.9831093,0,,38.6982193
Bethel,node/7074504390,9.0045877,0,,38.6944335
Mewcha,node/7074504391,9.0139079,0,,38.7053132
Mendida,node/7074504392,9.0149626,0,,38.7004735
Mebrat Nigist Hotel,node/7074525370,8.9700751,0,,38.7486994
Lideta Kefetega Firdbet,node/7074541084,9.0116457,0,,38.7326808
Sefera Square,node/7074561389,8.9249315,0,,38.7341804
Haile Garment,node/7074561391,8.9368661,0,,38.7363202
Mebrathile (EEPCo),node/7074561392,8.9493593,0,,38.7334502
Hana Mariam,node/7074561393,8.9309368,0,,38.7544146
Hana Mariam (2),node/7074561394,8.9361698,0,,38.7444615
Meskelgna,node/7074561395,8.95299,0,,38.7448233
Piassa Arada,node/7074585943,9.0357438,0,,38.7514315
Arat Kilo,node/7074585944,9.0324015,0,,38.7633143
Beklo Bet (Global),node/7074599697,8.9953761,0,,38.759835
Dembel City Center,node/7074691520,9.0055741,0,,38.7672511
Mexico,node/7074707878,9.010735,0,,38.7471393
ERA Office (Big Mak),node/7074707880,9.0127963,0,,38.7478601
Saint Josphe School,node/7074707881,9.0092034,0,,38.7591385
St. Estifanos Church,node/7074707883,9.0124825,0,,38.7628296
Mamo (NFSL TVET),node/7074819178,8.9725713,0,,38.7607684
Kadisco,node/7074841187,8.9310399,0,,38.7585063
Kality Maseltegna,node/7074841188,8.9339802,0,,38.7643672
Teklehaimanot,node/7074921333,9.0291868,0,,38.7442895
Berbere Tera,node/7074921334,9.0266712,0,,38.7406481
Dildiy Mariam,node/7075101457,8.9585362,0,,38.7498569
Kera (Gofa Stop),node/7075101459,8.9837158,0,,38.7497528
Tor Hailoch,node/7075129253,9.009717,0,,38.7208842
Torhayloch,node/7075129254,9.0117428,0,,38.7207996
Tor Hailoch,node/7075129255,9.0117788,0,,38.7222467
Riche,node/7076294502,9.0043941,0,,38.7588986
Mebrat Condominium,node/7076294503,8.9645236,0,,38.7438551
Kadisco,node/7076294504,8.9638868,0,,38.7633289
Flamingo,node/7076294505,9.0089349,0,,38.7646677
Condminium (Gate),node/7076294507,8.9984013,0,,38.8601035
Sara Ampol (Gedera),node/7076294508,9.0571285,0,,38.8738883
Michael (2),node/7076294509,9.0418835,0,,38.7325725
Shero Meda,node/7076294510,9.0622823,0,,38.7612538
Shero Meda,node/7076294511,9.0618175,0,,38.7613619
Dil Ber,node/7076294512,9.0716602,0,,38.7369836
Shiromeda Selassie,node/7076294515,9.0692159,0,,38.7607132
Shero Meda,node/7076294516,9.0618235,0,,38.7613887
6 Kilo (Akim Genbata),node/7076310930,9.0447597,0,,38.7612093
Shero Meda,node/7076310931,9.0626379,0,,38.7612397
Medhanialem,node/7077424942,9.0507372,0,,38.7619991
Ambassador,node/7077601626,9.0163885,0,,38.7551039
Lamberet,node/7077785205,9.0216085,0,,38.8139111
Kara Condominium,node/7077785206,9.0479009,0,,38.8692642
G-7 (Meskelegna),node/7077785207,9.0655587,0,,38.8676583
Kara Condominium,node/7077785209,9.0480304,0,,38.8695121
Autobis Tera (2),node/7077863009,9.031811,0,,38.7325536
Tropical,node/7077863010,8.9960545,0,,38.6833448
Alem Bank,node/7077863012,9.0003767,0,,38.6779208
Tropical,node/7077863014,8.9965876,0,,38.6830207
Kidane Mihret,node/7077863015,8.9923549,0,,38.6892387
Bethel,node/7077863016,9.004479,0,,38.6941906
Mendida,node/7077863017,9.0151128,0,,38.7004836
Abinet,node/7077863018,9.019638,0,,38.7327417
Sebategna,node/7077863019,9.0280905,0,,38.7329768
Mexico,node/7078164250,9.0088714,0,,38.7440208
Haile Garment,node/7078164251,8.9381825,0,,38.7349155
Mekanisa,node/7078164254,8.9729343,0,,38.7311018
Abo Mazoria,node/7078164255,8.9820586,0,,38.7345326
Mexico,node/7078164256,9.0088201,0,,38.7437936
Autobis Tera (1),node/7078406225,9.0330269,0,,38.7323925
Zenebework,node/7078406227,8.9876369,0,,38.7090191
Ayer Tena,node/7078406228,8.9822919,0,,38.6949214
Kara Kore,node/7078406231,8.9755975,0,,38.6817556
Kara Kore,node/7078406235,8.9763865,0,,38.6823873
Ayer Tena (Gerar-Repi),node/7078406236,8.9822452,0,,38.6939258
Repi (Gerar),node/7078406237,8.9795411,0,,38.6853377
Zenebework (Crossing),node/7078406238,8.9852814,0,,38.7051886
3 Kutir Mazoriya (Total),node/7078406239,8.992776,0,,38.715946
Autobis Tera (1),node/7078406240,9.0330007,0,,38.7322299
Condominium,node/7080251773,9.0049451,0,,38.8100534
Goro School,node/7080251774,8.993889,0,,38.8268744
Anbessa Garage,node/7080251776,9.0071789,0,,38.8056204
Estifanos,node/7080440194,9.0110028,0,,38.76366
BAMBIS,node/7080440195,9.0104866,0,,38.7690578
St. Urael Church,node/7080440196,9.0115088,0,,38.7752996
Lex Plaza,node/7080440197,9.0147285,0,,38.7823039
22 (Haya Hulet),node/7080440198,9.0164226,0,,38.7896417
Megenagna,node/7080440200,9.0194097,0,,38.8004816
Megenagna,node/7080440203,9.019032,0,,38.8005914
Lem Hotel,node/7080440204,9.0177169,0,,38.7955696
22 (Haya Hulet),node/7080440205,9.0162149,0,,38.7896635
BAMBIS,node/7080440206,9.0102033,0,,38.7694936
Mexico,node/7080440208,9.0104304,0,,38.7467585
Mexico,node/7080527282,9.0098462,0,,38.7462899
Kera,node/7080527284,8.9863213,0,,38.7487773
Mebrat,node/7080611085,8.96688,0,,38.7487535
Mexico Shebelle Hotel,node/7080611091,9.0120423,0,,38.746773
Michael,node/7080893992,9.0412736,0,,38.7322629
Autobis Tera,node/7080893993,9.034717,0,,38.732023
Pastor,node/7080893994,9.0460782,0,,38.7306587
Winget,node/7080893995,9.0560646,0,,38.713458
Chereta,node/7080893996,9.0613645,0,,38.7009781
Sansusi,node/7080894001,9.0715888,0,,38.6891732
5 Kilo (History Museum),node/7081034796,9.0385658,0,,38.7624277
Abo Mazoriya,node/7081034797,9.0574672,0,,38.7785478
Education Bureau (6 Kilo),node/7081034799,9.0441923,0,,38.7640045
Total (Dil Ber),node/7084255331,9.0648091,0,,38.732915
Piassa Arada,node/7084255333,9.0341775,0,,38.7533521
Addisu Gebeya,node/7084255334,9.0594855,0,,38.7374497
Tsion Cafe (Addisu Gebeya),node/7084255335,9.0638908,0,,38.733166
Total (Dil Ber),node/7084255336,9.0653883,0,,38.7327389
Ummar School,node/7084722454,9.0337517,0,,38.7405402
Autobis Tera (3),node/7084722456,9.0341036,0,,38.7337992
Gojam Berenda (Tefera Buillding),node/7084722457,9.0341305,0,,38.7418327
Dej. Wube (Ras Abebe School),node/7084722458,9.0404538,0,,38.7533374
Wube Bereha,node/7084722459,9.0440672,0,,38.7544994
Menen,node/7084722460,9.0515491,0,,38.7588473
Tsehay Chora (ShiroMeda),node/7084722461,9.0584002,0,,38.7598297
Sebategna (Taem Bakery),node/7084873006,9.0274958,0,,38.7332661
Mola Maru (Jos Hansen),node/7084873007,9.0188835,0,,38.7380924
Geja Sefer (Darmar),node/7084873008,9.0167149,0,,38.7382054
Kera (Green Market),node/7084873009,8.9856954,0,,38.7486804
Kera (Mexico Stop),node/7084873010,8.9841757,0,,38.7518917
MOHA (Pepsi Factory),node/7084873011,8.9824212,0,,38.7560749
Saris (Shoa Bakery),node/7084873012,8.9547202,0,,38.7635412
Kera (Saris Stop),node/7084873013,8.9844206,0,,38.7509324
Guenet Hotel (Orbis),node/7084873014,9.002055,0,,38.7469466
St. Lideta Church,node/7084873015,9.0111972,0,,38.736541
Abenet (Joshansen),node/7084873016,9.0192478,0,,38.733649
Canada Embassy,node/7084932737,8.9951157,0,,38.7373207
Mechare Meda,node/7084932738,8.9973163,0,,38.7311778
Bisrate Gebrael,node/7084932739,8.9892732,0,,38.7239615
Zenebework (Crossing),node/7084932740,8.9850622,0,,38.705264
Ayer Tena,node/7084932741,8.9838449,0,,38.6961239
Kidane Mihret (Roundabout),node/7084932742,8.9917639,0,,38.6887357
Kidane Mihret (2),node/7084932743,8.9910254,0,,38.690106
Augusta Bridge (Tor Hailoch),node/7084932745,9.0056187,0,,38.7185689
Mexico,node/7084932747,9.0114539,0,,38.7445753
Goro Roundabout,node/7098810331,8.9839859,0,,38.8285018
Kotebe Shet',node/7098810332,8.9678887,0,,38.8370059
Bole Lemi,node/7098810333,8.9585287,0,,38.8352869
Endorro 2,node/7098810334,8.9405669,0,,38.8219339
Kilinto Right (Heniken),node/7098810335,8.9007946,0,,38.8152364
Koye Feche 4,node/7098810336,8.8947925,0,,38.8240221
Koye Feche 3,node/7098810337,8.8925887,0,,38.8277372
Koye Feche 2,node/7098810338,8.896302,0,,38.8313712
Koye Feche,node/7098810339,8.9045894,0,,38.8270083
Goro Roundabout,node/7098810340,8.9837967,0,,38.8289328
Kotebe Shet',node/7098810341,8.9678046,0,,38.8374461
Bole Lemi,node/7098810342,8.9573187,0,,38.8354629
Endorro 2,node/7098810343,8.9393928,0,,38.8217947
Endorro 1,node/7098810344,8.9307029,0,,38.820007
kilinto (Heniken Brewery),node/7098810345,8.9005132,0,,38.8155747
Gurd-shola,node/7098833728,9.0192718,0,,38.8196082
Civil Service College,node/7098833729,9.021924,0,,38.8331381
St. Michael,node/7098833730,9.021617,0,,38.8400876
Sunshine Apartments,node/7098833731,9.0193173,0,,38.8524287
Gomista,node/7098833732,9.0019915,0,,38.8575794
Hasset Photo,node/7098833735,8.9918735,0,,38.8588022
Sunshine Apartments,node/7098833736,9.0190988,0,,38.8521013
CMC (Apartments),node/7098833737,9.0208488,0,,38.8504565
St. Michael,node/7098833738,9.0213567,0,,38.8401568
Merkato,node/7102193971,9.0337594,0,,38.7312293
Mesalemia (Area Police),node/7102193972,9.0338552,0,,38.7254909
Luwkanda,node/7102193973,9.0332635,0,,38.7086533
Comprensive,node/7102193974,9.0338494,0,,38.7049566
Gefersa,node/7102193975,9.031909,0,,38.642409
Gojo (Kela),node/7102193976,9.0563274,0,,38.6117467
Gojo (Kela),node/7102193977,9.0560454,0,,38.6120244
Gefersa (2),node/7102193978,9.0375371,0,,38.6265192
Gefersa,node/7102193979,9.0356795,0,,38.6329501
Ashewa Meda (1),node/7102193980,9.0328635,0,,38.6674596
Kersa (1),node/7102193981,9.0286003,0,,38.6760437
Feli Doro (2),node/7102193982,9.0343761,0,,38.687173
Mesalemia,node/7102193983,9.0344498,0,,38.7244946
Merkato,node/7102269985,9.0338637,0,,38.7312074
Ayer Tena,node/7103202615,8.9821491,0,,38.6977085
German Bridge,node/7103202616,8.9647174,0,,38.7316085
Mebrathile (EEPCo),node/7103202617,8.9470109,0,,38.7342372
Saris Abo,node/7103202619,8.9444277,0,,38.7692016
Saris Abo,node/7103202620,8.944353,0,,38.7666082
Kality Maseltegna,node/7103202621,8.9336411,0,,38.7645892
Hana Mariam (Bridge),node/7103202622,8.930547,0,,38.7550031
Mickael Bridge,node/7103202623,8.9653607,0,,38.72738
Ayer Tena,node/7103202625,8.9820533,0,,38.6976219
Bel Air,node/7104888674,9.0323651,0,,38.7729637
CMC (Apartments),node/7105158906,9.0211237,0,,38.8506098
Tafo Condominium 2,node/7105158907,9.0462589,0,,38.8774831
Tafo Condominium 1,node/7105158908,9.0502639,0,,38.8775457
Mebrat (Lafto),node/7105268824,8.9593839,0,,38.7490031
Dildiy Mariam,node/7105268825,8.9587047,0,,38.7497551
Lafto (Mickael),node/7105268826,8.9537745,0,,38.7504407
Lafto,node/7105268828,8.9465504,0,,38.7493803
Lafto (Primary School),node/7105268830,8.9558865,0,,38.7450783
Post Office (Ambassador),node/7105398617,9.0185243,0,,38.7534558
6 Kilo,node/7105398618,9.0462,0,,38.761425
Teferi Mekonen,node/7105398619,9.0522977,0,,38.7623138
Marathon Motor (Megenagna),node/7105584907,9.022269,0,,38.7999868
Arat Kilo,node/7105584908,9.0332665,0,,38.762507
Piassa Arada,node/7105584909,9.0341288,0,,38.7532588
Arat Kilo,node/7105584911,9.0332715,0,,38.7625094
Abebe Sook,node/7105584912,9.0289345,0,,38.7888307
Abune Petros,node/7105840324,9.0358919,0,,38.7492708
Yohannes,node/7105840325,9.0424895,0,,38.745898
Arbegnoch Primary School,node/7105840326,9.0472271,0,,38.7421685
Enqulal Fabrica,node/7105840327,9.0485317,0,,38.7376837
Yohannes,node/7105840330,9.0434044,0,,38.7450108
Enqulal Fabrica,node/7105840331,9.0481067,0,,38.7373533
Sefera,node/7107670562,8.9209077,0,,38.7350358
Mebrathile (EEPCo),node/7107670563,8.94963,0,,38.7332384
Mekanisa Abo,node/7107670564,8.9829863,0,,38.7341183
Jemmo 2,node/7107789218,8.9606298,0,,38.6879228
Piassa (Downtown Cafe),node/7107789219,9.0319297,0,,38.7511477
Jemmo 2,node/7107789220,8.9605732,0,,38.6878636
Kera,node/7108224469,8.9860956,0,,38.7483037
6th (Raddison Blu),node/7110438104,9.0166264,0,,38.7675202
Kazanchis (6th),node/7110438105,9.0171928,0,,38.7701955
Aware Roundabout,node/7110438106,9.0231177,0,,38.7758778
Signal,node/7110438107,9.0234853,0,,38.7815333
Dinberwa Hospital,node/7110438108,9.0221973,0,,38.7867845
Lem Hotel,node/7110438109,9.0212061,0,,38.7940254
Lamberet (Queens),node/7110438110,9.022362,0,,38.8157252
Kotebe 01,node/7110438111,9.0348925,0,,38.8281186
Kotebe 01,node/7110438113,9.0349074,0,,38.8281855
Shola (United Bank),node/7110438114,9.0217059,0,,38.7948696
Sumeya Mosque,node/7110438115,9.021194,0,,38.792498
Signal,node/7110438116,9.023369,0,,38.7815645
Kality Gebriel,node/7110725239,8.9104302,0,,38.7640618
Addis Sefer (Overpass),node/7110725240,8.9572931,0,,38.7673729
Bole Mickael (2),node/7110725241,8.9799499,0,,38.7723221
Bole Bridge,node/7110725242,8.9867261,0,,38.7903601
MOENCO,node/7110725243,8.9948785,0,,38.7957512
Sport Academy,node/7110725244,9.0009401,0,,38.7988652
Anbessa Garage,node/7110725245,9.0077883,0,,38.8030776
Anbessa Garage,node/7110725247,9.0076034,0,,38.8032793
Emperial Hotel,node/7110725248,9.0037859,0,,38.8009424
Bole (Bora Amusement),node/7110725250,8.9910225,0,,38.7947105
Bole Mickael (2),node/7110725251,8.9795995,0,,38.7721474
Addis Sefer,node/7110725252,8.9603711,0,,38.7676814
Saris Abo,node/7110725253,8.945759,0,,38.7692206
Kality (Correctional Facility),node/7110725254,8.9234126,0,,38.7648588
Kality Meneharia,node/7110725256,8.8959395,0,,38.7718808
Arat Kilo,node/7111821010,9.0354591,0,,38.7588358
Piassa (EPPCO),node/7111821011,9.0325113,0,,38.7538404
Autobis Tera,node/7111821013,9.0317457,0,,38.7374552
Autobis Tera,node/7111821015,9.0302352,0,,38.7372851
Dinberwa Hospital (1),node/7111821016,9.0216842,0,,38.7887833
Chid Tera,node/7112123457,9.0374493,0,,38.721592
Mebrathail,node/7112123458,9.0294949,0,,38.7149359
Kolfe Keranyo,node/7112123459,9.0173854,0,,38.7177803
Keranio Bridge,node/7112123460,9.0193846,0,,38.708993
Kolfe Keranyo,node/7112123462,9.0170237,0,,38.7176821
Abysinia Coffee,node/7112123463,9.0370321,0,,38.7163686
Chid Tera,node/7112123464,9.0376714,0,,38.7208971
Old Airport (Mobil),node/7112215078,8.9998854,0,,38.7188624
Minaye (Shoa Supermarket),node/7112215079,9.008471,0,,38.7196192
Holand,node/7112215080,9.0208524,0,,38.7158287
18 Mazoria (Atena Tera),node/7112215081,9.0361682,0,,38.7141478
Atena Tera,node/7112215082,9.0409736,0,,38.7125982
Winget TVET,node/7112215083,9.0491202,0,,38.7116581
Winget,node/7112215084,9.0555289,0,,38.7124575
Winget,node/7112280388,9.0554541,0,,38.7127274
Winget TVET,node/7112280389,9.0494004,0,,38.7117843
kolfe (Atena Tera),node/7112280390,9.0448145,0,,38.7122352
Atena Tera,node/7112280391,9.0414434,0,,38.712721
18 Mazoria (Atena Tera),node/7112280392,9.0362317,0,,38.7143961
Meseret Edget,node/7112280393,9.0244809,0,,38.7152453
Augusta Bridge (Tor Hailoch),node/7112280394,9.0056155,0,,38.7188519
Mahiber Betoch,node/7112648156,8.8596281,0,,38.8146269
Project 12 Akababi,node/7112648157,8.865212,0,,38.8210444
G7 (Tulu Dimtu),node/7112648158,8.8701237,0,,38.8204129
Belay Ab Moters,node/7112648159,8.871336,0,,38.7965426
Gelan Condominium,node/7112648160,8.8797273,0,,38.779459
Kality Total,node/7112648161,8.894811,0,,38.7728422
Akaki Subcity Office (Menaheria),node/7112648162,8.8973286,0,,38.770309
Kality (Correctional Facility),node/7112648163,8.9224149,0,,38.7641522
Techtra Engineering,node/7112648164,8.9281178,0,,38.7676362
Adey Abeba,node/7112648165,8.9572677,0,,38.7637599
Kality Maseltegna,node/7112648166,8.9323914,0,,38.7669427
Wehalemat,node/7112648167,8.9298175,0,,38.768315
Awash Bank (Akaki Kality),node/7112648168,8.8837788,0,,38.7768426
Gelan Condominium,node/7112648169,8.8799589,0,,38.7793211
Belay Ab Moters,node/7112648170,8.8716847,0,,38.7963837
TAF Oil (Tulu Dimtu),node/7112648172,8.8705655,0,,38.8091005
Teklehaymanot,node/7112755338,9.0278217,0,,38.7439418
Autobis Tera,node/7112755340,9.0314996,0,,38.7376384
Autobis Tera,node/7112755342,9.0308454,0,,38.7381207
Meteorology,node/7112755343,9.0194238,0,,38.7468282
Girum Hospital,node/7113004009,9.0462468,0,,38.7199737
Ras Hailu (Medhanialem),node/7113004010,9.0509733,0,,38.7211613
Awolia,node/7113004011,9.0572551,0,,38.7114101
Bercheko Fabrica (Asko),node/7113004012,9.0640587,0,,38.6983516
Gulele,node/7113004013,9.0598807,0,,38.70588
Ras Hailu (Medhanialem),node/7113004014,9.0507813,0,,38.7210939
Woreda 7 TVET,node/7113004015,9.040909,0,,38.7212829
Chid Tera,node/7113004016,9.0380466,0,,38.7213725
Autobis Tera,node/7113004018,9.0312199,0,,38.7365754
Michael (2),node/7113004020,9.0426217,0,,38.73268
Pawlos Hospital (Saba Mosque),node/7113004021,9.0485205,0,,38.7261371
Anbessa Garage (Shegole),node/7113004022,9.0643796,0,,38.7205811
Shegole (Mender 7),node/7113004024,9.0641379,0,,38.7266132
Shegole (Mender 7),node/7113004026,9.0641466,0,,38.726699
Hassen & Hussein Mosque (Shegole),node/7113004027,9.0589167,0,,38.7189551
Shegole Bank,node/7113004028,9.0548351,0,,38.7198445
Michael,node/7113004029,9.0409541,0,,38.7321449
Eyesus,node/7113158623,9.0652655,0,,38.7712666
Wello Sefer,node/7122983960,8.9931107,0,,38.7741153
Kassech Kitfo,node/7122983961,8.9891423,0,,38.7720567
Ambasel,node/7122983962,8.9855755,0,,38.7679985
WAGGA (Singer Liquior Store),node/7122983963,8.9840055,0,,38.7662234
Wengalawit,node/7122983964,8.9814923,0,,38.7635127
Wengalawit,node/7122983968,8.9817105,0,,38.7636059
MEDCO,node/7122983969,8.9857381,0,,38.7680101
Tebaber Berta,node/7122983970,8.98977,0,,38.7723942
Wello Sefer,node/7122983972,8.9930626,0,,38.7739711
Beshale Area,node/7123180286,9.0113972,0,,38.8356151
Megenagna,node/7123180287,9.0185063,0,,38.802106
Jacros,node/7123180289,9.0111777,0,,38.821148
Safari,node/7123180290,9.0100121,0,,38.8526604
Safari (Summit),node/7123180291,9.0116739,0,,38.8657082
Safari (Summit),node/7123180293,9.0115148,0,,38.8657494
Safari,node/7123180295,9.0099646,0,,38.8513684
Beshale Area,node/7123180296,9.011279,0,,38.8356503
Gurd Shola,node/7123180297,9.0189315,0,,38.8201425
Megenagna,node/7123180298,9.0194519,0,,38.803506
Meskel Flower,node/7123265052,8.9882804,0,,38.7650036
Loza (Adot),node/7123265053,8.9911645,0,,38.7659652
Nazra Hotel,node/7123265054,8.9934001,0,,38.7663984
Yetam Hotel,node/7123265055,8.9959487,0,,38.7666123
Kebele Kibeb,node/7123265056,8.9980982,0,,38.7667571
Mulu Shewa (Gazebo),node/7123265061,8.9999844,0,,38.7669271
Kebele Kibeb,node/7123265062,8.9979306,0,,38.7668423
Yetam Hotel,node/7123265063,8.9959132,0,,38.7667132
Nazra Hotel,node/7123265064,8.9937071,0,,38.7665439
Loza (Adot),node/7123265065,8.9910552,0,,38.7660467
Meskel Flower,node/7123265066,8.9885268,0,,38.7652457
Total 3 Kuter Mazoria,node/7182111861,8.9921561,0,,38.7180191
Kera,node/7182111862,8.9865792,0,,38.7468023
4 Kilo Minilik School,node/7214490240,9.0351361,0,,38.7629695
Kality Menaheriya,node/7214490241,8.8967488,0,,38.7708485
Holeta,node/10672522047,9.0675662,0,,38.497947
Sademo,node/10672522056,9.065884,0,,38.53199
Cheshire Ethiopia,node/10672522057,9.0712731,0,,38.5920589
Delta Fuel Station,node/10672721751,8.8504983,0,,38.8085926
Sidama Awash NOC,node/10672739809,8.8412588,0,,38.8243789
Atlas Resort,node/10672739811,8.8314833,0,,38.8396009
ODDA Fuel Station,node/10672739815,8.8447465,0,,38.818065
3 Kutir (TZNA Area),node/10672961242,8.9943894,0,,38.717673
Lideta High Court,node/10672961244,9.0117316,0,,38.7335924
Ayer Tena,node/10750378219,8.9839135,0,,38.7024743
Sar Bet,node/10755917239,8.9925223,0,,38.7394551
Sar Bet,node/10755917241,8.9924619,0,,38.7392871
Kera,node/10755917242,8.9859671,0,,38.7469304
Kera,node/10755917243,8.9900132,0,,38.7418629
Sar Bet,node/10755917244,8.995096,0,,38.7376124
karl Square,node/10755917245,8.9973975,0,,38.7309965
karl Square,node/10755917246,8.9970773,0,,38.7302642
Bisrate Gebrael,node/10755917247,8.9927368,0,,38.7268512
Bisrate Gebrael,node/10755917248,8.9914228,0,,38.7255644
Bisrate Gebrael,node/10755917249,8.9888937,0,,38.7226976
Total 3 Kuter Mazoria,node/10755917250,8.9922875,0,,38.7175917
kality Meneharia,node/10766121857,8.8967652,0,,38.7708737
kality Maseltegna,node/10766121859,8.9319554,0,,38.7669453
Kadisco Roundabout,node/10766121860,8.9632423,0,,38.7668102
Bole Mickael,node/10766121861,8.9816305,0,,38.7761571
Bole Printing Press,node/10766121862,8.9966149,0,,38.7721247
Flamingo,node/10766121863,9.0100526,0,,38.7634141
St. Estifanos,node/10766121864,9.0125659,0,,38.7626278
4 Kilo (Menlik),node/10766121865,9.035146,0,,38.7629874
4 Kilo (Menlik),node/10766121866,9.0352952,0,,38.7631121
Place Parking (Gibi Gebriel),node/10766121867,9.0214342,0,,38.7641345
Flamingo,node/10766121868,9.01014,0,,38.7636218
Wollo Sefer,node/10766121869,8.9944147,0,,38.7743234
Bole Mikael,node/10766121871,8.9812653,0,,38.7761469
Mamo (Nifas Silk),node/10766121872,8.9737518,0,,38.765481
kality Maseltegna,node/10766121873,8.9321192,0,,38.7670877
kality Meneharia,node/10766121874,8.8957067,0,,38.7721261
Olympia,node/10766454593,9.0056744,0,,38.7674734
Bole Roundabout,node/10766454594,8.9867247,0,,38.7908923
German Square,node/10768858714,8.965437,0,,38.7341844
Gofa Camp,node/10768858715,8.97192,0,,38.7420458
African Union,node/10768858718,9.003043,0,,38.7411322
Autobis Tera,node/10768858719,9.0296254,0,,38.7370315
Guenet Hotel (Orbis),node/10768858720,9.0026517,0,,38.7470064
German Square,node/10768858723,8.9651822,0,,38.7340469
Lamberet Menaheria,node/10781643820,9.0239162,0,,38.8198728
Arat Kilo,node/10781643821,9.0322896,0,,38.7650098
4 kilo (Children Theatre),node/10781643822,9.0328365,0,,38.7666152
Bel Air,node/10781643823,9.0325481,0,,38.7736753
Kebena,node/10781643824,9.0344084,0,,38.7768069
Kokebe Tsebah (Kebena),node/10781643825,9.0350794,0,,38.7794124
Kenya Embassy (Kebena),node/10781643826,9.0324942,0,,38.7823515
British Embassy,node/10781643827,9.0309005,0,,38.785575
Abebe Sook,node/10781643828,9.0289673,0,,38.7888226
Shola (Yeka Court),node/10781643829,9.0251295,0,,38.7947497
Shola Abyssinia Bank,node/10781643830,9.0232585,0,,38.7984062
Megenagna (Marathon Motors),node/10781643831,9.0224046,0,,38.7997354
Megenagna,node/10781643832,9.0208971,0,,38.8010368
Megenagna (Israel Embassy),node/10781643833,9.0208722,0,,38.8048559
Lamberet Menaheria,node/10781643834,9.0240444,0,,38.8199227
Kotebe,node/10781643835,9.0297042,0,,38.836729
Kotebe,node/10781643836,9.0304539,0,,38.8385612
Kotebe Teachers College,node/10781643837,9.0348007,0,,38.8490303
Kotebe Gebriel,node/10781643838,9.0363204,0,,38.8553365
Kotebe Gebriel,node/10781643839,9.0358505,0,,38.8541265
Wessen Grocery,node/10781643840,9.032918,0,,38.8443436
Kara,node/10781643841,9.0407203,0,,38.8648947
Kara,node/10781643842,9.0411416,0,,38.8653607
Abebe Sook,node/10781844855,9.0287927,0,,38.788672
British Embassy,node/10781844856,9.0313214,0,,38.7843424
5 Kilo St. Mary,node/10781844857,9.038677,0,,38.7623866
6 Kilo University,node/10781844858,9.0462129,0,,38.7614003
6 Kilo University,node/10781844859,9.0462072,0,,38.7615945
6 Kilo (Lion Zoo),node/10781844860,9.0430896,0,,38.7615002
Kenya Embassy (Kebena),node/10781844861,9.032679,0,,38.7826601
Shola (Yeka Court),node/10781844862,9.0250431,0,,38.7953847
Megenagna (Marathon Motors),node/10781844863,9.0225097,0,,38.7998471
Yeka 03,node/10823916391,9.0381854,0,,38.8773834
Sefera Atkilt Tera,node/10842065101,8.931276,0,,38.7341685
kality Maseltegna,node/10842065103,8.9358559,0,,38.7646885
Bulgaria,node/10842065104,8.9948043,0,,38.7478806
Kality Customs,node/10842129005,8.9379429,0,,38.7628904
Germen Square,node/10842129006,8.9644696,0,,38.7330813
Hana Mariam,node/10842129008,8.93579,0,,38.7441345
Gomista,node/10842129009,8.9373819,0,,38.7703639
Nigd bank,node/10842129010,8.948706,0,,38.780123
kality Maseltegna,node/10842129011,8.9342123,0,,38.7642814
Kadisco,node/10842129012,8.9310906,0,,38.7585214
Adey abeba,node/10842129013,8.9582797,0,,38.7638648
Saris abo,node/10842129015,8.9457865,0,,38.7690665
Haile Garment,node/10842129016,8.93876,0,,38.7345583
Saris,node/10842129017,8.9546992,0,,38.7635479
Bole Cargo,node/10842129019,8.9834477,0,,38.7819099
Bulgaria,node/10842129020,8.9944221,0,,38.7483448
Kore,node/10842129021,8.9482742,0,,38.7765022
Saris Abo,node/10842129022,8.9444276,0,,38.7691994
Kality Menaheria,node/10842129023,8.8973782,0,,38.7704449
Sefera Square,node/10842129024,8.9254109,0,,38.7340982
Mexico,node/10842129025,9.009032,0,,38.7463895
Kality Gebriel,node/10842129026,8.9092945,0,,38.7644698
Derartu,node/10842129027,8.8869211,0,,38.7821218
Bole Cargo,node/10842129028,8.9836884,0,,38.7818039
Kality Total,node/10842129029,8.8948904,0,,38.7729402
Noc,node/10842129030,8.9927142,0,,38.748144
Lancha,node/10842129031,8.9901397,0,,38.7590821
Haile Garment,node/10842129032,8.9375158,0,,38.7359129
Agona,node/10842129033,8.9880834,0,,38.759633
kality Maseltegna,node/10842129034,8.9336783,0,,38.76464
Mesqelegna,node/10842129035,8.9417644,0,,38.7214531
Jemo,node/10842129037,8.9537651,0,,38.6979529
Adey abeba,node/10842129038,8.9577771,0,,38.7640443
Saris Abo,node/10842129040,8.9448318,0,,38.7661797
Mebrat hayle,node/10842129041,8.9457862,0,,38.7343973
Kadisco,node/10842129042,8.9633984,0,,38.7669226
Hana Mariam,node/10842129043,8.9356798,0,,38.7453864
Mamo (NFSL),node/10842129045,8.9729895,0,,38.7609585
Medhani alem,node/10842129046,8.9490785,0,,38.7785848
Mosque (Mesged),node/10842129047,8.9047633,0,,38.7660661
Kality Gebriel,node/10842129048,8.9093265,0,,38.7645559
Bole Roundabout,node/10842129051,8.9859342,0,,38.7888143
Wuhalimat,node/10842129052,8.9295556,0,,38.7681435
Hana Mariam,node/10842129053,8.9361549,0,,38.7445142
Bole Mickael,node/10842129054,8.9797944,0,,38.7719673
Sheger building,node/10842129055,8.9192813,0,,38.7635639
Yoseph,node/10842129056,8.9705748,0,,38.7668114
Bulgaria,node/10842129057,8.9947898,0,,38.7477478
Mebrathayil,node/10842129058,8.9470316,0,,38.7342346
Sefera Square,node/10842129059,8.9250202,0,,38.7346011
Tele Garage,node/10842129060,9.0000494,0,,38.758701
Mebrathayil,node/10842129061,8.9469179,0,,38.7339445
Haile garment,node/10842129062,8.9376734,0,,38.7335906
Meshualekia,node/10842129063,9.0058652,0,,38.758986
Adey abada,node/10842129066,8.9571801,0,,38.7640108
Menaheria (Zenebu Werk),node/10842129069,8.9755358,0,,38.706617
Adis sefer,node/10842129070,8.9602509,0,,38.767446
Kadisco,node/10842129071,8.930883,0,,38.758758
Bulgaria,node/10842129072,8.993831,0,,38.7478486
Kadisco,node/10842129073,8.9661182,0,,38.7627716
Bulbula,node/10842129074,8.9517202,0,,38.7861393
Kadisko,node/10842129075,8.966096,0,,38.7629867
Saris abo,node/10842129076,8.9444437,0,,38.7700795
Meshualekya,node/10842129077,8.8759809,0,,38.7875287
Agona,node/10842129078,8.9871416,0,,38.7597928
Gotera chaf,node/10842129079,8.9771026,0,,38.7595824
Saris,node/10842129080,8.9528149,0,,38.7633358
St. Joseph School,node/10842129082,9.0106804,0,,38.7593422
Kotari Condominium,node/10842129083,8.9321621,0,,38.7338312
Mamo,node/10842129084,8.9732793,0,,38.7652695
Saris Abo,node/10842129085,8.9448603,0,,38.7664084
Yosef,node/10842129086,8.9705442,0,,38.7665547
Kality Cheralia,node/10842129088,8.9068482,0,,38.7654586
Kality Cheralia,node/10842129089,8.9066965,0,,38.7653555
Lancha,node/10842129090,8.9906489,0,,38.7593009
Gomista,node/10842129091,8.9375024,0,,38.7701062
Haile Garment,node/10842129092,8.9375082,0,,38.7331196
Tele Garage,node/10842129093,9.0001174,0,,38.7584826
Selam Building,node/10842129094,8.8840544,0,,38.7767338
Medhani alem,node/10842129095,8.9453322,0,,38.7769101
Selam Building,node/10842129096,8.8831855,0,,38.7772259
Meshualekya,node/10842129097,8.8759552,0,,38.7872182
Saris,node/10842129098,8.9531876,0,,38.7635911
Germen adebabay,node/10842129102,8.963723,0,,38.7328242
Mamo (NFSL),node/10842129103,8.972508,0,,38.7607874
Kera,node/10842129105,8.9875165,0,,38.7486365
Agona,node/10842129106,8.9867627,0,,38.7599766
Saris abo,node/10842129107,8.9446574,0,,38.7701231
Kera,node/10842129108,8.9860883,0,,38.7483211
Gelan Condominium,node/10842129110,8.8790966,0,,38.7666013
Temenja yasi,node/10842129111,8.9953066,0,,38.7596133
Riche,node/10842129112,9.0041803,0,,38.7588933
Haile garment,node/10842129113,8.9368154,0,,38.7364242
Bole Mickael,node/10842129114,8.9795749,0,,38.7720906
Ayer Tena,node/10842129116,8.9835322,0,,38.6971287
Jemo,node/10842129117,8.9537239,0,,38.6977027
Land mark,node/10842129118,9.0052072,0,,38.7467544
Meskelegna,node/10842129119,8.9411484,0,,38.7218311
Haile Garment,node/10842129120,8.9381771,0,,38.7349153
Riche,node/10842129121,9.0040548,0,,38.7586909
Kore,node/10842129122,8.9476648,0,,38.7841911
Meshualekya,node/10842129124,8.8770606,0,,38.7866845
Bulbula,node/10842129125,8.9518942,0,,38.7863461
kality Maseltegna,node/10842129126,8.9357353,0,,38.7643342
Saris abo,node/10842129129,8.9457601,0,,38.7692278
Addis sefer,node/10842129131,8.9603252,0,,38.7676873
Hana mariam,node/10842129132,8.9352291,0,,38.744852
Kera,node/10842129133,8.9866879,0,,38.7484325
Gotera chaf,node/10842129134,8.9757898,0,,38.7601404
Akaki Subcity Office (Menaheria),node/10842129135,8.8972852,0,,38.770318
Condominium,node/10842129136,8.9411922,0,,38.7717099
Gelan Condominium,node/10842129137,8.8789992,0,,38.7666701
Wuhalimat,node/10842129139,8.9295931,0,,38.7683276
Mexico,node/10842129140,9.0098761,0,,38.7461882
Grand Anwar Mosque,node/10845731573,9.0312472,0,,38.7413343
Kebele 11,node/10845731574,9.0247282,0,,38.7457773
Guenet hotel,node/10845731575,9.0028738,0,,38.7468651
Lancia,node/10845731576,8.9923344,0,,38.7589891
Pepsi,node/10845731577,8.9825134,0,,38.755826
Lancia,node/10845731578,8.9919399,0,,38.7591215
Tekle Haimanot,node/10845731579,9.0279893,0,,38.7438378
Saris Abo,node/10845731580,8.9441872,0,,38.7666459
Legehar,node/10845731581,9.0120319,0,,38.7544517
Kera,node/10845731582,8.9841589,0,,38.7522272
Kality Customs,node/10845731583,8.9380577,0,,38.7631799
Gojam Berenda,node/10845731584,9.0342603,0,,38.7378007
Gojam Berenda,node/10845731585,9.0343553,0,,38.7381021
Derartu,node/10845731586,8.8868675,0,,38.7818631
Pepsi,node/10845731587,8.9824223,0,,38.7557408
Global Hotel,node/10845731588,8.9943898,0,,38.7596457
Sheger Building,node/10845731589,8.9208636,0,,38.7637542
Autobus Tera,node/10845731590,9.0343246,0,,38.734431
Guenet hotel,node/10845731591,9.0027786,0,,38.7469738
Tekle Haimanot,node/10845731592,9.0279685,0,,38.7439714
Beg Tera,node/10845731593,8.9970419,0,,38.7476261
Global Hotel,node/10845731594,8.9943499,0,,38.7598651
Kality Correctional,node/10845731595,8.9223845,0,,38.7641252
Cheralia Factory,node/10845731596,8.9029367,0,,38.7667306
Kebele 11,node/10845731597,9.0246149,0,,38.7457421
Grand Anwar Mosque,node/10845731598,9.0310422,0,,38.7414003
National Theatre,node/10845731599,9.0165472,0,,38.7526758
Sheger Building,node/10845731600,8.9214902,0,,38.7639368
Saris,node/10845731601,8.95346,0,,38.767986
Beg Tera,node/10845731602,8.9968163,0,,38.7475303
Sengatera,node/10845731603,9.014753,0,,38.7468099
Mexico,node/10845731604,9.0096228,0,,38.746301
Bulgaria,node/10845749005,8.9937615,0,,38.7479845
kality Meneharia,node/10845840895,8.8956285,0,,38.7720203
Ayer Tena,node/10845840896,8.9841176,0,,38.6966894
Germen adebabay,node/10845840897,8.9637758,0,,38.7330269
Kality Total,node/10846106471,8.8948231,0,,38.7728316
Bole Bridge,node/10881147490,8.9869946,0,,38.7912092
Bole Bridge,node/10881147492,8.9867302,0,,38.7903563
Autobus Tera,node/10883106542,9.0341009,0,,38.7338003
Bajaj Tera,node/10886135782,8.907041,0,,38.7415025
Chera,node/10886135783,8.904156,0,,38.7479978
Gelan Condominium,node/10886135784,8.8772921,0,,38.7622377
Total,node/10886135785,8.8549158,0,,38.7845626
Tulu Dimtu,node/10886135787,8.8737817,0,,38.8197795
Tulu Dimtu,node/10886135789,8.8738791,0,,38.8202354
G7,node/10886135790,8.8709574,0,,38.820802
Total,node/10886135791,8.8541896,0,,38.7847209
Gelan Condominium,node/10886135793,8.8758233,0,,38.7630121
Bole Bridge,node/10886281950,8.9906055,0,,38.7928534
Bole Medhanyalem,node/10886281951,8.9955183,0,,38.7887705
Edna Mall Squar,node/10886281952,8.9973425,0,,38.7870108
Adey Ababa Stadium,node/10886281953,9.0043569,0,,38.7892817
22 Mazoria,node/10886281954,9.0150262,0,,38.7872566
22 Mazoria,node/10886281956,9.0150056,0,,38.787438
Freedom,node/10886281958,9.0082739,0,,38.7887083
Werku Building,node/10886281997,9.0069454,0,,38.7890587
Adey Ababa Stadium,node/10886281998,9.0042976,0,,38.7893444
Edna Mall Squar,node/10886281999,8.9977034,0,,38.7869491
Bole Medhanyalem,node/10886282000,8.995948,0,,38.7885714
Bole Bridge,node/10886282001,8.9906936,0,,38.7929596
22 Mazoria,node/10886427067,9.0161537,0,,38.7881236
Lem Hotel,node/10886427068,9.017758,0,,38.7950715
Megenagna,node/10886427069,9.0198841,0,,38.8019786
Gurd Shola,node/10886427070,9.0191878,0,,38.8200261
Civil Servis College,node/10886427071,9.0218654,0,,38.8345374
Yetebaberut,node/10886427072,9.0209806,0,,38.8536095
Ayat,node/10886427073,9.0214852,0,,38.8750186
Civil Servis College,node/10886427074,9.0215577,0,,38.8350083
Ayat,node/10886427075,9.0211711,0,,38.8737977
Meshageria,node/10886427076,9.0204163,0,,38.8598848
Yetebaberut,node/10886427077,9.020619,0,,38.8535182
Bole Bora Amusement,node/10886883544,8.9907378,0,,38.7941243
Megenagna,node/10886883546,9.0185543,0,,38.8016982
Anbessa Garage,node/10886883547,9.0078296,0,,38.8034449
Emperial Hotel,node/10886883548,9.0037737,0,,38.8009392
Hayat Hospital,node/10886883549,8.9950343,0,,38.7961015
Bole Bora Amusement,node/10886883550,8.9916604,0,,38.7949793
Sun shine,node/10886991025,9.0199832,0,,38.852562
Megenagna,node/10886991026,9.0200202,0,,38.8042842
Meshualekia,node/10886991027,9.021578,0,,38.841553
Safari,node/10886991028,9.0110042,0,,38.8522797
Summit,node/10886991029,9.004015,0,,38.8519977
Summit,node/10886991031,9.004282,0,,38.8517386
Safari,node/10886991032,9.010941,0,,38.8519018
Sun shine,node/10886991033,9.0199154,0,,38.8520834
Meshualekia,node/10886991034,9.021324,0,,38.8415391
Michael,node/10886991035,9.021353,0,,38.8392942
Gurd Shola,node/10886991036,9.0187135,0,,38.8211275
Hayat Hospital,node/10887120325,8.9948468,0,,38.7956759
Sport Accadamy,node/10887120326,9.0001969,0,,38.798384
Emperial Hotel,node/10887120327,9.0027661,0,,38.8000262
Mulugeta Building,node/10887120328,9.0187177,0,,38.8016319
93 Mazoria,node/10890083966,8.9603848,0,,38.7855121
Kaldisco,node/10890083967,8.9623057,0,,38.7863684
Key Afer,node/10890083968,8.9642046,0,,38.7872114
Bole Bridge,node/10890083969,8.9901774,0,,38.7938035
Mulugeta Building,node/10890083974,9.0169433,0,,38.8025239
Key Afer,node/10890290096,8.9642211,0,,38.7873203
93 Mazoria,node/10890290097,8.9604784,0,,38.785703
Kebele,node/10890290098,8.9581348,0,,38.7875752
Anbessa Garage,node/10893030388,9.0080412,0,,38.8031745
Jacros,node/10893030389,9.0035488,0,,38.8169267
Alem Ayew Building,node/10893030390,8.9993201,0,,38.8210973
Goro,node/10893030392,8.9923039,0,,38.8283586
Goro,node/10893030394,8.9917123,0,,38.8287738
Goro School,node/10893030395,8.9939213,0,,38.8266397
Alem Ayew Building,node/10893030396,8.9992455,0,,38.8210064
Jacros,node/10893030397,9.0035377,0,,38.8166485
Sport Accadamy,node/10893030398,8.9999982,0,,38.7986195
Bole Bridge,node/10893030400,8.9911487,0,,38.7947324
Figa,node/10893316186,9.0122741,0,,38.8336594
Mesgid,node/10893316189,9.0110639,0,,38.8366122
Figa,node/10893316190,9.0121764,0,,38.8335762
Bole Mickael,node/10898980600,8.984658,0,,38.7731313
Ambasader,node/10898980601,9.0162838,0,,38.7551282
Dembel,node/10898980602,9.0069448,0,,38.7662663
Stadium,node/10898980603,9.0123922,0,,38.7586647
Metrology,node/10898980604,9.0192676,0,,38.7466456
Tikur Anbesa,node/10898986005,9.0217285,0,,38.7476072
Tikur Anbesa,node/10898986007,9.0207753,0,,38.7476005
Metrology,node/10898986008,9.0188878,0,,38.7467207
Ambasader,node/10898986009,9.0164136,0,,38.7553118
Stadium,node/10898986010,9.011485,0,,38.760062
Dembel,node/10898986011,9.0038396,0,,38.7686303
Bole Printing Press,node/10898986012,8.9979213,0,,38.7717243
Bole Mickael,node/10898986014,8.9849144,0,,38.7734946
Cinema Ras,node/10899009892,9.0318094,0,,38.7413697
Cinema Ras,node/10899009893,9.0317766,0,,38.7414723
Rwanda,node/10899150564,8.992509,0,,38.7781683
Shewa Dabo,node/10899150565,9.0017627,0,,38.7693116
St. Estifanos Church,node/10899150566,9.0120704,0,,38.7626611
Piassa Arada,node/10899150567,9.0321752,0,,38.7511048
Piassa Arada,node/10899150568,9.0330229,0,,38.7525581
Tewodros Square,node/10899150569,9.0264157,0,,38.7517894
Tikur Anbesa,node/10899150570,9.0210948,0,,38.7522625
Post Office,node/10899150571,9.019064,0,,38.7529153
Ghion Hotel,node/10899150572,9.0138467,0,,38.7576138
Bole Bridge,node/10899278324,8.9885561,0,,38.7897689
Friendship Building,node/10899278325,8.9908062,0,,38.7840796
Rwanda,node/10899278326,8.9923825,0,,38.7798445
Friendship Building,node/10899278327,8.9908613,0,,38.7844715
Bole Bridge,node/10899278328,8.9887169,0,,38.7898626
Anbessa Garage,node/10899524535,9.0084115,0,,38.8038533
Condominium - Gerji Mebrat hayle,node/10899524536,9.0049309,0,,38.8100683
Gerji Mebrat hayle,node/10899524537,9.0036683,0,,38.814209
Goro,node/10899524538,8.9913434,0,,38.8294024
kilinto Right,node/10899524539,8.900477,0,,38.815561
Tulu Dimtu,node/10899524540,8.8753804,0,,38.8197368
kilinto Right,node/10899524542,8.900461,0,,38.8150743
Goro,node/10899524543,8.9912832,0,,38.8292469
Gerji Mebrat hayle,node/10899524544,9.0035919,0,,38.8134376
Condominium - Gerji Mebrat hayle,node/10899524545,9.0050654,0,,38.8095948
Anbessa Garage,node/10899524547,9.0071868,0,,38.8055809
Mesgid,node/10899590290,9.011198,0,,38.8364067
Saint Georgis,node/10899590291,8.994461,0,,38.8518486
Saint Georgis,node/10899590293,8.994389,0,,38.8515329
Mebrathile,node/10899652823,8.9493529,0,,38.7332958
Gebriel Bridge,node/10899652824,8.9556186,0,,38.7324445
Mickael Bridge,node/10899652825,8.965384,0,,38.7273491
Zenebewerk,node/10899652826,8.9727473,0,,38.7121031
Chaina Camp,node/10899652827,8.975714,0,,38.7055213
Ayer Tena,node/10899652829,8.981635,0,,38.6982059
Haile Garment,node/10901428140,8.9385233,0,,38.7348966
Sefera,node/10901428141,8.9201595,0,,38.7353205
Sefera Atkilt Tera,node/10901428142,8.9311784,0,,38.7337094
Sefera,node/10901428143,8.9208099,0,,38.734667
Mesalemia,node/10901522017,8.8870433,0,,38.7519617
Chera Medhanilem,node/10901522018,8.9032086,0,,38.7484085
Haile Garment,node/10901522020,8.935726,0,,38.7346387
Chera Medhanilem,node/10901522021,8.9034769,0,,38.7491293
Mesalemia,node/10901522022,8.8871115,0,,38.7524365
Saris,node/10901643508,8.9530332,0,,38.7629397
58 Mazoria,node/10901643510,8.9431476,0,,38.7540078
Kidane Mihret Stebel,node/10901643511,8.9405222,0,,38.7500946
Mexico,node/10902267327,9.0084289,0,,38.7447143
Mexico,node/10902267330,9.0084377,0,,38.7448728
AU (Mikael) Rounrdabout,node/10902267332,8.9990666,0,,38.7393711
AU (Mikael) Rounrdabout,node/10902267333,8.9990162,0,,38.7395668
Sar Bet,node/10902267334,8.9923567,0,,38.7381301
Sar Bet,node/10902267335,8.9923453,0,,38.7383324
Abo Mazoria,node/10902267336,8.9822679,0,,38.7342938
Abo Mazoria,node/10902267337,8.9823292,0,,38.7344209
Mekanisa,node/10902267338,8.9729293,0,,38.7311351
Mekanisa,node/10902267339,8.9728812,0,,38.7312498
Gebriel Bridge,node/10902267340,8.9555964,0,,38.732719
58 Mazoria,node/10903393900,8.9432326,0,,38.7539257
Varnelo Squer,node/10903398373,8.9487486,0,,38.7267004
Jemmo 1,node/10903398374,8.9594798,0,,38.7117668
Jemmo 1,node/10903398375,8.9585188,0,,38.712128
Jemmo Medhanialem,node/10903398376,8.9524535,0,,38.7161087
Jemmo Medhanialem,node/10903398377,8.9525568,0,,38.7162235
Kebele,node/10903398378,8.9490672,0,,38.7221583
Kebele,node/10903398379,8.9491872,0,,38.7221797
Varnelo Squer,node/10903398380,8.9488837,0,,38.7267159
Sar Bet,node/10904734315,8.9951163,0,,38.7373285
Austria Embassy,node/10904734316,8.9936468,0,,38.7276618
Total 3 Kuter Mazoria,node/10904734318,8.9922476,0,,38.7177291
Autobus Tera,node/10905160356,9.0330017,0,,38.7322404
Autobus Tera,node/10905160357,9.033026,0,,38.7323851
Sebategna,node/10905160358,9.0282768,0,,38.7329553
Sebategna,node/10905160359,9.0283274,0,,38.7331326
Abenet,node/10905160360,9.021201,0,,38.7333187
Abenet,node/10905160361,9.0196344,0,,38.7335682
Darmar,node/10905160362,9.0158211,0,,38.7346366
Darmar,node/10905160363,9.0154497,0,,38.7347971
Lideta Condominium,node/10905160364,9.0133778,0,,38.7343382
Lideta Condominium,node/10905160365,9.0133623,0,,38.7345056
Dessie Hotel,node/10905160366,9.0094187,0,,38.7337879
Dessie Hotel,node/10905160367,9.0093029,0,,38.7339331
Lideta,node/10905160368,9.0046165,0,,38.7337058
Lideta,node/10905160369,9.0041332,0,,38.7338158
AU (Mikael) Rounrdabout,node/10905160370,9.0001611,0,,38.7393722
AU (Mikael) Rounrdabout,node/10905160371,8.9999889,0,,38.7400667
Kera,node/10905641592,8.9839514,0,,38.7518897
Jemmo 1,node/10905771998,8.9606229,0,,38.7123799
Jemmo Mickael,node/10905771999,8.9688439,0,,38.7216431
Metrology,node/10905772000,9.0192423,0,,38.7468034
karl Square,node/10905772001,8.9969985,0,,38.7304143
Bisrate Gebrael,node/10905772002,8.9883364,0,,38.7227062
Jemmo Mickael,node/10905772003,8.9687533,0,,38.7218663
Jemmo 1,node/10905772004,8.9604031,0,,38.7124299
Noc,node/10905866700,8.9493317,0,,38.6701812
Alem Gena,node/10905876026,8.9339514,0,,38.6639521
Alem Gena,node/10905876027,8.933851,0,,38.6640124
Noc,node/10905876029,8.9493415,0,,38.670031
Jemmo 3 Squer,node/10905876030,8.9538566,0,,38.6965362
Jemmo 3 Squer,node/10905876031,8.9552123,0,,38.697557
Post Office,node/10905982178,9.0220649,0,,38.7520387
Germen Square,node/10905982179,8.9652918,0,,38.732839
Germen Square,node/10905982180,8.9664306,0,,38.7325545
Gofa,node/10906020778,8.9717027,0,,38.7418952
Gofa,node/10906020779,8.9716231,0,,38.7419996
Ayer Tena,node/10906074341,8.9816221,0,,38.6979766
Germen Square,node/10906074342,8.9644965,0,,38.7320917
Germen Square,node/10906074343,8.9646595,0,,38.732112
Mesked,node/10907679395,8.9883638,0,,38.6922765
Kidane Mihret,node/10907679396,8.9913917,0,,38.6893136
Tropical,node/10907679398,8.9958978,0,,38.683541
Alem Bank,node/10907679399,9.0003808,0,,38.677926
Alem Bank,node/10907679400,9.0010321,0,,38.6776565
Tropical,node/10907679401,8.9957016,0,,38.6841485
Kidane Mihret,node/10907679402,8.9915373,0,,38.689491
Mesked,node/10907679403,8.9884696,0,,38.6925125
Chaina Camp,node/10907679404,8.9757717,0,,38.7060819
Zenebewerk,node/10907725405,8.9730472,0,,38.7121867
Mickael Bridge,node/10907725406,8.9655559,0,,38.7275949
Germen Square,node/10907781477,8.9648278,0,,38.7333383
Kera,node/10907781478,8.9844811,0,,38.7500865
Kera,node/10907781479,8.9842955,0,,38.750364
Gofa Gebriel,node/10907781480,8.9770976,0,,38.7490157
Gofa Gebriel,node/10907781481,8.9770919,0,,38.7491174
Mekanisa Abo,node/10908143594,8.9832814,0,,38.7343726
Mekanisa Abo,node/10908143595,8.9830621,0,,38.7341531
Mexico,node/10908143596,9.0088673,0,,38.7440188
Mexico,node/10908143597,9.0088181,0,,38.7438
Tewodros Square,node/10908191497,9.0263912,0,,38.7516402
Mekanisa,node/10908191498,8.9739466,0,,38.7321651
Mekanisa,node/10908191499,8.9738507,0,,38.7322539
Post Office,node/10908191500,9.0187971,0,,38.7524753
Mebrathile,node/10908661149,8.9493572,0,,38.7334477
Coca Cola,node/10909186645,9.0159317,0,,38.729496
Merab Hotel,node/10909186646,9.0294352,0,,38.735361
Abenet,node/10909186647,9.0213907,0,,38.7334955
Merab Hotel,node/10909186648,9.0293588,0,,38.7353749
Kolfe Keranyo,node/10909186649,9.016555,0,,38.7180312
Holand,node/10909186650,9.0203575,0,,38.7159578
Holand,node/10909186651,9.0204824,0,,38.7162551
Kolfe Keranyo,node/10909186652,9.017036,0,,38.7176312
Kolfe Keranyo,node/10909186653,9.0171583,0,,38.7179346
Torhayloch,node/10909186654,9.0122446,0,,38.7202541
Torhayloch,node/10909186655,9.0120497,0,,38.7202419
Keranio Mewcha,node/10909186657,9.0134653,0,,38.7097752
Keranio Mewcha,node/10909186658,9.0133225,0,,38.7097861
Mewcha,node/10909186659,9.0140592,0,,38.7049946
Mewcha,node/10909186660,9.0139288,0,,38.7050058
Mendida,node/10909186661,9.0153205,0,,38.6994498
Mendida,node/10909186662,9.0151509,0,,38.6995858
Betel,node/10909186663,9.0037697,0,,38.6937692
Betel,node/10909186664,9.0036921,0,,38.6937746
Alem Bank,node/10909186665,9.0017481,0,,38.6775777
Alem Bank,node/10909186666,9.0016995,0,,38.677633
Zenebewerk,node/10911198617,8.9868549,0,,38.7080844
Zenebewerk,node/10911198618,8.9867824,0,,38.7081829
Ayer Tena,node/10911198619,8.9838366,0,,38.6961361
Mexico Shebelle Hotel,node/10911242345,9.0114518,0,,38.7446969
Mexico Shebelle Hotel,node/10911242346,9.0114526,0,,38.7445773
Lideta,node/10911242347,9.0117415,0,,38.7336365
Lideta,node/10911242348,9.0115482,0,,38.7336469
Alem Bank,node/10911242349,9.001869,0,,38.6772002
Alem Bank,node/10911242350,9.0018954,0,,38.6769434
Ayer Tena,node/10911695404,8.9834957,0,,38.7007283
Betel,node/10911717876,9.0044227,0,,38.6943792
Betel,node/10911717877,9.0043939,0,,38.6942024
Ayer Tena,node/10911725505,8.9831049,0,,38.6982237
Zenebewerk,node/10912835918,8.9879977,0,,38.7080303
Zenebewerk,node/10912835920,8.9880219,0,,38.7079594
Mebrat Haile,node/10913852032,9.0295143,0,,38.714679
Mebrat Haile,node/10913852033,9.0294826,0,,38.7149385
18 Mazoria,node/10913852034,9.0334554,0,,38.7146172
18 Mazoria,node/10913852035,9.0334598,0,,38.714468
Abenet,node/10913863174,9.0196268,0,,38.7327435
Abenet,node/10913863175,9.0194053,0,,38.7327231
Coca Cola,node/10913863176,9.0159095,0,,38.7296372
Torhayloch,node/10913863177,9.0117875,0,,38.7222401
Torhayloch,node/10913863178,9.0096837,0,,38.7208808
Augusta Bridge,node/10913863179,9.0056583,0,,38.7185634
Augusta Bridge,node/10913863180,9.0055925,0,,38.7188581
Old Airport,node/10913863181,9.0000925,0,,38.7188599
Old Airport,node/10913863182,8.9998426,0,,38.7191188
3 Kutir Mazoriya (Total),node/10913863183,8.9932525,0,,38.7170227
3 Kutir Mazoriya (Total),node/10913863184,8.9926315,0,,38.7158494
Kara Kore,node/10913974717,8.9756363,0,,38.6817486
Kara Kore,node/10913974718,8.9754096,0,,38.6814462
Gerar,node/10913974719,8.9813701,0,,38.6894126
Gerar,node/10913974720,8.9813486,0,,38.6894421
Ayer Tena,node/10913974721,8.9829716,0,,38.6982009
Mexico,node/10914160973,9.0116587,0,,38.746198
Mexico,node/10914160974,9.0102476,0,,38.7438026
Zenebewerk,node/10914160976,8.987734,0,,38.708928
Zenebewerk,node/10914160977,8.9849086,0,,38.7049751
Zenebewerk Meneharia,node/10914680945,8.9853381,0,,38.7053463
Zenebewerk Meneharia,node/10914680946,8.9852574,0,,38.7056363
Atena Tera,node/10914784456,9.0417169,0,,38.71237
Atena Tera,node/10914784457,9.0414427,0,,38.7127192
Tekle Haimanot,node/10915613002,9.028352,0,,38.7426711
Tekle Haimanot,node/10915613003,9.0281855,0,,38.742622
Asko,node/10915905485,9.0658063,0,,38.6937551
Asko,node/10915905486,9.065919,0,,38.6937141
Chereta,node/10915905487,9.0612502,0,,38.7010467
Chereta,node/10915905488,9.0612523,0,,38.7011727
Gulele Fana,node/10915905489,9.0575666,0,,38.7069671
Gulele Fana,node/10915905490,9.0576638,0,,38.7070447
Awolia,node/10915905491,9.0572628,0,,38.7114229
Awolia,node/10915905492,9.0576104,0,,38.7116493
Winget,node/10915905493,9.0555179,0,,38.7124522
Winget,node/10915905494,9.0554488,0,,38.7127252
Kokebe,node/10918141989,9.018116,0,,38.6993091
Kokebe,node/10918141990,9.0178995,0,,38.6991634
Yeshi Debele,node/10918141991,9.0188526,0,,38.6969603
Yeshi Debele,node/10918141992,9.0185806,0,,38.6972043
Keranio Adebabay,node/10918141993,9.0177704,0,,38.7017975
Keranio Adebabay,node/10918141994,9.0176839,0,,38.7006617
Medhanalem,node/10918141995,9.0178222,0,,38.7049143
Medhanalem,node/10918141996,9.0175512,0,,38.7047128
Torhayloch,node/10918245686,9.0115804,0,,38.7208703
Torhayloch,node/10918245687,9.0099639,0,,38.720685
Torhayloch,node/10918314820,9.0114229,0,,38.7225031
Torhayloch,node/10918339958,9.0128836,0,,38.7206095
Legehar,node/10922141942,9.0118511,0,,38.7544283
Zebera,node/10923884107,9.0691686,0,,38.7174162
Addisu Gebeya,node/10923884109,9.0630022,0,,38.7350114
Addisu Gebeya,node/10923884110,9.0625854,0,,38.7352489
Bera Tera,node/10923884111,9.0670589,0,,38.725597
Zebera,node/10923884112,9.0689759,0,,38.7174444
Addisu Gebeya,node/10923941250,9.0594889,0,,38.7374564
Addisu Gebeya,node/10923941251,9.059208,0,,38.7379019
Semen Mazegaga,node/10923941252,9.0528165,0,,38.7431266
Semen Mazegaga,node/10923941253,9.0528691,0,,38.7432318
Shola,node/10923941254,9.0483987,0,,38.7461562
Shola,node/10923941255,9.0484505,0,,38.7462522
Semen Hotel,node/10923941256,9.0446634,0,,38.7483104
Semen Hotel,node/10923941257,9.0446029,0,,38.7485012
Yohanes,node/10923941258,9.0425995,0,,38.745274
Yohanes,node/10923941259,9.0425158,0,,38.7453414
Eritrea Hotel,node/10923941260,9.0346843,0,,38.7394065
Eritrea Hotel,node/10923941261,9.0347991,0,,38.7393526
Medhanalem,node/10924087993,9.0552727,0,,38.7517928
Medhanalem,node/10924087994,9.0552441,0,,38.7518851
Chelote,node/10924087995,9.0520868,0,,38.7497489
Chelote,node/10924087996,9.0521299,0,,38.7496604
Shola,node/10924087997,9.0479898,0,,38.746423
Shola,node/10924087998,9.0480732,0,,38.7465175
St. George Church,node/10924088002,9.0385287,0,,38.7516855
St. George Church,node/10924088003,9.0385651,0,,38.7518109
Piassa,node/10924088004,9.0365922,0,,38.7521881
Piassa,node/10924116805,9.0341764,0,,38.7533491
Kechenie,node/10924116806,9.0650022,0,,38.7492165
Kechenie,node/10924116808,9.0652677,0,,38.7497807
Shegole,node/10924211089,9.0639755,0,,38.7268465
Shegole,node/10924211090,9.0640548,0,,38.7269586
Rufael,node/10924211093,9.0590346,0,,38.7274953
Rufael,node/10924211094,9.0590438,0,,38.7274376
Tureta Deldy,node/10924211095,9.0544658,0,,38.7329754
Tureta Deldy,node/10924211096,9.054531,0,,38.7330307
Enqulal Fabrica,node/10924211097,9.0492619,0,,38.7377403
Enqulal Fabrica,node/10924211098,9.0492678,0,,38.7378298
Ras Desta,node/10924212637,9.0444679,0,,38.7440337
Ras Desta,node/10924212638,9.0444022,0,,38.7439161
Sebara Babur,node/10924212640,9.0375917,0,,38.7483682
Abune Petros,node/10924212641,9.0358617,0,,38.749271
Abune Petros,node/10924212642,9.0359205,0,,38.7494119
Yohanes,node/10924212643,9.04258,0,,38.7458165
Yohanes,node/10924212644,9.0426863,0,,38.7459326
Shola Abyssinia Bank,node/10924342466,9.0230837,0,,38.79823
British Embassy,node/10924342467,9.0307347,0,,38.7854804
Menelik II Hospital,node/10924342468,9.0385889,0,,38.7730468
Menlik Hospital,node/10924342469,9.0385052,0,,38.7728666
6 Kilo,node/10924342470,9.0437871,0,,38.761858
6 Kilo,node/10924342471,9.0453786,0,,38.7613161
Piassa,node/10924981547,9.0352542,0,,38.7527884
Kazanchis,node/10924981836,9.0168504,0,,38.7714084
Kazanchis,node/10924981837,9.0167816,0,,38.7712817
Meneharya,node/10924981839,9.0199981,0,,38.767286
6 Kilo,node/10924981840,9.0462061,0,,38.7614317
6 Kilo,node/10924981841,9.046202,0,,38.7615616
6 Kilo (Lion Zoo),node/10925096455,9.0430636,0,,38.7613028
Medhanalem,node/10925096457,9.0509212,0,,38.7621679
Shiromeda,node/10925096458,9.0609308,0,,38.7616364
Shiromeda,node/10925096459,9.0610296,0,,38.7618074
Abune Petros,node/10925161777,9.0350989,0,,38.7493321
Abune Petros,node/10925161778,9.0353615,0,,38.7492809
St. George Total,node/10925161780,9.0385895,0,,38.7526253
Raguel Church,node/10925161781,9.0338335,0,,38.7411822
Raguel Church,node/10925161782,9.0340374,0,,38.7413278
Piassa,node/10925161783,9.0352768,0,,38.7491307
Piassa,node/10925161784,9.0350881,0,,38.749266
Mexico,node/10925195639,9.0115722,0,,38.7462619
Winget,node/10925695034,9.0572967,0,,38.7130281
Winget,node/10925695035,9.0576478,0,,38.7136024
Shegole,node/10925835130,9.0630668,0,,38.7201372
Shegole,node/10925835131,9.0630578,0,,38.7201639
Medhanalem,node/10925835153,9.051016,0,,38.7226821
Medhanalem,node/10925835154,9.0512021,0,,38.7228048
Pawlos Hospital,node/10925835155,9.047368,0,,38.7275912
Pawlos Hospital,node/10925835156,9.0474739,0,,38.7277025
Pastor,node/10925835157,9.0462435,0,,38.7306013
Pastor,node/10925835158,9.0460773,0,,38.7305979
Michael,node/10925835159,9.041653,0,,38.7324674
Michael,node/10925835160,9.0418749,0,,38.732621
Autobus Tera,node/10925835161,9.0356953,0,,38.731876
Autobus Tera,node/10925835162,9.0357033,0,,38.731937
Summit Condominiums,node/10925946103,8.9844426,0,,38.8548285
Summit Condominiums,node/10925946104,8.9909634,0,,38.8525995
Meshageria,node/10925966505,9.0206981,0,,38.8598883
Derartu Adebabay,node/10925966506,9.0212039,0,,38.8751635
Derartu Adebabay,node/10925966507,9.0215357,0,,38.8751433
Gebreal,node/10925966508,9.0403679,0,,38.8773377
Gebreal,node/10925966509,9.0402783,0,,38.8778174
Aba Kiros,node/10925966510,9.0556843,0,,38.8778648
Aba Kiros,node/10925966511,9.0561259,0,,38.8785325
Bole Arabsa,node/10926028111,8.9732139,0,,38.8903446
Bole Arabsa,node/10926028112,8.9726305,0,,38.8904415
Maseltegna,node/10926028113,8.9932453,0,,38.8850892
Maseltegna,node/10926028114,8.9932023,0,,38.8854551
Sun shine,node/10926028115,9.0100814,0,,38.8780839
Sun shine,node/10926028116,9.0100956,0,,38.8779385
Ayat,node/10926028117,9.0215285,0,,38.8770142
Mariam,node/10926040103,8.9875932,0,,38.8848989
Mariam,node/10926040104,8.9875847,0,,38.8852531
Ayat,node/10926074605,9.0212341,0,,38.8767405
Summit Condominiums,node/10926094674,8.9910294,0,,38.8529201
Megenagna,node/10926094675,9.0195894,0,,38.8033659
Megenagna,node/10926817920,9.0203394,0,,38.8038784
Tafo Square,node/10926817921,9.057063,0,,38.8779123
Tafo Square,node/10926817922,9.0566681,0,,38.8780073
Sun shine,node/10926849848,9.0021737,0,,38.8763861
Summit Chafe,node/10926849849,9.0011674,0,,38.8537813
Summit Chafe,node/10926849850,9.0015569,0,,38.8537842
Goro,node/10926849851,8.9918731,0,,38.8299549
Goro,node/10926849852,8.9917194,0,,38.8303813
Se'alite Mihret,node/10926896755,9.0194791,0,,38.8256621
Se'alite Mihret,node/10926896756,9.0198404,0,,38.8254269
Ayat Chefe Condominium,node/10926896757,9.0109362,0,,38.8944977
Ayat Chefe Condominium,node/10926896758,9.0113892,0,,38.8946434
Ayat,node/10928177661,9.0207778,0,,38.8758009
Summit Condominiums,node/10928876312,8.9846036,0,,38.854445
Summit Condominiums,node/10928876313,8.9844416,0,,38.8548242
Tewodros Square,node/10929299420,9.0273248,0,,38.751565
Tewodros Square,node/10929299421,9.0273553,0,,38.7517149
Tikur Anbesa,node/10929299422,9.0209798,0,,38.7480915
Mexico,node/10929337801,9.0105347,0,,38.7449001
Stadium,node/10929337802,9.0119557,0,,38.7559408
Stadium,node/10929337803,9.0121328,0,,38.7559437
Megenagna,node/10929412718,9.0195364,0,,38.8009614
Megenagna,node/10929412719,9.0190569,0,,38.8005907
22 Mazoria,node/10929412721,9.0155693,0,,38.787267
Lem Hotel,node/10929694820,9.0211986,0,,38.7940688
Lem Hotel,node/10929694821,9.0210828,0,,38.7939939
Signal,node/10929694822,9.0235014,0,,38.7815067
Signal,node/10929694823,9.0233755,0,,38.781471
Abuare Gebeya,node/10929694824,9.0280712,0,,38.7718347
Abuare Gebeya,node/10929694825,9.0279894,0,,38.7718123
Tewodros Square,node/10929694826,9.0270034,0,,38.7520638
Tewodros Square,node/10929694827,9.0268625,0,,38.7520149
Tekle Haimanot,node/10929694828,9.0285216,0,,38.744541
Tekle Haimanot,node/10929694829,9.0284531,0,,38.74454
Megenagna,node/10929694830,9.020064,0,,38.8009431
Megenagna,node/10929694831,9.0200336,0,,38.8005994
Torhayloch,node/10929752934,9.0127448,0,,38.7209032
Megenagna,node/10931788261,9.0225048,0,,38.7998465
Megenagna,node/10931788262,9.021325,0,,38.8010821
Kotebe,node/10931809323,9.0303308,0,,38.8385778
Se'alite Mihret,node/10931809324,9.0284671,0,,38.8331547
Se'alite Mihret,node/10931809325,9.0283689,0,,38.833187
Lamberet,node/10931809326,9.0216042,0,,38.8139293
Lamberet,node/10931809327,9.0214909,0,,38.813953
Kara,node/10931809328,9.0404534,0,,38.8642169
Kara,node/10931809329,9.0404001,0,,38.864319
Megenagna,node/10931809330,9.0216983,0,,38.8015712
Megenagna,node/10931850027,9.0224128,0,,38.799743
Kokebe Tsebah (Kebena),node/10931850028,9.0344299,0,,38.7799581
4 Kilo,node/10931884718,9.036142,0,,38.7628341
Ferensay,node/10931884719,9.0571169,0,,38.7769686
Ferensay,node/10931884720,9.0570142,0,,38.7769596
Mezan,node/10931884721,9.0535366,0,,38.7722195
Mezan,node/10931884722,9.0535794,0,,38.7721316
Jan Meda,node/10931884723,9.0470261,0,,38.7690665
Jan Meda,node/10931884724,9.0471196,0,,38.7690208
Megenagna,node/10931937848,9.0180915,0,,38.8021444
Kadisco,node/10931937849,8.9633989,0,,38.766754
Kebena,node/10931995346,9.0347501,0,,38.776629
6 Kilo,node/10932040828,9.0435664,0,,38.7618099
St. George Total,node/10932040829,9.0386325,0,,38.7526555
St. George Total,node/10932040830,9.038614,0,,38.7527659
Lem Hotel,node/10932115661,9.017586,0,,38.7950974
Lamberet,node/10932115662,9.0239221,0,,38.8198719
Mexico,node/10932115666,9.0107374,0,,38.7471612
Mexico,node/10932115667,9.0104411,0,,38.7467607
Shola Gebeya,node/10933668851,9.0249902,0,,38.796095
Shola Gebeya,node/10933668852,9.0253078,0,,38.7963986
Beg Tera,node/10933668868,9.0290044,0,,38.8021516
Beg Tera,node/10933668869,9.0289126,0,,38.802143
Zebera,node/10933668870,9.0315916,0,,38.8093843
Zebera,node/10933668871,9.0314928,0,,38.8094344
Kidane Mihret,node/10933668873,9.0355162,0,,38.818742
Kidane Mihret,node/10933668874,9.0355971,0,,38.8186176
St. Urael Church,node/10933970678,9.0113969,0,,38.7750759
St. Urael Church,node/10933970679,9.0110384,0,,38.7752362
Atlas,node/10934121405,9.004269,0,,38.7797684
Atlas,node/10934121406,9.0041884,0,,38.779678
St. Urael Church,node/10934121407,9.0103387,0,,38.7748368
St. Urael Church,node/10934121408,9.0104642,0,,38.7749361
Kera,node/10934142102,8.9843274,0,,38.7518505
Kera,node/10934142103,8.9840695,0,,38.7515846
4 Kilo,node/10934274056,9.0324426,0,,38.7632997
St. Estifanos,node/10934274058,9.012454,0,,38.762845
Buna Ena Shay,node/10934274059,9.0109591,0,,38.7482685
Buna Ena Shay,node/10934274060,9.0106827,0,,38.748215
4 Kilo,node/10936313832,9.032283,0,,38.7645933
4 Kilo,node/10936313833,9.0323383,0,,38.7648081
Sebategna,node/10936490562,9.0289759,0,,38.7321818
Sebategna,node/10936490563,9.028913,0,,38.7322093
Amanuel Total,node/10936490564,9.0258457,0,,38.7211312
Amanuel Total,node/10936490565,9.0258301,0,,38.721144
Winget,node/10936621813,9.0576027,0,,38.7131944
Enqulal Fabrica,node/10936724096,9.0486146,0,,38.7375414
Enqulal Fabrica,node/10936724097,9.0485559,0,,38.7377157
karl Square,node/10937101933,8.9975486,0,,38.731079
6 Kilo,node/10937167108,9.0442105,0,,38.7610795
6 Kilo,node/10937167109,9.0442026,0,,38.7614376
Kera,node/10937209934,8.9877236,0,,38.7484685
Kechenie,node/10937271651,9.0652788,0,,38.7497785
Mesalemia,node/10961301939,9.033877,0,,38.7252968
Mesalemia,node/10961301940,9.0339779,0,,38.7255313
Merkato,node/10961301941,9.0338527,0,,38.7312096
Merkato,node/10961301942,9.0337645,0,,38.7312282
Tekle Haimanot,node/10961408041,9.028926,0,,38.7433286
Abuare Roundabout,node/10961408042,9.0264526,0,,38.7757907
Abuare Roundabout,node/10961408043,9.0265186,0,,38.7759091
Keranio Adebabay,node/10961408397,9.0178983,0,,38.7007101
Mendida,node/10961408398,9.014972,0,,38.7004401
Mendida,node/10961408399,9.0151204,0,,38.7004576
Bole Medhanyalem,node/10963292174,8.9983425,0,,38.7860616
Bole Medhanyalem,node/10963292175,8.9984526,0,,38.7862416
Weybla Mariam,node/10963817572,9.0231558,0,,38.688451
Weybla Mariam,node/10963817573,9.0233344,0,,38.6882249
22 Mazoria,node/10963932669,9.0159879,0,,38.7889432
Bisrate Gebrael,node/10964879159,8.9884101,0,,38.7226406
Luwkanda,node/10970584167,9.0333084,0,,38.7086432
Luwkanda,node/10970584168,9.0332835,0,,38.7086485
18 Mazoria,node/10970584169,9.0335266,0,,38.7126753
18 Mazoria,node/10970584170,9.0335023,0,,38.7126794
Abysinia Coffee,node/10970584171,9.0372905,0,,38.7164132
Abysinia Coffee,node/10970584172,9.037294,0,,38.7164416
18 Mazoria,node/10970748190,9.0337305,0,,38.7149465
4 Menta Adebabay,node/10970748192,9.0515413,0,,38.7087797
4 Menta Adebabay,node/10970748193,9.0514981,0,,38.7088057
Tero Mosque,node/10970748194,9.0503697,0,,38.7058937
Tero Mosque,node/10970748195,9.0503743,0,,38.7058901
Sebategna,node/10970823802,9.0294218,0,,38.7327781
Sebategna,node/10970823803,9.0294686,0,,38.732906
Piassa Arada,node/10970829160,9.0350955,0,,38.7492677
Piassa Arada,node/10970912911,9.033556,0,,38.7535518
Rufael,node/10970912912,9.0542225,0,,38.6992026
Rufael,node/10970912913,9.0542148,0,,38.6992201
Selefia Mosque,node/10973319411,8.9922493,0,,38.6737826
Selefia Mosque,node/10973319412,8.9922388,0,,38.6737682
Piassa Arada,node/10973319413,9.0343357,0,,38.7498429
Piassa Arada,node/10973319414,9.0343492,0,,38.749831
Shiromeda,node/10973319416,9.0610285,0,,38.7606274
Shiromeda,node/10973319417,9.0610076,0,,38.760666
Akaki Gebeya,node/10973446898,8.8697296,0,,38.7886493
Akaki Gebeya,node/10973446899,8.8697306,0,,38.7886284
Meshualekya,node/10973446900,8.8769296,0,,38.7864676
Mebrathayil,node/10973631794,8.9482942,0,,38.734517
Mebrathayil,node/10973631795,8.9481457,0,,38.7344951
Lafto,node/10973631797,8.9473757,0,,38.7443373
Yeshi Total,node/10973672014,8.8667554,0,,38.798935
Megenagna,node/10973929780,9.0206661,0,,38.8028464
Biretabret,node/10973929781,9.0339313,0,,38.8234705
Hanna Mariam,node/10973929783,9.0375694,0,,38.8316053
Hanna Mariam,node/10973929784,9.037593,0,,38.8316071
Kotebe Teachers College,node/10973929786,9.0374618,0,,38.8388573
Kotebe Gebriel,node/10973929787,9.0390977,0,,38.8505525
Kotebe Gebriel,node/10973929788,9.039072,0,,38.8505551
Kotebe,node/10973960231,9.0357328,0,,38.8279461
Kotebe,node/10973960232,9.035744,0,,38.8279666
Kebena,node/10973960233,9.0343234,0,,38.7769466
Yeka Abado,node/10974036529,9.0637787,0,,38.8735567
Yeka Abado,node/10974036530,9.0638007,0,,38.8734371
Taxi Tera,node/10989247669,8.9948109,0,,38.8092174
Bole Bridge,node/10989247670,8.9888698,0,,38.7945353
Summit,node/10989247671,9.0048732,0,,38.8517594
Summit,node/10989247672,9.0050343,0,,38.8520615
Medhanalem,node/10989247673,9.0005807,0,,38.838022
Medhanalem,node/10989247674,9.0002413,0,,38.8382224
Bole Mickael,node/10989306740,8.9791887,0,,38.7737291
Bole Mickael,node/10989306742,8.979439,0,,38.7732491
Riventy,node/10989306744,8.9647488,0,,38.798111
Riventy,node/10989306745,8.9647649,0,,38.7981165
Lomi Meda,node/10989322788,9.0437261,0,,38.6991226
Philiphs,node/10989322789,9.0423415,0,,38.7046602
Philiphs,node/10989322790,9.0423523,0,,38.7046599
Atena Tera,node/10989322793,9.0417345,0,,38.7116329
Atena Tera,node/10989322794,9.0417198,0,,38.7116327
Atena Tera,node/10989352901,9.0418861,0,,38.7128543
Atena Tera,node/10989352903,9.0419946,0,,38.7136815
Kolfe,node/10989352904,9.037404,0,,38.7169566
Kolfe,node/10989388405,9.0373552,0,,38.7170428
Chid Tera,node/10989388406,9.0376969,0,,38.7213864
Chid Tera,node/10989388407,9.0375624,0,,38.7215618
Tourist Hotel,node/10989495135,9.0339795,0,,38.760933
Tourist Hotel,node/10989495136,9.0331899,0,,38.7627083
St. George Church,node/10989495137,9.0365466,0,,38.7522109
St. George Church,node/10989495138,9.0365649,0,,38.7524292
Amanuel Church,node/10989606497,9.0280891,0,,38.723026
Amanuel Church,node/10989606498,9.0280827,0,,38.7230514
Mesalemia,node/10989606501,9.0330957,0,,38.7246409
Mesalemia,node/10989606502,9.0330994,0,,38.7246228
Coca Cola,node/10989606503,9.0170151,0,,38.729182
Coca Cola,node/10989606504,9.0169029,0,,38.7293902
Tikur Anbesa,node/10989700748,9.0216869,0,,38.7477611
Tikur Anbesa,node/10989700750,9.0214822,0,,38.7476433
Megenagna,node/10989765272,9.0198621,0,,38.8028176
Tourist Hotel,node/10991706244,9.0331305,0,,38.7619614
Ambasader,node/10991706246,9.018399,0,,38.7538719
Ambasader,node/10991706247,9.0182782,0,,38.7539744
Manen,node/10991763449,9.0515112,0,,38.7588533
Manen,node/10991763450,9.0515112,0,,38.7588598
Selam Building,node/10992050085,8.883961,0,,38.776766
Saris Abo,node/10992073740,8.944348,0,,38.7693473
Selam Building,node/10992247910,8.883111,0,,38.7772664
Gelan Condominium,node/10992247911,8.8801893,0,,38.768463
Gelan Condominium,node/10992247913,8.8801651,0,,38.7684764
Breta bret,node/10994789635,8.8738823,0,,38.7887302
Akaki CBE,node/10994942333,8.867782,0,,38.7888076
Akaki CBE,node/10994942334,8.8679415,0,,38.7887141
Mexico,node/10995013009,9.0098456,0,,38.7462885
Lafto,node/10995013010,8.9470636,0,,38.7443751
Lafto (Mickael),node/10995013013,8.9537702,0,,38.7504178
Woyira Sefer,node/10995113524,9.0051854,0,,38.7070388
Woyira Sefer,node/10995113525,9.0050595,0,,38.7068721
Total 3 Kutir mazoria,node/10996939227,8.9932233,0,,38.7170312
Mebrat,node/10997112356,8.9671943,0,,38.7486669
Mebrat,node/10997112357,8.9671522,0,,38.7487468
Biharetsege,node/10997112358,8.9621911,0,,38.7515775
Biharetsege,node/10997112359,8.9622089,0,,38.7515885
Adey Abeba,node/10997112361,8.9576758,0,,38.7631284
Adey Abeba,node/10997112362,8.9576954,0,,38.7631332
Gofa Gebriel,node/10997112364,8.9758799,0,,38.7488713
Gofa Gebriel,node/10997112365,8.9758721,0,,38.7489751
Abenet,node/10997125769,9.0196301,0,,38.7332825
Weleta,node/10997242295,8.963665,0,,38.6708623
Weleta,node/10997242296,8.9636677,0,,38.6708779
Weleta Tele,node/10997242298,8.9666342,0,,38.6731812
Repi Highschool,node/10997242299,8.9764681,0,,38.6774372
Repi Highschool,node/10997242300,8.9765185,0,,38.6774017
Sara Ampol,node/10997243557,9.0576594,0,,38.8741609
Sara Ampol,node/10997243558,9.0575648,0,,38.874351
Kara Condominium,node/10997243559,9.0480764,0,,38.8693718
Kara Condominium,node/10997243560,9.0480356,0,,38.8695015
Torhayloch,node/10997360870,9.0107982,0,,38.7207531
Mexico,node/10997382833,9.0114511,0,,38.7447026
Mexico,node/10997382834,9.0114533,0,,38.7445835
Mexico,node/10997495133,9.01285,0,,38.7440492
Mexico,node/10997495134,9.01282,0,,38.74405
Darmar,node/10997495135,9.0163639,0,,38.7345884
Piassa Arada,node/10998041498,9.0329801,0,,38.7545702
Piassa Arada,node/10998041499,9.0334582,0,,38.7537202
Shola,node/10998041503,9.025295,0,,38.7949306
Shola,node/10998041504,9.0251357,0,,38.7947575
Kality Meneharia,node/11033818190,8.8954024,0,,38.7722516
Kality Maseltegna,node/11033818192,8.9361073,0,,38.7642175
AU (Mikael) Rounrdabout,node/11033818193,8.9994656,0,,38.7406449
Mexico,node/11033818195,9.0089885,0,,38.7438741
Mexico,node/11033818196,9.0089241,0,,38.7440373
Bulgaria Mazoria,node/11033818197,8.9945922,0,,38.7474194
Autobis Tera,node/11033818199,9.0316048,0,,38.7373077
Autobis Tera,node/11033818200,9.0299591,0,,38.7377146
Kera,node/11033903482,8.9864921,0,,38.7483364
Saris Abo,node/11034015157,8.9450004,0,,38.7661144
Piassa Arada,node/11034015158,9.0331054,0,,38.7522899
Piassa Arada,node/11034015159,9.0321742,0,,38.7511155
Autobis Tera,node/11034031010,9.03055,0,,38.7370369
Shero Meda,node/11034031011,9.0626384,0,,38.7612633
Tsehay Chora (ShiroMeda),node/11034031012,9.0583756,0,,38.7598757
Abune Petros,node/11034031013,9.0351037,0,,38.7493262
Kuskoam,node/11034054993,9.0777204,0,,38.7572407
Arat Kilo,node/11034209866,9.0321373,0,,38.7654122
Kara Kore,node/11034280233,8.9753965,0,,38.6806691
Ayer Tena,node/11034280234,8.9825611,0,,38.6960927
Kara Kore,node/11034280236,8.9753861,0,,38.6805349
Lion Zoo (PEPSI Kiosk),node/11034427397,9.0426561,0,,38.7614325
Abo Mazoriya,node/11034427398,9.0571131,0,,38.777181
Yeha,node/11034427399,9.0608545,0,,38.7835816
Gurara,node/11034427400,9.0622785,0,,38.7880233
Gurara,node/11034427401,9.0624066,0,,38.7888027
Saris,node/11034511605,8.9535755,0,,38.7634093
Saris,node/11034511606,8.9535945,0,,38.7636248
Autobis Tera,node/11034611751,9.0296904,0,,38.7371486
Megenagna,node/11034647605,9.0221498,0,,38.8004821
Torhailoch,node/11035234709,9.0115667,0,,38.7220211
Chid Tera,node/11035240260,9.0376857,0,,38.7214866
Ayer Tena,node/11035502832,8.9837379,0,,38.6971291
Ayer Tena,node/11035502833,8.9836981,0,,38.7015659
Bisrate Gebrael,node/11035532608,8.9914198,0,,38.7255627
Zenebewerk Hotel,node/11035607129,9.0191017,0,,38.7682089
Estifanos,node/11035607130,9.0107497,0,,38.7636411
Lideta Condominium,node/11035607131,9.0109263,0,,38.7386025
Zenebework,node/11035662205,8.9882771,0,,38.7080773
Darmar,node/11035734852,9.0165403,0,,38.7377271
Hana Maryam,node/11035734855,8.9270084,0,,38.7418753
Bercheko Condominium,node/11035818337,9.058672,0,,38.700756
Alem Gena,node/11035914858,8.9231915,0,,38.6529741
Noc,node/11035914859,8.9494175,0,,38.6701962
Noc,node/11035914860,8.9490541,0,,38.6699835
Welete Tele,node/11035914861,8.9665643,0,,38.6732105
Welete,node/11035914862,8.9635929,0,,38.6708945
Weleta,node/11035914863,8.9641803,0,,38.6707668
Weleta Tele,node/11035914864,8.9666144,0,,38.6731872
Ayer Tena,node/11035914865,8.9834038,0,,38.6967597
