stop_name,stop_lat,location_type,stop_lon,stop_id,parent_station
C.M.C,9.0210263001,0,38.8504558,way/604046026,
C.M.C,9.0209365501,0,38.85044875,way/604046027,
Meri,9.0206309001,0,38.86039005,way/604046028,
Meri,9.0205342501,0,38.86039745,way/604046029,
Ayat,9.0212283001,0,38.8717948,way/604046052,
Ayat,9.0211369001,0,38.87179745,way/604046053,
St. Michael,9.0213594001,0,38.8426211,way/758915882,
St. Michael,9.0214511001,0,38.8426345,way/758915883,
Management Institute,9.0208269001,0,38.8284090499,way/758919087,
Management Institute,9.0209051001,0,38.8283603999,way/758919088,
Civil Service College,9.0216842501,0,38.83479945,way/758919089,
Civil Service College,9.0217686501,0,38.83479775,way/758919090,
Bambis,9.0104366001,0,38.76879995,way/758922739,
Bambis,9.0103406001,0,38.76877485,way/758922740,
St. Urael,9.01099095,0,38.77470515,way/758922741,
Hayahulet 2,9.0148321501,0,38.7832101499,way/758922742,
Hayahulet 2,9.0149132501,0,38.7832128499,way/758922743,
Hayahulet 1,9.0161997001,0,38.7893457,way/758922744,
Hayahulet 1,9.0162805001,0,38.7893058,way/758922745,
Lem Hotel,9.0178812001,0,38.7959009999,way/758922746,
Lem Hotel,9.0179702501,0,38.7958714999,way/758922747,
Megenagna,9.0196319001,0,38.8026662,way/758922751,
Gurd Sholla 2,9.0201812501,0,38.81016615,way/758922752,
Gurd Sholla 2,9.0202704501,0,38.8101826,way/758922753,
Gurd Sholla 1,9.0190550501,0,38.8199118,way/758922754,
Gurd Sholla 1,9.0191373501,0,38.8199363,way/758922755,
Tor Hailoch,9.0114466001,0,38.7228792001,way/758926923,
Tor Hailoch,9.0113509001,0,38.7228400001,way/758926924,
Cocacola,9.0120903001,0,38.72925215,way/758926925,
Cocacola,9.0120082001,0,38.72924475,way/758926926,
St. Lideta,9.0113260501,0,38.7358812,way/758926927,
St. Lideta,9.0114191001,0,38.735902,way/758926928,
Tegbared,9.0104883001,0,38.74251165,way/758926929,
Tegbared,9.0105720501,0,38.74252605,way/758926930,
Mexico,9.0110042001,0,38.7486780499,way/758926931,
Mexico,9.0111035001,0,38.7486304499,way/758926932,
Leghar,9.0118976001,0,38.75364485,way/758926933,
Leghar,9.0118055501,0,38.7536616,way/758926934,
Stadium,9.0119426001,0,38.75765945,way/758926935,
Stadium,9.0120396501,0,38.75768125,way/758926936,
St. Estifanos,9.0109756501,0,38.7633918,way/758926937,
St. Estifanos,9.0110528501,0,38.7634133,way/758926938,
Gojam Berenda,9.0341520001,0,38.7383589,way/759354435,
Gojam Berenda,9.0342421001,0,38.73838775,way/759354436,
Atikilt Tera,9.0345698501,0,38.7469346,way/759354437,
Atikilt Tera,9.0346634001,0,38.7469217,way/759354438,
Kality,8.938011,0,38.7631070001,way/759359409,
Kality,8.93795435,0,38.7630034001,way/759359410,
Abo Junction,8.94501825,0,38.7663008501,way/759359411,
Abo Junction,8.9449765,0,38.7662190501,way/759359412,
Saris,8.9519971333,0,38.7634466333,way/759359413,
Saris,8.9519912333,0,38.7633591333,way/759359414,
Adey Abeba,8.9567954,0,38.76388145,way/759359415,
Adey Abeba,8.9568021,0,38.76379965,way/759359416,
Lancha,8.9903485,0,38.75926535,way/759359417,
Lancha,8.9903366,0,38.75916345,way/759359418,
Temenja Yazh,8.9952452,0,38.7598284334,way/759359419,
Temenja Yazh,8.9952399,0,38.7597271667,way/759359420,
Riche,9.0005732,0,38.7587088,way/759359421,
Riche,9.00058575,0,38.7586096,way/759359422,
Meshwalekya,9.00485825,0,38.7588805,way/759359423,
Meshwalekya,9.00486215,0,38.7587524,way/759359424,
Darmar,9.0154149,0,38.73475,way/759359425,
Darmar,9.01542485,0,38.73466315,way/759359426,
Abnet,9.0212786,0,38.73335125,way/759359427,
Abnet,9.0212687,0,38.73341865,way/759359428,
Sebategna,9.0283819,0,38.73298775,way/759359429,
Sebategna,9.0284011,0,38.7330763,way/759359430,
Autobus Tera,9.0340910501,0,38.7329878,way/759359431,
Autobus Tera,9.0340079501,0,38.7329908,way/759359432,
Nifas Silk 2,8.9731988,0,38.7607979501,way/759365358,
Nifas Silk 2,8.97316965,0,38.7606849501,way/759365359,
Nifas Silk 1,8.9657149,0,38.7629963,way/759365360,
Nifas Silk 1,8.96571355,0,38.7628904,way/759365361,
Beherawi Theatre,9.0165395,0,38.7525538,node/847244293,
Black Lion,9.0209237,0,38.7521415,node/847244423,
4 Kilo,9.0344007,0,38.7632408,node/4832025024,
Lamberet Terminal (Bus),9.0223057,0,38.8158571,node/4884374622,
Sar Bet (Roundabout),8.9929728,0,38.738182,node/5248250425,
Ambassador,9.0164409,0,38.7553162,node/5330678521,
Stadium,9.0120276,0,38.7570321,node/5736089088,
Mebrathail,9.0295451,0,38.7146778,node/6251054285,
Asko,9.0654733,0,38.6928185,node/6307600909,
Bole Printing Press,8.9976331,0,38.7718334,node/6373574986,
Arada,9.0331479,0,38.7516761,node/6728583386,
Kazanchis,9.0167914,0,38.771456,node/6728599185,
Mexico,9.0094665,0,38.7444332,node/6814022390,
Mebrat Condominium,8.9644773,0,38.7438796,node/6967142984,
Mebrat,8.9673396,0,38.7486643,node/6967165728,
Gofa Gebriel,8.9771232,0,38.7491221,node/6967179322,
Kera (Gofa Road),8.9825519,0,38.7498599,node/6967179323,
Tewodros Square,9.0277111,0,38.7516602,node/6967225474,
German Square,8.9655968,0,38.732897,node/6967234177,
Friendship Building,8.9899905,0,38.7859995,node/6967281153,
Piassa (Downtown Cafe),9.0319356,0,38.7512565,node/6967281241,
Piassa Arada (2),9.0330123,0,38.7526242,node/6967281242,
Gojo,9.0418236,0,38.6217166,node/6967318740,
Megenagna Terminal,9.0203188,0,38.8026673,node/7022361366,
Bole Millenium,8.9885373,0,38.7897496,node/7022397409,
Bole Millenium,8.9887535,0,38.789886,node/7022397410,
Goro School,8.9937973,0,38.8267584,node/7022397411,
Summit Condominiums,8.9842788,0,38.8569434,node/7022397413,
Summit Condominiums,8.9842364,0,38.857122,node/7022397414,
Bole Arabsa,8.9720161,0,38.8906061,node/7022397416,
Bole Arabsa,8.9732168,0,38.8903477,node/7022397417,
Aba Kiros Roundabout,9.0561038,0,38.8785675,node/7022397418,
Yeka Abado,9.0689298,0,38.875565,node/7022397420,
Yeka Abado,9.0688377,0,38.8756232,node/7022397421,
Gurara,9.0626109,0,38.7894476,node/7037142410,
Abuare Roundabout,9.026427,0,38.7757967,node/7037142414,
Abuare Roundabout,9.026504,0,38.7759255,node/7037142415,
Marathon Motor (Megenagna),9.0224201,0,38.8000289,node/7037142417,
Yeha,9.060739,0,38.7836264,node/7037142419,
Tena Tabya,9.0608445,0,38.7839285,node/7037142420,
Biret Dildiy (Bono Wuha),9.0598571,0,38.7811505,node/7037142421,
Bret Dildy (Bono Wuha),9.0599927,0,38.7810894,node/7037142422,
Atlas,9.0042786,0,38.7797667,node/7037142423,
Bole Medhanialem,8.9983386,0,38.7860596,node/7037142424,
Bole Medhanialem,8.9984556,0,38.7862428,node/7037142426,
24,9.0098865,0,38.800549,node/7037142427,
Dinberwa Hospital,9.0221273,0,38.7866932,node/7037142428,
Kokebe Tsebah School,9.0345238,0,38.7802113,node/7037142430,
Kokebe Tsebah School,9.034441,0,38.7799476,node/7037142431,
Belgium Embassy,9.031876,0,38.7839469,node/7037142433,
British Embassy,9.0311083,0,38.784892,node/7037142434,
British Embassy,9.0309087,0,38.7855544,node/7037142435,
Abebe Sook,9.0287538,0,38.7887162,node/7037142436,
Shola Gebeya,9.0250779,0,38.7952986,node/7037142438,
Yeka Michael,9.0244101,0,38.7961373,node/7037142439,
Megenagna,9.0180934,0,38.8021491,node/7037142441,
Megenagna,9.0182711,0,38.8017521,node/7037142442,
Derartu,8.8869301,0,38.7818835,node/7037142443,
Gelan Condominium,8.8857405,0,38.7838224,node/7037142444,
08 Adarash,8.8844269,0,38.785591,node/7037142445,
Meshuwalekia Akaki,8.8768791,0,38.7865961,node/7037142446,
Akaki Beretaberet,8.8738843,0,38.7887478,node/7037142448,
G7 (Tulu Dimtu),8.870907,0,38.8207065,node/7037142450,
Tulu Dimtu,8.8552763,0,38.8042339,node/7037142454,
Tulu Dimtu,8.8556159,0,38.8041524,node/7037142455,
Akaki Korkoro,8.8597556,0,38.7961539,node/7037142456,
Belay Ab Moters (Alem Bank),8.8668237,0,38.7987744,node/7037142458,
Tulu Dimtu (Taf Gas Station),8.8688691,0,38.8051915,node/7037142459,
Arsema,8.8722685,0,38.8136608,node/7037142460,
Selam Sefer (Tapela Gar),8.8722281,0,38.8140262,node/7037142461,
Tulu Dimtu Adebabay,8.8747821,0,38.8201689,node/7037142462,
Project 12 Akababi,8.8658608,0,38.8218482,node/7037142464,
Mahiber Betoch,8.8592154,0,38.8148895,node/7037142465,
Bole Dildiy,8.9869933,0,38.7912061,node/7037142466,
Megenagna / Zefmesh,9.02034,0,38.8000136,node/7037142467,
Megenagna,9.0213214,0,38.8010735,node/7037142469,
Megenagna,9.0217137,0,38.8015921,node/7037142470,
Abysinia Cafe Area,9.0215363,0,38.8100422,node/7037142471,
Abysinia Cafe Area,9.0213396,0,38.810853,node/7037142472,
Century Mall,9.0196778,0,38.8132781,node/7037142474,
Gurd-shola,9.0187352,0,38.8215105,node/7037142475,
Menaheria,9.0239816,0,38.8192066,node/7037142476,
Menaheria,9.0238758,0,38.8192354,node/7037142477,
Gerji Mebrat Haile,9.003632,0,38.814876,node/7037142479,
Gerji Mebrat Haile,9.0037638,0,38.8132574,node/7037142483,
Lamberet,9.0253421,0,38.8251916,node/7037142484,
Lamberet Area,9.0258842,0,38.8271787,node/7037183485,
Lamberet Area,9.0260507,0,38.8273076,node/7037183486,
Lamberet Area,9.0259969,0,38.8271189,node/7037183487,
Yerer Goro,8.9913503,0,38.8294063,node/7037183490,
Yerer Goro,8.9913192,0,38.8292171,node/7037183491,
Se'alite Mihret Church,9.020263,0,38.8265756,node/7037183492,
Management Institute,9.0203852,0,38.82686,node/7037183493,
Sealite Mihret,9.0203048,0,38.8273219,node/7037183494,
Civil Service College,9.0216167,0,38.8342032,node/7037183495,
St. Michael,9.021312,0,38.8414217,node/7037183496,
St. Micheal Church,9.0215489,0,38.8425033,node/7037183497,
Salite Mihret,9.0283709,0,38.8331954,node/7037183498,
Hillside (Ethio-China Mebrathaile),9.0285264,0,38.8333256,node/7037183499,
Wessen Michael,9.030459,0,38.838592,node/7037183501,
Wessen,9.0330948,0,38.8442968,node/7037183504,
Wessen,9.033228,0,38.8445812,node/7037183505,
Wessen (Mariam),9.0330982,0,38.8446898,node/7037183507,
Kotebe Teachers College,9.0342084,0,38.8466963,node/7037183508,
Yabem Hotel,9.0357649,0,38.8533863,node/7037183509,
Kotebe Gebriel,9.036101,0,38.8545188,node/7037183510,
Yetebaberut,9.0201901,0,38.8526027,node/7037183513,
Yetebaberut,9.0207031,0,38.8539074,node/7037183515,
Meri,9.0207092,0,38.8603565,node/7037183516,
Meri (Yetebaberut),9.0205124,0,38.8610727,node/7037183518,
Ayat,9.0208331,0,38.8686047,node/7037183519,
Ayat Zone 2,9.0210633,0,38.8678248,node/7037183520,
Kara (Turn),9.0379427,0,38.8606002,node/7037183521,
Medhanalem Church,9.0401552,0,38.8640163,node/7037183523,
Safari,9.0106828,0,38.852259,node/7037183525,
Summit (MOHA),9.0043876,0,38.8520658,node/7037183527,
Saint Georgis,8.9955228,0,38.8513132,node/7037183528,
Tena Tabeya,8.9941038,0,38.860685,node/7037183529,
Gate 2,8.9894728,0,38.8582866,node/7037183532,
Summit Condominiums,8.9846055,0,38.8544474,node/7037183533,
Ayat Train Station,9.0213287,0,38.8719812,node/7037183535,
CMC,9.0211208,0,38.872594,node/7037183536,
Ayat Square,9.0212396,0,38.8767684,node/7037183537,
Feres Bet,9.0216916,0,38.8862575,node/7037183538,
Police Tabia,9.0170704,0,38.8946069,node/7037183539,
Tsebel,9.0222555,0,38.891209,node/7037183540,
Bono Meskid,9.0219034,0,38.8902931,node/7037183541,
Ayat Chefe Condominium,9.0113906,0,38.8946677,node/7037183542,
Ayat Chefe Condominium,9.0109368,0,38.8944878,node/7037183543,
Nebu Mikael,9.0023517,0,38.8767662,node/7037183545,
Ayat Adebabay Hulet (2),8.9965746,0,38.8851706,node/7037183546,
Bole Arabsa (3),8.9963324,0,38.8855436,node/7037183547,
Bole Arabsa (2),8.9841602,0,38.8851362,node/7037183548,
Bole Arabsa,8.9733148,0,38.8902717,node/7037183550,
St. Gebereal,8.9654075,0,38.8849449,node/7037183551,
Yeka Condominium 1,9.0354891,0,38.877919,node/7037183552,
Tafo Gebrael,9.0381306,0,38.8777819,node/7037183554,
Tafo Condominium 1,9.0505157,0,38.8779667,node/7037183555,
Tafo Mebrathail,9.0425957,0,38.8773973,node/7037183557,
Tafo Mebrathail,9.0427743,0,38.877866,node/7037183558,
Tafo Condominium 2,9.0465834,0,38.8779122,node/7037183559,
Kara Condominium,9.0501511,0,38.8705589,node/7037183562,
Yeka Abado,9.0666282,0,38.8647703,node/7037183563,
Sara Ampol (Gedera),9.0571811,0,38.8737753,node/7037183565,
Sara Ampol,9.0580264,0,38.8742538,node/7037183567,
Aba Kiros,9.0606875,0,38.8812971,node/7037183569,
Makefafeya,9.0630654,0,38.8841651,node/7037183570,
Gari Tera,9.0670494,0,38.8892044,node/7037183571,
CCD,9.0707009,0,38.8938058,node/7037183572,
140,9.0718221,0,38.8952147,node/7037183573,
Legedadi Mission,9.0818058,0,38.9074861,node/7037183574,
Legedadi Mission,9.0821737,0,38.90832,node/7037183575,
Selam Building,8.8832064,0,38.7771628,node/7041052894,
Gojo Hotel,8.8910809,0,38.7768265,node/7041052895,
Kality Meneharia,8.8958596,0,38.7717913,node/7041052896,
Cheralia Factory,8.9029458,0,38.7668359,node/7041052897,
Cheralia Factory,8.9029223,0,38.7667452,node/7041052898,
Kality Gebriel,8.9113422,0,38.7638335,node/7041052900,
Kality Prison,8.9124672,0,38.7633323,node/7041052901,
Hana Maryam,8.928137,0,38.7416641,node/7041052912,
Tabelew,8.9274906,0,38.6590102,node/7041052914,
Alem Gena,8.9230001,0,38.6526472,node/7041052916,
Alem Gena,8.9229882,0,38.652656,node/7041052917,
Mekanisa (Old Revenues Office),8.9683942,0,38.73129,node/7041052927,
German Square,8.9656974,0,38.7327236,node/7041052928,
Gebriel Bridge,8.9556239,0,38.7324437,node/7041052932,
Gebriel Bridge,8.955596,0,38.7327233,node/7041052934,
Mebrathile (EEPCo),8.9469471,0,38.7339608,node/7041052935,
Mekanisa School,8.9790248,0,38.7341955,node/7041052936,
Abo,8.9785916,0,38.7339384,node/7041052937,
Sheged Hotel,8.973373,0,38.7246092,node/7041052938,
Jemo Michael,8.9673959,0,38.720836,node/7041052939,
Jemo Michael,8.966996,0,38.7209392,node/7041052940,
Jemo YBP (All Mart),8.9614893,0,38.7152564,node/7041052942,
Jemo 1,8.9606358,0,38.7123763,node/7041052944,
Jemo 1,8.9604074,0,38.7124284,node/7041052945,
Mestawet Fabrica,8.9595125,0,38.7084697,node/7041052946,
Mestawet Fabrica,8.958513,0,38.7059934,node/7041052948,
Jemo 3,8.9564,0,38.6992718,node/7041052949,
Jemo 3,8.9556244,0,38.6985348,node/7041052950,
Zenebework,8.9866742,0,38.7077567,node/7041052951,
Welete Maryam,8.9611777,0,38.6713097,node/7041052952,
Mickael Bridge,8.9657858,0,38.7272059,node/7041052953,
Gerar,8.9813447,0,38.689429,node/7041052954,
Repi (Gerar),8.9793804,0,38.6852022,node/7041052955,
Gebre Kirstos,8.9773403,0,38.7220154,node/7041052957,
Bisrate Gebrael,8.9884304,0,38.7228933,node/7041052958,
Gofa Gebriel (2),8.9753751,0,38.7488548,node/7041052959,
MOHA (Pepsi Factory),8.9822682,0,38.7560783,node/7041052965,
Addis Sefer (Gebriel),8.9555778,0,38.7743852,node/7041052966,
Addis Sefer (Gebriel),8.9555403,0,38.77441,node/7041052967,
Gotera (Oilibiya),8.9762662,0,38.7600125,node/7041052969,
Gotera (Oilibiya),8.976182,0,38.7598239,node/7041052970,
St. Joseph Church,8.9697308,0,38.7620577,node/7041052975,
kadisco Building,8.9659447,0,38.7627885,node/7041052977,
kadisco Building,8.965927,0,38.762999,node/7041052978,
Kadisco,8.9637596,0,38.7630788,node/7041052979,
Adey Abeba,8.9583017,0,38.7640609,node/7041052980,
Adey Abeba,8.9582595,0,38.7638459,node/7041052982,
Saris (CBE),8.9528662,0,38.7635583,node/7041071286,
Saris (CBE/Shoa Bakery),8.9527596,0,38.7633266,node/7041071287,
Abo Junction,8.9450003,0,38.7661044,node/7041071289,
Abo Junction,8.9450733,0,38.7663069,node/7041071290,
Customs (Train Station),8.9380959,0,38.763132,node/7041071291,
Kality Maseltegna,8.9323275,0,38.766627,node/7041071295,
Wehalemat,8.9298185,0,38.7681616,node/7041071296,
Werku Sefer,8.9331651,0,38.775077,node/7041071297,
Bulgaria Mazoria,8.9950292,0,38.7478244,node/7041071342,
Begtera,8.9971703,0,38.7475059,node/7041071344,
AU (Mikael) Rounrdabout,8.9990638,0,38.7394459,node/7041071347,
AU (Mikael) Rounrdabout,8.9990569,0,38.7395945,node/7041071348,
Bulgaria,8.9937942,0,38.7478465,node/7041071350,
Global Hotel,8.9941475,0,38.7595772,node/7041071352,
Global Hotel,8.9941836,0,38.7598183,node/7041071353,
Beklo Bet (Global),8.9953383,0,38.7596352,node/7041071354,
Tele Garage,9.000141,0,38.7584812,node/7041071355,
Riche,9.0043253,0,38.7586986,node/7041071356,
6th (Raddison Blu),9.0166957,0,38.7669535,node/7041071359,
Filweha (Hotsprings),9.017718,0,38.7572645,node/7041071360,
Filweha (Hotsprings),9.0175554,0,38.7570579,node/7041071362,
Ghion Hotel (Enterance),9.0138328,0,38.7576145,node/7041071364,
St. Joseph School,9.0098008,0,38.7591876,node/7041071367,
St. Joseph School,9.0104995,0,38.7592761,node/7041071370,
Admas University College,9.0105316,0,38.7590434,node/7041071371,
Lalibela Hotel,9.0118612,0,38.7570112,node/7041071372,
Stadium,9.0121294,0,38.7560438,node/7041071374,
Legehar,9.011849,0,38.7545386,node/7041071376,
Legehar,9.0117857,0,38.7539285,node/7041071377,
Legehar (Old Train Station),9.0109604,0,38.7533069,node/7041071378,
Mexico,9.0097755,0,38.7461963,node/7041071380,
African Union,9.0031416,0,38.7414166,node/7041071382,
Popolare,9.0053059,0,38.7423863,node/7041071383,
Guenet Hotel,9.0046908,0,38.7466748,node/7041071384,
Guenet Hotel,9.0032786,0,38.74694,node/7041071385,
Tikur Anbessa Hospital,9.0210743,0,38.7488977,node/7041071386,
Goma Quteba,9.0175836,0,38.7464631,node/7041071387,
Abenet,9.0214263,0,38.7334947,node/7041071388,
Lideta Condominium,9.0132791,0,38.7345522,node/7041071389,
Darmar,9.0157856,0,38.7348248,node/7041071390,
Austria Embassy,8.9939406,0,38.7278809,node/7041071392,
Mechare Meda,8.9936591,0,38.727499,node/7041071393,
3 Kutir Mazoriya (Total),8.9925902,0,38.7152417,node/7041071395,
Minaye Building,8.995414,0,38.7184074,node/7041071397,
Old Airport (Mobil),8.9998642,0,38.7191221,node/7041071399,
Tor Hailoch,9.0099949,0,38.7206897,node/7041071400,
Keranio Mewcha,9.0133411,0,38.7100309,node/7041071401,
Holand,9.0213057,0,38.7159484,node/7041071402,
Meseret Edget,9.0245409,0,38.714954,node/7041071403,
Teklehaymanot,9.0278226,0,38.7440603,node/7041071404,
Kebele 11,9.0247481,0,38.7458014,node/7041071405,
Tewodros Square,9.0262634,0,38.75166,node/7041071406,
Tewodros Square,9.0263826,0,38.7517909,node/7041071407,
Black Lion,9.0218352,0,38.7521859,node/7041071411,
National Theatre,9.0158768,0,38.751592,node/7041071414,
National Theatre,9.0156938,0,38.7513097,node/7041071415,
A.A. Commercial College,9.0139102,0,38.7494881,node/7041071416,
A.A. Commercial College,9.0138228,0,38.7495568,node/7041071418,
Buna Ena Shay,9.0114261,0,38.7490599,node/7041071419,
Buna Ena Shay,9.0105922,0,38.7479733,node/7041071420,
Mexico Shebelle Hotel,9.0119916,0,38.7468862,node/7041071423,
TVET College (Tegbare'd),9.0105894,0,38.7429038,node/7041071425,
Federal Police (Tegbare'd),9.0103865,0,38.7426638,node/7041071429,
Lideta (Balcha Hospital),9.0109303,0,38.738603,node/7041071430,
Lideta (Balcha Hospital),9.0111161,0,38.7385604,node/7041071431,
Lideta Condominium,9.011233,0,38.7377815,node/7041071432,
Lideta Tsebel,9.0041706,0,38.733822,node/7041071433,
Dessie Hotel,9.0093091,0,38.7338119,node/7041071434,
High Court,9.0108572,0,38.7342297,node/7041071435,
Lideta High Court,9.0115829,0,38.733431,node/7041071437,
Hintsa College,9.0121559,0,38.7293132,node/7041071439,
Coca Cafe,9.0119411,0,38.7292339,node/7041071441,
Mekonenoch (Golf) Club,9.011282,0,38.7265458,node/7041071444,
Tor Hailoch Junction,9.0115616,0,38.7220202,node/7041071446,
Torhailoch,9.0119442,0,38.7216866,node/7041071447,
Tor Hailoch,9.0139112,0,38.7206478,node/7041071448,
Tor Hailoch,9.013939,0,38.7209168,node/7041071449,
Keranio Bridge,9.0194506,0,38.7089411,node/7041071450,
Medhanialem,9.0175679,0,38.7049748,node/7041071451,
Keranio Adebabay,9.0176634,0,38.7006446,node/7041071452,
Kokebe,9.0180779,0,38.6994971,node/7041071453,
Yeshi Debele,9.0195382,0,38.6954056,node/7041071454,
Yeshi Debele,9.0190748,0,38.6957701,node/7041071455,
Mariam,9.0231539,0,38.6884518,node/7041071456,
Anfo Meda,9.021983,0,38.6742682,node/7041071458,
St. Urael Church,9.0110433,0,38.7752596,node/7041071459,
Salcost Apartments (NOC),9.0104908,0,38.766397,node/7041071461,
St. Estifanos Church,9.0118738,0,38.7626376,node/7041071462,
St. Gebriel,9.0199107,0,38.7675809,node/7041071464,
Zenebewerk Hotel,9.0193852,0,38.7680315,node/7041071465,
Meles Zenawi Foundation,9.0206693,0,38.7715231,node/7041071466,
Azmari Bet (Traditional Music Club),9.0194316,0,38.770643,node/7041071468,
Kazanchis (6th),9.0166401,0,38.7702335,node/7041071469,
Hilton Hotel (Apartments),9.0196382,0,38.7638714,node/7041071471,
Women Square,9.0233468,0,38.7772342,node/7041071473,
Women Square,9.0234508,0,38.7771738,node/7041071474,
Aware Bridge,9.0244322,0,38.7765755,node/7041071475,
Arat Kilo,9.0319312,0,38.7633615,node/7041071479,
Arat Kilo,9.0321438,0,38.7652099,node/7041071480,
Bel Air,9.032458,0,38.7728461,node/7041071481,
Addis View Hotel,9.0324918,0,38.7730493,node/7041071482,
Menelik II Hospital,9.0385857,0,38.7730556,node/7041071483,
Menlik Hospital,9.0388201,0,38.7719268,node/7041071484,
Piassa Arada,9.0365871,0,38.7522029,node/7041071579,
Piassa Arada,9.0363947,0,38.7524445,node/7041071580,
Piassa Arada,9.035363,0,38.7523164,node/7041071592,
Habtegiorgis Bridge,9.0352553,0,38.7491242,node/7041071594,
Kurtu Building,9.0343899,0,38.7438917,node/7041071595,
Kurtu Building,9.0341887,0,38.7437548,node/7041071596,
Pharmacy,9.0343321,0,38.7434135,node/7041071597,
Gojam Berenda,9.0343947,0,38.737968,node/7041071598,
Autobis Tera (3),9.0342308,0,38.7337775,node/7041071599,
Autobus Tera,9.03371,0,38.7298446,node/7041071600,
Darsema Grosery,9.0338533,0,38.7294433,node/7041071601,
Millenium School,9.0408355,0,38.7101875,node/7041071602,
Girum Hospital,9.04636,0,38.7200106,node/7041071604,
Woreda 7 TVET,9.0407262,0,38.7212396,node/7041071605,
Sefere Salam,9.0366318,0,38.7219216,node/7041071606,
Kolfe,9.037044,0,38.7173824,node/7041071607,
Abysinia Coffee,9.0373422,0,38.7164487,node/7041071608,
Degu Hotel,9.0338162,0,38.7151531,node/7041071609,
18 Mazoria,9.0335338,0,38.7130781,node/7041071610,
18 Mazoria,9.0335825,0,38.7135105,node/7041071612,
Luwkanda,9.0333303,0,38.7093322,node/7041071614,
Comprensive,9.0340139,0,38.704541,node/7041071615,
Realstate,9.0327975,0,38.6951186,node/7041071616,
Police Tabiya,9.034058,0,38.6888917,node/7041071619,
Feli Doro (1),9.0342811,0,38.6875252,node/7041071620,
Feli Doro,9.0353789,0,38.6853297,node/7041071622,
Arada,9.0328103,0,38.7505925,node/7041071623,
Ras Mekonene Bridge (Seba Dereja),9.0389362,0,38.7568178,node/7041071628,
5 Kilo (History Museum),9.0385989,0,38.7625491,node/7041071629,
5 Kilo University,9.0408311,0,38.761951,node/7041071630,
Lion Zoo (PEPSI Kiosk),9.0427151,0,38.7615693,node/7041071633,
Yekatit 12 Hospital,9.0438891,0,38.7603878,node/7041071636,
Yeatit 12 Hospital,9.0436921,0,38.7593176,node/7041071637,
Red-Cross (St. George Total),9.0386136,0,38.7527639,node/7041071638,
St. George Church (Total),9.0386684,0,38.7517494,node/7041071639,
Semen Hotel,9.0436522,0,38.7488778,node/7041071640,
Semen Hotel,9.0446929,0,38.7482928,node/7041071641,
Kelemwerk,9.0486023,0,38.7461719,node/7041071642,
Kelemwerk,9.0488673,0,38.7458026,node/7041071643,
Tibeb Ediget School,9.0512494,0,38.7443439,node/7041071645,
Semen Mazegaga,9.0523631,0,38.7433813,node/7041071646,
Semen Mazagaja,9.0537306,0,38.7424925,node/7041071647,
Shegole Bank,9.0541015,0,38.7200104,node/7041071648,
Pawlos Hospital,9.0474202,0,38.7277601,node/7041071649,
Finance,9.0514832,0,38.7221677,node/7041071650,
Medhanialem (TOTAL),9.0513651,0,38.7220512,node/7041071651,
Finance,9.0528369,0,38.7201878,node/7041071653,
Finance,9.0531245,0,38.7199027,node/7041071654,
Winget Chaf,9.0544244,0,38.7149847,node/7041071655,
Mikili Land,9.051327,0,38.6987792,node/7041071658,
Winget Adebabay,9.0571703,0,38.7137033,node/7041071659,
Awolia,9.0576087,0,38.7116367,node/7041071660,
Gulele Fana,9.0577975,0,38.7067279,node/7041071661,
Gulele Fana,9.0582376,0,38.7065488,node/7041071662,
Berchiko,9.0593548,0,38.7034077,node/7041071663,
Gebriel (Sansusi),9.0665816,0,38.69045,node/7041071665,
Bono Weha,9.057952,0,38.7791204,node/7041071718,
Mezan,9.053538,0,38.7722233,node/7041071719,
3rd Shaleka,9.0470252,0,38.7690705,node/7041071721,
6 Kilo (University),9.0461753,0,38.7615547,node/7041071723,
Meksaye Hizunan Medhanialem,9.0513004,0,38.7622054,node/7041071725,
Teferi Mekonen,9.052326,0,38.7622236,node/7041071726,
Sebseba Maekel,9.0541533,0,38.7625698,node/7041071729,
Eyesus,9.0649811,0,38.7715088,node/7041071737,
Hamle 19,9.0585516,0,38.7680987,node/7041071738,
Selassie,9.0692162,0,38.7607205,node/7041071740,
Sanba Nekersa-Shiromeda,9.0745256,0,38.7590628,node/7041071741,
Kuskoam,9.0777328,0,38.7572536,node/7041071742,
Dil Ber,9.0710894,0,38.7374397,node/7041071749,
Anbessa Garage (Shegole),9.0638294,0,38.7204079,node/7041071753,
Kebt Beret,9.0691617,0,38.7182194,node/7041071754,
Entoto Kela,9.0843712,0,38.7230011,node/7041071755,
Weserbi Realestate,9.1051152,0,38.7095299,node/7041071758,
Classy Water,9.1095355,0,38.7147037,node/7041071759,
Medret Hotel,9.1100449,0,38.7158285,node/7041071760,
Kburea,9.1176074,0,38.7300979,node/7041071761,
Kenenisa,9.1179357,0,38.7304557,node/7041071762,
Shefunea,9.1273122,0,38.7395293,node/7041071763,
Shefine,9.1277902,0,38.7397834,node/7041071764,
Doro Erbata,9.1339361,0,38.7522344,node/7041071772,
Abo Gabriel,9.1341343,0,38.7524529,node/7041071773,
Tulu Fati,9.1408321,0,38.7549356,node/7041071774,
Ashewa,9.1449015,0,38.7538733,node/7041071775,
Tabya Hotel,9.1560016,0,38.7542489,node/7041071776,
Sar Bet (Roundabout),8.9929589,0,38.738359,node/7047495429,
United Bank (Ashewa Meda),9.0286142,0,38.6600221,node/7047495432,
Sefera,8.9208064,0,38.7346499,node/7047495433,
Lafto,8.9473774,0,38.744323,node/7049122264,
Hana Mariam (2),8.935835,0,38.7440895,node/7049122265,
Haile Garment,8.9387647,0,38.7345586,node/7049122266,
Yekiber Demena Church,9.0304285,0,38.8779866,node/7049921444,
Megenagna Terminal,9.0204726,0,38.8024339,node/7049921445,
Hill Bottom (Recreation),9.0220882,0,38.8759579,node/7049921447,
Zone 8,9.0304125,0,38.8775474,node/7049921448,
Aba Kiros (Tafo) Roundabout,9.0570656,0,38.8779122,node/7049921449,
Tafo Junction,9.0566049,0,38.8790275,node/7050234123,
Megenagna Terminal,9.020626,0,38.8021323,node/7050327664,
6 Kilo,9.0476858,0,38.7617178,node/7054842410,
6 Kilo,9.0476498,0,38.7617169,node/7054842414,
Legehar (Old Train Station),9.0106346,0,38.7532161,node/7055060064,
Kotebe Gebriel,9.0359897,0,38.8546711,node/7055598734,
Ahmed Building,9.0269686,0,38.8299268,node/7055598736,
St. Mary Church,9.0363488,0,38.7579049,node/7055598738,
Piassa Arada,9.0335541,0,38.7535483,node/7055598739,
Piassa Arada,9.0327818,0,38.7534018,node/7055598742,
St. Mary Church,9.0363807,0,38.7579442,node/7055598743,
NOC End,9.0274541,0,38.8307544,node/7055598744,
Kotebe Teachers College,9.0341209,0,38.8467717,node/7056754511,
Meskelegna (Ababdo),9.0630764,0,38.8732637,node/7056754514,
Megenagna,9.020907,0,38.8022361,node/7056754516,
Atlas,9.0041945,0,38.779674,node/7057002158,
Piassa Arada,9.0329242,0,38.7528717,node/7057002161,
Ras Mekonene Bridge (Seba Dereja),9.0389386,0,38.7568279,node/7057002162,
Gibi Gebriel Church,9.0226675,0,38.7626361,node/7057002163,
Brass Clinic (Bole),8.9904207,0,38.7929906,node/7057187392,
Brass Clinic (Bole),8.9903142,0,38.7932003,node/7057187393,
St.Gorgis,9.0379471,0,38.7519784,node/7062689844,
St. George Church (2),9.0358742,0,38.751629,node/7062689845,
Piassa,9.0345896,0,38.7549398,node/7062689848,
Arat Kilo,9.0325203,0,38.764362,node/7062689850,
4 Kilo,9.0344021,0,38.7630946,node/7062689851,
Medhanialem,9.0506154,0,38.7621098,node/7062689852,
Education Bureau (6 Kilo),9.044142,0,38.7635923,node/7062689854,
Jan Meda,9.0471236,0,38.7690204,node/7062689855,
Frensaye Kela,9.0557922,0,38.7742742,node/7062689856,
Frensaye Kela,9.0551762,0,38.7736282,node/7062689857,
Abo Mazoriya,9.0569998,0,38.7777387,node/7062689858,
Gurara,9.0623294,0,38.7881845,node/7062689859,
Mamo (NFSL TVET),8.9730894,0,38.7608987,node/7067942461,
Agona Cinema,8.988213,0,38.7595747,node/7067942462,
Agona Cinema,8.9882665,0,38.7597959,node/7067942463,
Tele Garage,9.0004682,0,38.7587377,node/7067942465,
Zerihun Building,9.0145395,0,38.7824519,node/7067990019,
6th (Raddison Blu),9.0166971,0,38.7669539,node/7067990020,
National Palace,9.026432,0,38.7621456,node/7070861695,
SNAP Building,8.9897614,0,38.7872174,node/7070861696,
Friendship,8.9908557,0,38.7844888,node/7070861697,
Heber Restaurant,8.9917592,0,38.7822311,node/7070861698,
RWANDA (Werbek House),8.992295,0,38.7791533,node/7070861699,
Rwanda,8.9924,0,38.7798477,node/7070861701,
Bole Printing Press,8.9966227,0,38.7723732,node/7070861702,
Bole Printing Press,8.9976714,0,38.7715908,node/7070861703,
Mega Printing Press,8.9993469,0,38.7708659,node/7070861704,
Shewa Dabo,9.001132,0,38.7697078,node/7070861705,
Getu Commercial Center,9.0014126,0,38.7697673,node/7070861706,
Dembel City Center,9.004953,0,38.7678519,node/7070861707,
Flamingo,9.0100482,0,38.7634195,node/7070861710,
Piassa Arada,9.0358386,0,38.7528459,node/7070861712,
Anbessa Garage,9.0074376,0,38.8054033,node/7070861713,
Ayat Roundabout,9.0221276,0,38.876525,node/7070861714,
Gebriel,9.0401288,0,38.8777949,node/7070861716,
Semen Mazegaja | ሰሜን ማዘጋጃ,9.0527134,0,38.7433527,node/7074233342,
Del Ber School,9.0559007,0,38.7411604,node/7074233343,
Adisu Gebeya,9.0592088,0,38.7379037,node/7074233344,
Kelebat,9.061605,0,38.7355505,node/7074233345,
Oilibiya (Dil Ber),9.0679367,0,38.7347909,node/7074233346,
Pastor,9.0463006,0,38.7301845,node/7074267433,
Medhanialem,9.051161,0,38.7228618,node/7074267434,
Winget,9.0554455,0,38.7138884,node/7074267435,
Kela,9.0576131,0,38.6101592,node/7074269464,
Kela,9.0576152,0,38.6101611,node/7074269465,
Semen Hotel,9.0452427,0,38.7481339,node/7074275407,
Kera,8.9866969,0,38.7484333,node/7074294627,
Asko,9.0653014,0,38.6922669,node/7074299254,
Sebategna,9.0286512,0,38.733098,node/7074324043,
Autobis Tera (2),9.0317912,0,38.7324012,node/7074324044,
Autobis Tera,9.0347276,0,38.7321005,node/7074324045,
Mekanisa,8.9733512,0,38.7315967,node/7074326525,
Abo Mazoria,8.9822244,0,38.7343058,node/7074326526,
Gate 2,8.9894962,0,38.8580841,node/7074330387,
Tena Tabeya,8.9942098,0,38.8605382,node/7074330389,
Condminium (Gate),8.9984544,0,38.8602323,node/7074330391,
Gomista,9.0014062,0,38.8573283,node/7074330392,
Summit (MOHA),9.0040839,0,38.8517162,node/7074330394,
Safari,9.0106601,0,38.8518265,node/7074330397,
Alemayehu,8.999474,0,38.820944,node/7074330400,
Alemayehu,9.0005663,0,38.8196821,node/7074330401,
Condominium,9.0050845,0,38.8095474,node/7074330403,
Ethio-china,9.026612,0,38.8287819,node/7074330407,
Kara,9.0403987,0,38.8643277,node/7074330409,
Project 15,8.9654679,0,38.8850641,node/7074332290,
Kela,8.9772657,0,38.8845811,node/7074332294,
Chereta,9.0616842,0,38.7010211,node/7074347184,
Gerar,8.9813585,0,38.6894082,node/7074353066,
Sansusi,9.0714186,0,38.6891023,node/7074387585,
Kersa (2),9.0285405,0,38.6722328,node/7074496216,
Ashewa Meda,9.0326531,0,38.6653802,node/7074496217,
Ashewa Meda,9.0326414,0,38.6653823,node/7074496218,
United Bank (Ashewa Meda),9.0258997,0,38.6569665,node/7074496219,
St. Gebriel,9.027689,0,38.6515848,node/7074496221,
St. Gebriel,9.0276843,0,38.6515743,node/7074496222,
Gojo,9.0417975,0,38.6216778,node/7074496225,
Alem Bank,9.0010346,0,38.6776598,node/7074504387,
Ayer Tena,8.9831093,0,38.6982193,node/7074504388,
Bethel,9.0045877,0,38.6944335,node/7074504390,
Mendida,9.0149626,0,38.7004735,node/7074504392,
Mebrat Nigist Hotel,8.9700751,0,38.7486994,node/7074525370,
Lideta Kefetega Firdbet,9.0116457,0,38.7326808,node/7074541084,
Haile Garment,8.9368661,0,38.7363202,node/7074561391,
Mebrathile (EEPCo),8.9493593,0,38.7334502,node/7074561392,
Hana Mariam,8.9309368,0,38.7544146,node/7074561393,
Hana Mariam (2),8.9361698,0,38.7444615,node/7074561394,
Meskelgna,8.95299,0,38.7448233,node/7074561395,
Piassa Arada,9.0357438,0,38.7514315,node/7074585943,
Arat Kilo,9.0324015,0,38.7633143,node/7074585944,
Beklo Bet (Global),8.9953761,0,38.759835,node/7074599697,
Dembel City Center,9.0055741,0,38.7672511,node/7074691520,
Mexico,9.010735,0,38.7471393,node/7074707878,
ERA Office (Big Mak),9.0127963,0,38.7478601,node/7074707880,
Saint Josphe School,9.0092034,0,38.7591385,node/7074707881,
St. Estifanos Church,9.0124825,0,38.7628296,node/7074707883,
Mamo (NFSL TVET),8.9725713,0,38.7607684,node/7074819178,
Kality Maseltegna,8.9339802,0,38.7643672,node/7074841188,
Dildiy Mariam,8.9585362,0,38.7498569,node/7075101457,
Kera (Gofa Stop),8.9837158,0,38.7497528,node/7075101459,
Tor Hailoch,9.009717,0,38.7208842,node/7075129253,
Torhayloch,9.0117428,0,38.7207996,node/7075129254,
Tor Hailoch,9.0117788,0,38.7222467,node/7075129255,
Riche,9.0043941,0,38.7588986,node/7076294502,
Mebrat Condominium,8.9645236,0,38.7438551,node/7076294503,
Kadisco,8.9638868,0,38.7633289,node/7076294504,
Flamingo,9.0089349,0,38.7646677,node/7076294505,
Condminium (Gate),8.9984013,0,38.8601035,node/7076294507,
Sara Ampol (Gedera),9.0571285,0,38.8738883,node/7076294508,
Michael (2),9.0418835,0,38.7325725,node/7076294509,
Shero Meda,9.0622823,0,38.7612538,node/7076294510,
Shero Meda,9.0618175,0,38.7613619,node/7076294511,
Dil Ber,9.0716602,0,38.7369836,node/7076294512,
Sanba Nekrsa,9.0745282,0,38.7590251,node/7076294514,
Shiromeda Selassie,9.0692159,0,38.7607132,node/7076294515,
Shero Meda,9.0618235,0,38.7613887,node/7076294516,
6 Kilo (Akim Genbata),9.0447597,0,38.7612093,node/7076310930,
Shero Meda,9.0626379,0,38.7612397,node/7076310931,
Medhanialem,9.0507372,0,38.7619991,node/7077424942,
Ambassador,9.0163885,0,38.7551039,node/7077601626,
Lamberet,9.0216085,0,38.8139111,node/7077785205,
Kara Condominium,9.0479009,0,38.8692642,node/7077785206,
Kara Condominium,9.0480304,0,38.8695121,node/7077785209,
Autobis Tera (2),9.031811,0,38.7325536,node/7077863009,
Tropical,8.9960545,0,38.6833448,node/7077863010,
Alem Bank,9.0003767,0,38.6779208,node/7077863012,
Tropical,8.9965876,0,38.6830207,node/7077863014,
Kidane Mihret,8.9923549,0,38.6892387,node/7077863015,
Bethel,9.004479,0,38.6941906,node/7077863016,
Mendida,9.0151128,0,38.7004836,node/7077863017,
Abinet,9.019638,0,38.7327417,node/7077863018,
Sebategna,9.0280905,0,38.7329768,node/7077863019,
Mexico,9.0088714,0,38.7440208,node/7078164250,
Haile Garment,8.9381825,0,38.7349155,node/7078164251,
Mekanisa,8.9729343,0,38.7311018,node/7078164254,
Abo Mazoria,8.9820586,0,38.7345326,node/7078164255,
Mexico,9.0088201,0,38.7437936,node/7078164256,
Autobis Tera (1),9.0330269,0,38.7323925,node/7078406225,
Zenebework,8.9876369,0,38.7090191,node/7078406227,
Ayer Tena,8.9822919,0,38.6949214,node/7078406228,
Kara Kore,8.9755975,0,38.6817556,node/7078406231,
Kara Kore,8.9763865,0,38.6823873,node/7078406235,
Ayer Tena (Gerar-Repi),8.9822452,0,38.6939258,node/7078406236,
Repi (Gerar),8.9795411,0,38.6853377,node/7078406237,
Zenebework (Crossing),8.9852814,0,38.7051886,node/7078406238,
3 Kutir Mazoriya (Total),8.992776,0,38.715946,node/7078406239,
Autobis Tera (1),9.0330007,0,38.7322299,node/7078406240,
Condominium,9.0049451,0,38.8100534,node/7080251773,
Goro School,8.993889,0,38.8268744,node/7080251774,
Anbessa Garage,9.0071789,0,38.8056204,node/7080251776,
Estifanos,9.0110028,0,38.76366,node/7080440194,
BAMBIS,9.0104866,0,38.7690578,node/7080440195,
St. Urael Church,9.0115088,0,38.7752996,node/7080440196,
Lex Plaza,9.0147285,0,38.7823039,node/7080440197,
22 (Haya Hulet),9.0164226,0,38.7896417,node/7080440198,
Megenagna,9.0194097,0,38.8004816,node/7080440200,
Megenagna,9.019032,0,38.8005914,node/7080440203,
Lem Hotel,9.0177169,0,38.7955696,node/7080440204,
22 (Haya Hulet),9.0162149,0,38.7896635,node/7080440205,
BAMBIS,9.0102033,0,38.7694936,node/7080440206,
Mexico,9.0104304,0,38.7467585,node/7080440208,
Mexico,9.0098462,0,38.7462899,node/7080527282,
Kera,8.9863213,0,38.7487773,node/7080527284,
Mebrat,8.96688,0,38.7487535,node/7080611085,
Mexico Shebelle Hotel,9.0120423,0,38.746773,node/7080611091,
Michael,9.0412736,0,38.7322629,node/7080893992,
Autobis Tera,9.034717,0,38.732023,node/7080893993,
Pastor,9.0460782,0,38.7306587,node/7080893994,
Winget,9.0560646,0,38.713458,node/7080893995,
Chereta,9.0613645,0,38.7009781,node/7080893996,
Sansusi,9.0715888,0,38.6891732,node/7080894001,
5 Kilo (History Museum),9.0385658,0,38.7624277,node/7081034796,
Abo Mazoriya,9.0574672,0,38.7785478,node/7081034797,
Education Bureau (6 Kilo),9.0441923,0,38.7640045,node/7081034799,
Total (Dil Ber),9.0648091,0,38.732915,node/7084255331,
Piassa Arada,9.0341775,0,38.7533521,node/7084255333,
Addisu Gebeya,9.0594855,0,38.7374497,node/7084255334,
Tsion Cafe (Addisu Gebeya),9.0638908,0,38.733166,node/7084255335,
Total (Dil Ber),9.0653883,0,38.7327389,node/7084255336,
Ummar School,9.0337517,0,38.7405402,node/7084722454,
Autobis Tera (3),9.0341036,0,38.7337992,node/7084722456,
Gojam Berenda (Tefera Buillding),9.0341305,0,38.7418327,node/7084722457,
Dej. Wube (Ras Abebe School),9.0404538,0,38.7533374,node/7084722458,
Wube Bereha,9.0440672,0,38.7544994,node/7084722459,
Menen,9.0515491,0,38.7588473,node/7084722460,
Tsehay Chora (ShiroMeda),9.0584002,0,38.7598297,node/7084722461,
Sebategna (Taem Bakery),9.0274958,0,38.7332661,node/7084873006,
Mola Maru (Jos Hansen),9.0188835,0,38.7380924,node/7084873007,
Geja Sefer (Darmar),9.0167149,0,38.7382054,node/7084873008,
Kera (Green Market),8.9856954,0,38.7486804,node/7084873009,
Kera (Mexico Stop),8.9841757,0,38.7518917,node/7084873010,
MOHA (Pepsi Factory),8.9824212,0,38.7560749,node/7084873011,
Saris (Shoa Bakery),8.9547202,0,38.7635412,node/7084873012,
Kera (Saris Stop),8.9844206,0,38.7509324,node/7084873013,
Guenet Hotel (Orbis),9.002055,0,38.7469466,node/7084873014,
St. Lideta Church,9.0111972,0,38.736541,node/7084873015,
Abenet (Joshansen),9.0192478,0,38.733649,node/7084873016,
Canada Embassy,8.9951157,0,38.7373207,node/7084932737,
Mechare Meda,8.9973163,0,38.7311778,node/7084932738,
Bisrate Gebrael,8.9892732,0,38.7239615,node/7084932739,
Zenebework (Crossing),8.9850622,0,38.705264,node/7084932740,
Ayer Tena,8.9838697,0,38.6960209,node/7084932741,
Kidane Mihret (Roundabout),8.9917639,0,38.6887357,node/7084932742,
Kidane Mihret (2),8.9910254,0,38.690106,node/7084932743,
Augusta Bridge (Tor Hailoch),9.0056187,0,38.7185689,node/7084932745,
Mexico,9.0114539,0,38.7445753,node/7084932747,
Goro Roundabout,8.9839859,0,38.8285018,node/7098810331,
Kotebe Shet',8.9678887,0,38.8370059,node/7098810332,
Bole Lemi,8.9585287,0,38.8352869,node/7098810333,
Endorro 2,8.9405669,0,38.8219339,node/7098810334,
Kilinto Right (Heniken),8.9007946,0,38.8152364,node/7098810335,
Koye Feche 4,8.8947925,0,38.8240221,node/7098810336,
Koye Feche 3,8.8925887,0,38.8277372,node/7098810337,
Koye Feche 2,8.896302,0,38.8313712,node/7098810338,
Goro Roundabout,8.9837967,0,38.8289328,node/7098810340,
Kotebe Shet',8.9678046,0,38.8374461,node/7098810341,
Bole Lemi,8.9573187,0,38.8354629,node/7098810342,
Endorro 2,8.9393928,0,38.8217947,node/7098810343,
Endorro 1,8.9307029,0,38.820007,node/7098810344,
kilinto (Heniken Brewery),8.9005132,0,38.8155747,node/7098810345,
Gurd-shola,9.0192718,0,38.8196082,node/7098833728,
Civil Service College,9.021924,0,38.8331381,node/7098833729,
St. Michael,9.021617,0,38.8400876,node/7098833730,
Sunshine Apartments,9.0193173,0,38.8524287,node/7098833731,
Gomista,9.0019915,0,38.8575794,node/7098833732,
Hasset Photo,8.9918735,0,38.8588022,node/7098833735,
Sunshine Apartments,9.0190988,0,38.8521013,node/7098833736,
CMC (Apartments),9.0208488,0,38.8504565,node/7098833737,
St. Michael,9.0213567,0,38.8401568,node/7098833738,
Merkato,9.0337594,0,38.7312293,node/7102193971,
Mesalemia (Area Police),9.0338552,0,38.7254909,node/7102193972,
Luwkanda,9.0332635,0,38.7086533,node/7102193973,
Comprensive,9.0338494,0,38.7049566,node/7102193974,
Gefersa,9.031909,0,38.642409,node/7102193975,
Gojo (Kela),9.0563274,0,38.6117467,node/7102193976,
Gojo (Kela),9.0560454,0,38.6120244,node/7102193977,
Gefersa (2),9.0375371,0,38.6265192,node/7102193978,
Gefersa,9.0356795,0,38.6329501,node/7102193979,
Ashewa Meda (1),9.0328635,0,38.6674596,node/7102193980,
Kersa (1),9.0286003,0,38.6760437,node/7102193981,
Feli Doro (2),9.0343761,0,38.687173,node/7102193982,
Mesalemia,9.0344498,0,38.7244946,node/7102193983,
Merkato,9.0338637,0,38.7312074,node/7102269985,
Ayer Tena,8.9821491,0,38.6977085,node/7103202615,
German Bridge,8.9647174,0,38.7316085,node/7103202616,
Mebrathile (EEPCo),8.9470109,0,38.7342372,node/7103202617,
Saris Abo,8.9444277,0,38.7692016,node/7103202619,
Saris Abo,8.944353,0,38.7666082,node/7103202620,
Kality Maseltegna,8.9336411,0,38.7645892,node/7103202621,
Hana Mariam (Bridge),8.930547,0,38.7550031,node/7103202622,
Mickael Bridge,8.9653607,0,38.72738,node/7103202623,
Ayer Tena,8.9820533,0,38.6976219,node/7103202625,
Bel Air,9.0323651,0,38.7729637,node/7104888674,
CMC (Apartments),9.0211237,0,38.8506098,node/7105158906,
Tafo Condominium 2,9.0462589,0,38.8774831,node/7105158907,
Tafo Condominium 1,9.0502639,0,38.8775457,node/7105158908,
Mebrat (Lafto),8.9593839,0,38.7490031,node/7105268824,
Dildiy Mariam,8.9587047,0,38.7497551,node/7105268825,
Lafto (Mickael),8.9537745,0,38.7504407,node/7105268826,
Lafto,8.9465504,0,38.7493803,node/7105268828,
Lafto (Primary School),8.9558865,0,38.7450783,node/7105268830,
Post Office (Ambassador),9.0185243,0,38.7534558,node/7105398617,
6 Kilo (University),9.0461705,0,38.7614232,node/7105398618,
Teferi Mekonen,9.0522977,0,38.7623138,node/7105398619,
Marathon Motor (Megenagna),9.022269,0,38.7999868,node/7105584907,
Arat Kilo,9.0332665,0,38.762507,node/7105584908,
Piassa Arada,9.0341288,0,38.7532588,node/7105584909,
Arat Kilo,9.0332715,0,38.7625094,node/7105584911,
Abebe Sook,9.0289345,0,38.7888307,node/7105584912,
Abune Petros,9.0358919,0,38.7492708,node/7105840324,
Yohannes,9.0424895,0,38.745898,node/7105840325,
Arbegnoch Primary School,9.0472271,0,38.7421685,node/7105840326,
Enqulal Fabrica,9.0485317,0,38.7376837,node/7105840327,
Yohannes,9.0434044,0,38.7450108,node/7105840330,
Enqulal Fabrica,9.0481067,0,38.7373533,node/7105840331,
Sefera,8.9209077,0,38.7350358,node/7107670562,
Mebrathile (EEPCo),8.94963,0,38.7332384,node/7107670563,
Mekanisa Abo,8.9829863,0,38.7341183,node/7107670564,
Jemmo 2,8.9606298,0,38.6879228,node/7107789218,
Piassa (Downtown Cafe),9.0319297,0,38.7511477,node/7107789219,
Jemmo 2,8.9605732,0,38.6878636,node/7107789220,
Kera,8.9860956,0,38.7483037,node/7108224469,
6th (Raddison Blu),9.0166264,0,38.7675202,node/7110438104,
Kazanchis (6th),9.0171928,0,38.7701955,node/7110438105,
Aware Roundabout,9.0231177,0,38.7758778,node/7110438106,
Signal,9.0234853,0,38.7815333,node/7110438107,
Dinberwa Hospital,9.0221973,0,38.7867845,node/7110438108,
Lem Hotel,9.0212061,0,38.7940254,node/7110438109,
Lamberet (Queens),9.022362,0,38.8157252,node/7110438110,
Kotebe 01,9.0348925,0,38.8281186,node/7110438111,
Kotebe 01,9.0349074,0,38.8281855,node/7110438113,
Shola (United Bank),9.0217059,0,38.7948696,node/7110438114,
Sumeya Mosque,9.021194,0,38.792498,node/7110438115,
Signal,9.023369,0,38.7815645,node/7110438116,
Kality Gebriel,8.9104302,0,38.7640618,node/7110725239,
Addis Sefer (Overpass),8.9572931,0,38.7673729,node/7110725240,
Bole Mickael (2),8.9799499,0,38.7723221,node/7110725241,
Bole Bridge,8.9867261,0,38.7903601,node/7110725242,
MOENCO,8.9948785,0,38.7957512,node/7110725243,
Sport Academy,9.0009401,0,38.7988652,node/7110725244,
Anbessa Garage,9.0077883,0,38.8030776,node/7110725245,
IVECO,9.0158283,0,38.8026698,node/7110725246,
Anbessa Garage,9.0076034,0,38.8032793,node/7110725247,
Emperial Hotel,9.0037859,0,38.8009424,node/7110725248,
MOENCO,8.9950941,0,38.7961036,node/7110725249,
Bole (Bora Amusement),8.9910443,0,38.7946816,node/7110725250,
Bole Mickael (2),8.9795995,0,38.7721474,node/7110725251,
Addis Sefer,8.9603711,0,38.7676814,node/7110725252,
Saris Abo,8.9458024,0,38.7692055,node/7110725253,
Kality (Correctional Facility),8.9234126,0,38.7648588,node/7110725254,
Kality Meneharia,8.8959395,0,38.7718808,node/7110725256,
Arat Kilo,9.0354591,0,38.7588358,node/7111821010,
Piassa (EPPCO),9.0325113,0,38.7538404,node/7111821011,
Autobis Tera,9.0317457,0,38.7374552,node/7111821013,
Autobis Tera,9.0301828,0,38.7373348,node/7111821015,
Dinberwa Hospital (1),9.0216842,0,38.7887833,node/7111821016,
Chid Tera,9.0374493,0,38.721592,node/7112123457,
Mebrathail,9.0294949,0,38.7149359,node/7112123458,
Kolfe Keranyo,9.0173854,0,38.7177803,node/7112123459,
Keranio Bridge,9.0193846,0,38.708993,node/7112123460,
Kolfe Keranyo,9.0170237,0,38.7176821,node/7112123462,
Abysinia Coffee,9.0370321,0,38.7163686,node/7112123463,
Chid Tera,9.0376714,0,38.7208971,node/7112123464,
Old Airport (Mobil),8.9998854,0,38.7188624,node/7112215078,
Minaye (Shoa Supermarket),9.008471,0,38.7196192,node/7112215079,
Holand,9.0208524,0,38.7158287,node/7112215080,
18 Mazoria (Atena Tera),9.0361682,0,38.7141478,node/7112215081,
Atena Tera,9.0409736,0,38.7125982,node/7112215082,
Winget TVET,9.0491202,0,38.7116581,node/7112215083,
Winget,9.0555289,0,38.7124575,node/7112215084,
Winget TVET,9.0494004,0,38.7117843,node/7112280389,
kolfe (Atena Tera),9.0448145,0,38.7122352,node/7112280390,
Atena Tera,9.0414434,0,38.712721,node/7112280391,
18 Mazoria (Atena Tera),9.0362317,0,38.7143961,node/7112280392,
Meseret Edget,9.0244809,0,38.7152453,node/7112280393,
Augusta Bridge (Tor Hailoch),9.0056155,0,38.7188519,node/7112280394,
Mahiber Betoch,8.8596281,0,38.8146269,node/7112648156,
Project 12 Akababi,8.865212,0,38.8210444,node/7112648157,
G7 (Tulu Dimtu),8.8701237,0,38.8204129,node/7112648158,
Belay Ab Moters,8.871336,0,38.7965426,node/7112648159,
Gelan Condominium,8.8797285,0,38.7794514,node/7112648160,
Kality Total,8.894811,0,38.7728422,node/7112648161,
Akaki Subcity Office (Menaheria),8.8973286,0,38.770309,node/7112648162,
Kality (Correctional Facility),8.9224149,0,38.7641522,node/7112648163,
Techtra Engineering,8.9281178,0,38.7676362,node/7112648164,
Adey Abeba,8.9572677,0,38.7637599,node/7112648165,
Kality Maseltegna,8.9323914,0,38.7669427,node/7112648166,
Wehalemat,8.9298175,0,38.768315,node/7112648167,
Awash Bank (Akaki Kality),8.8837788,0,38.7768426,node/7112648168,
Gelan Condominium,8.8799589,0,38.7793211,node/7112648169,
Belay Ab Moters,8.8716847,0,38.7963837,node/7112648170,
Belay Ab Moters (Alem Bank),8.8675171,0,38.798439,node/7112648171,
TAF Oil (Tulu Dimtu),8.8705655,0,38.8091005,node/7112648172,
Addis Sefer (NFSL W09),8.9580023,0,38.7723166,node/7112755336,
Addis Sefer,8.9590585,0,38.7710152,node/7112755337,
Teklehaymanot,9.0278217,0,38.7439418,node/7112755338,
Autobis Tera,9.0314996,0,38.7376384,node/7112755340,
Autobis Tera,9.0308454,0,38.7381207,node/7112755342,
Meteorology,9.0194238,0,38.7468282,node/7112755343,
Sengatera,9.0148435,0,38.7468427,node/7112755344,
Addis Sefer,8.9587021,0,38.7706049,node/7112755345,
Girum Hospital,9.0462468,0,38.7199737,node/7113004009,
Ras Hailu (Medhanialem),9.0509733,0,38.7211613,node/7113004010,
Awolia,9.0572551,0,38.7114101,node/7113004011,
Bercheko Fabrica (Asko),9.0640587,0,38.6983516,node/7113004012,
Gulele,9.0598807,0,38.70588,node/7113004013,
Ras Hailu (Medhanialem),9.0507813,0,38.7210939,node/7113004014,
Woreda 7 TVET,9.040909,0,38.7212829,node/7113004015,
Chid Tera,9.0380466,0,38.7213725,node/7113004016,
Autobis Tera,9.0312199,0,38.7365754,node/7113004018,
Michael (2),9.0426217,0,38.73268,node/7113004020,
Pawlos Hospital (Saba Mosque),9.0485205,0,38.7261371,node/7113004021,
Anbessa Garage (Shegole),9.0643796,0,38.7205811,node/7113004022,
Shegole (Mender 7),9.0641379,0,38.7266132,node/7113004024,
Shegole (Mender 7),9.0641466,0,38.726699,node/7113004026,
Hassen & Hussein Mosque (Shegole),9.0589167,0,38.7189551,node/7113004027,
Shegole Bank,9.0548351,0,38.7198445,node/7113004028,
Michael,9.0409541,0,38.7321449,node/7113004029,
Eyesus,9.0652655,0,38.7712666,node/7113158623,
Wello Sefer,8.9931107,0,38.7741153,node/7122983960,
Kassech Kitfo,8.9891423,0,38.7720567,node/7122983961,
Ambasel,8.9855755,0,38.7679985,node/7122983962,
WAGGA (Singer Liquior Store),8.9840055,0,38.7662234,node/7122983963,
Wengalawit,8.9814923,0,38.7635127,node/7122983964,
Wengalawit,8.9817105,0,38.7636059,node/7122983968,
MEDCO,8.9857381,0,38.7680101,node/7122983969,
Tebaber Berta,8.98977,0,38.7723942,node/7122983970,
Wello Sefer,8.9930626,0,38.7739711,node/7122983972,
Beshale Area,9.0113972,0,38.8356151,node/7123180286,
Megenagna,9.0185063,0,38.802106,node/7123180287,
Jacros,9.0111777,0,38.821148,node/7123180289,
Safari,9.0100121,0,38.8526604,node/7123180290,
Safari (Summit),9.0116739,0,38.8657082,node/7123180291,
Safari (Summit),9.0115148,0,38.8657494,node/7123180293,
Safari,9.0099646,0,38.8513684,node/7123180295,
Beshale Area,9.011279,0,38.8356503,node/7123180296,
Gurd Shola,9.0189315,0,38.8201425,node/7123180297,
Megenagna,9.0194519,0,38.803506,node/7123180298,
Meskel Flower,8.9882804,0,38.7650036,node/7123265052,
Loza (Adot),8.9911645,0,38.7659652,node/7123265053,
Nazra Hotel,8.9934001,0,38.7663984,node/7123265054,
Yetam Hotel,8.9959487,0,38.7666123,node/7123265055,
Kebele Kibeb,8.9980982,0,38.7667571,node/7123265056,
Mulu Shewa (Gazebo),8.9999844,0,38.7669271,node/7123265061,
Kebele Kibeb,8.9979306,0,38.7668423,node/7123265062,
Yetam Hotel,8.9959132,0,38.7667132,node/7123265063,
Nazra Hotel,8.9937071,0,38.7665439,node/7123265064,
Loza (Adot),8.9910552,0,38.7660467,node/7123265065,
Meskel Flower,8.9885268,0,38.7652457,node/7123265066,
Total 3 Kuter Mazoria,8.9921561,0,38.7180191,node/7182111861,
Kera,8.9865792,0,38.7468023,node/7182111862,
4 Kilo Minilik School,9.0351361,0,38.7629695,node/7214490240,
Kality Menaheriya,8.8967488,0,38.7708485,node/7214490241,
Delta Fuel Station,8.8504983,0,38.8085926,node/10672721751,
Sidama Awash NOC,8.8412588,0,38.8243789,node/10672739809,
Atlas Resort,8.8314833,0,38.8396009,node/10672739811,
ODDA Fuel Station,8.8447465,0,38.818065,node/10672739815,
3 Kutir (TZNA Area),8.9943894,0,38.717673,node/10672961242,
Lideta High Court,9.0117316,0,38.7335924,node/10672961244,
Ayer Tena,8.9839135,0,38.7024743,node/10750378219,
Sar Bet,8.9925223,0,38.7394551,node/10755917239,
Sar Bet,8.9924619,0,38.7392871,node/10755917241,
Kera,8.9859671,0,38.7469304,node/10755917242,
Kera,8.9900132,0,38.7418629,node/10755917243,
Sar Bet,8.995096,0,38.7376124,node/10755917244,
karl Square,8.9973975,0,38.7309965,node/10755917245,
karl Square,8.9970773,0,38.7302642,node/10755917246,
Bisrate Gebrael,8.9927368,0,38.7268512,node/10755917247,
Bisrate Gebrael,8.9914228,0,38.7255644,node/10755917248,
Bisrate Gebrael,8.9888937,0,38.7226976,node/10755917249,
Total 3 Kuter Mazoria,8.9922875,0,38.7175917,node/10755917250,
kality Meneharia,8.8967652,0,38.7708737,node/10766121857,
kality Maseltegna,8.9319554,0,38.7669453,node/10766121859,
Kadisco Roundabout,8.9632423,0,38.7668102,node/10766121860,
Bole Mickael,8.9816305,0,38.7761571,node/10766121861,
Bole Printing Press,8.9966149,0,38.7721247,node/10766121862,
Flamingo,9.0100526,0,38.7634141,node/10766121863,
St. Estifanos,9.0125659,0,38.7626278,node/10766121864,
4 Kilo (Menlik),9.035146,0,38.7629874,node/10766121865,
4 Kilo (Menlik),9.0352952,0,38.7631121,node/10766121866,
Place Parking (Gibi Gebriel),9.0214342,0,38.7641345,node/10766121867,
Flamingo,9.01014,0,38.7636218,node/10766121868,
Wollo Sefer,8.9944147,0,38.7743234,node/10766121869,
Bole Mikael,8.9812653,0,38.7761469,node/10766121871,
Mamo (Nifas Silk),8.9737518,0,38.765481,node/10766121872,
kality Maseltegna,8.9321192,0,38.7670877,node/10766121873,
kality Meneharia,8.8957067,0,38.7721261,node/10766121874,
Olympia,9.0056744,0,38.7674734,node/10766454593,
Bole Roundabout,8.9867247,0,38.7908923,node/10766454594,
African Union,9.003043,0,38.7411322,node/10768858718,
Autobis Tera,9.0296176,0,38.7370362,node/10768858719,
Guenet Hotel (Orbis),9.0026517,0,38.7470064,node/10768858720,
German Square,8.9651822,0,38.7340469,node/10768858723,
Lamberet Menaheria,9.0239162,0,38.8198728,node/10781643820,
Arat Kilo,9.0322896,0,38.7650098,node/10781643821,
4 kilo (Children Theatre),9.0328365,0,38.7666152,node/10781643822,
Bel Air,9.0325481,0,38.7736753,node/10781643823,
Kebena,9.0344084,0,38.7768069,node/10781643824,
Kokebe Tsebah (Kebena),9.0350794,0,38.7794124,node/10781643825,
Kenya Embassy (Kebena),9.0324942,0,38.7823515,node/10781643826,
British Embassy,9.0309005,0,38.785575,node/10781643827,
Abebe Sook,9.0289673,0,38.7888226,node/10781643828,
Shola (Yeka Court),9.0251295,0,38.7947497,node/10781643829,
Shola Abyssinia Bank,9.0232585,0,38.7984062,node/10781643830,
Megenagna (Marathon Motors),9.0224046,0,38.7997354,node/10781643831,
Megenagna,9.0208971,0,38.8010368,node/10781643832,
Megenagna (Israel Embassy),9.0208722,0,38.8048559,node/10781643833,
Lamberet Menaheria,9.0240444,0,38.8199227,node/10781643834,
Kotebe,9.0297042,0,38.836729,node/10781643835,
Kotebe,9.0304539,0,38.8385612,node/10781643836,
Kotebe Teachers College,9.0348007,0,38.8490303,node/10781643837,
Kotebe Gebriel,9.0363204,0,38.8553365,node/10781643838,
Kotebe Gebriel,9.0358505,0,38.8541265,node/10781643839,
Wessen Grocery,9.032918,0,38.8443436,node/10781643840,
Kara,9.0407203,0,38.8648947,node/10781643841,
Kara,9.0411416,0,38.8653607,node/10781643842,
Abebe Sook,9.0287927,0,38.788672,node/10781844855,
British Embassy,9.0313214,0,38.7843424,node/10781844856,
5 Kilo St. Mary,9.038677,0,38.7623866,node/10781844857,
6 Kilo University,9.0462129,0,38.7614003,node/10781844858,
6 Kilo University,9.0462072,0,38.7615945,node/10781844859,
6 Kilo (Lion Zoo),9.0430896,0,38.7615002,node/10781844860,
Kenya Embassy (Kebena),9.032679,0,38.7826601,node/10781844861,
Shola (Yeka Court),9.0250431,0,38.7953847,node/10781844862,
Megenagna (Marathon Motors),9.0225097,0,38.7998471,node/10781844863,
Yeka 03,9.0381854,0,38.8773834,node/10823916391,
Sefera Atkilt Tera,8.931276,0,38.7341685,node/10842065101,
kality Maseltegna,8.9358559,0,38.7646885,node/10842065103,
Bulgaria,8.9948043,0,38.7478806,node/10842065104,
Kality Customs,8.9379429,0,38.7628904,node/10842129005,
Germen Square,8.9644696,0,38.7330813,node/10842129006,
Hana Mariam,8.93579,0,38.7441345,node/10842129008,
Gomista,8.9373819,0,38.7703639,node/10842129009,
Nigd bank,8.948706,0,38.780123,node/10842129010,
kality Maseltegna,8.9342123,0,38.7642814,node/10842129011,
Kadisco,8.9310906,0,38.7585214,node/10842129012,
Adey abeba,8.9582797,0,38.7638648,node/10842129013,
Saris abo,8.9457865,0,38.7690665,node/10842129015,
Haile Garment,8.93876,0,38.7345583,node/10842129016,
Saris,8.9546992,0,38.7635479,node/10842129017,
Bole Cargo,8.9834477,0,38.7819099,node/10842129019,
Bulgaria,8.9944221,0,38.7483448,node/10842129020,
Kore,8.9482742,0,38.7765022,node/10842129021,
Saris Abo,8.9444276,0,38.7691994,node/10842129022,
Kality Menaheria,8.8973782,0,38.7704449,node/10842129023,
Sefera Square,8.9254109,0,38.7340982,node/10842129024,
Mexico,9.009032,0,38.7463895,node/10842129025,
Kality Gebriel,8.9092945,0,38.7644698,node/10842129026,
Derartu,8.8869211,0,38.7821218,node/10842129027,
Bole Cargo,8.9836884,0,38.7818039,node/10842129028,
Kality Total,8.8948904,0,38.7729402,node/10842129029,
Noc,8.9927142,0,38.748144,node/10842129030,
Lancha,8.9901397,0,38.7590821,node/10842129031,
Haile Garment,8.9375158,0,38.7359129,node/10842129032,
Agona,8.9880834,0,38.759633,node/10842129033,
kality Maseltegna,8.9336549,0,38.7646465,node/10842129034,
Mesqelegna,8.9417644,0,38.7214531,node/10842129035,
Jemo,8.9537651,0,38.6979529,node/10842129037,
Adey abeba,8.9577771,0,38.7640443,node/10842129038,
Saris Abo,8.9448318,0,38.7661797,node/10842129040,
Mebrat hayle,8.9457862,0,38.7343973,node/10842129041,
Kadisco,8.9633984,0,38.7669226,node/10842129042,
Hana Mariam,8.9356798,0,38.7453864,node/10842129043,
Mamo (NFSL),8.9729895,0,38.7609585,node/10842129045,
Medhani alem,8.9490785,0,38.7785848,node/10842129046,
Mosque (Mesged),8.9047633,0,38.7660661,node/10842129047,
Kality Gebriel,8.9093265,0,38.7645559,node/10842129048,
Bole Roundabout,8.9859342,0,38.7888143,node/10842129051,
Wuhalimat,8.9295556,0,38.7681435,node/10842129052,
Hana Mariam,8.9361549,0,38.7445142,node/10842129053,
Bole Mickael,8.9797944,0,38.7719673,node/10842129054,
Sheger building,8.9192813,0,38.7635639,node/10842129055,
Yoseph,8.9705748,0,38.7668114,node/10842129056,
Bulgaria,8.9947898,0,38.7477478,node/10842129057,
Mebrathayil,8.9470316,0,38.7342346,node/10842129058,
Sefera Square,8.9250202,0,38.7346011,node/10842129059,
Tele Garage,9.0000494,0,38.758701,node/10842129060,
Mebrathayil,8.9469179,0,38.7339445,node/10842129061,
Haile garment,8.9376734,0,38.7335906,node/10842129062,
Meshualekia,9.0058652,0,38.758986,node/10842129063,
Adey abada,8.9571801,0,38.7640108,node/10842129066,
Menaheria (Zenebu Werk),8.9755358,0,38.706617,node/10842129069,
Adis sefer,8.9602509,0,38.767446,node/10842129070,
Kadisco,8.930883,0,38.758758,node/10842129071,
Bulgaria,8.993831,0,38.7478486,node/10842129072,
Kadisco,8.9661182,0,38.7627716,node/10842129073,
Bulbula,8.9517202,0,38.7861393,node/10842129074,
Kadisko,8.966096,0,38.7629867,node/10842129075,
Saris abo,8.9444437,0,38.7700795,node/10842129076,
Meshualekya,8.8758561,0,38.7874349,node/10842129077,
Agona,8.9871416,0,38.7597928,node/10842129078,
Gotera chaf,8.9771026,0,38.7595824,node/10842129079,
Saris,8.9528149,0,38.7633358,node/10842129080,
St. Joseph School,9.0106804,0,38.7593422,node/10842129082,
Kotari Condominium,8.9321621,0,38.7338312,node/10842129083,
Mamo,8.9732793,0,38.7652695,node/10842129084,
Saris Abo,8.9448603,0,38.7664084,node/10842129085,
Yosef,8.9705442,0,38.7665547,node/10842129086,
Kality Cheralia,8.9068482,0,38.7654586,node/10842129088,
Kality Cheralia,8.9066965,0,38.7653555,node/10842129089,
Lancha,8.9906489,0,38.7593009,node/10842129090,
Gomista,8.9375024,0,38.7701062,node/10842129091,
Haile Garment,8.9375082,0,38.7331196,node/10842129092,
Tele Garage,9.0001174,0,38.7584826,node/10842129093,
Selam Building,8.8840683,0,38.7767083,node/10842129094,
Medhani alem,8.9453322,0,38.7769101,node/10842129095,
Selam Building,8.8832033,0,38.7771627,node/10842129096,
Meshualekya,8.8758518,0,38.7872182,node/10842129097,
Saris,8.9531876,0,38.7635911,node/10842129098,
Germen adebabay,8.963723,0,38.7328242,node/10842129102,
Mamo (NFSL),8.972508,0,38.7607874,node/10842129103,
Kera,8.9875165,0,38.7486365,node/10842129105,
Agona,8.9867627,0,38.7599766,node/10842129106,
Saris abo,8.9446574,0,38.7701231,node/10842129107,
Kera,8.9860883,0,38.7483211,node/10842129108,
Gelan Condominium,8.8790966,0,38.7666013,node/10842129110,
Temenja yasi,8.9953066,0,38.7596133,node/10842129111,
Riche,9.0041803,0,38.7588933,node/10842129112,
Haile garment,8.9368154,0,38.7364242,node/10842129113,
Bole Mickael,8.9795749,0,38.7720906,node/10842129114,
Ayer Tena,8.9835322,0,38.6971287,node/10842129116,
Jemo,8.9537239,0,38.6977027,node/10842129117,
Land mark,9.0052072,0,38.7467544,node/10842129118,
Meskelegna,8.9411484,0,38.7218311,node/10842129119,
Haile Garment,8.9381771,0,38.7349153,node/10842129120,
Riche,9.0040548,0,38.7586909,node/10842129121,
Kore,8.9476648,0,38.7841911,node/10842129122,
Meshualekya,8.8770203,0,38.7866008,node/10842129124,
Bulbula,8.9518942,0,38.7863461,node/10842129125,
kality Maseltegna,8.9357353,0,38.7643342,node/10842129126,
Saris abo,8.9457601,0,38.7692278,node/10842129129,
Addis sefer,8.9603252,0,38.7676873,node/10842129131,
Hana mariam,8.9352291,0,38.744852,node/10842129132,
Kera,8.9866879,0,38.7484325,node/10842129133,
Gotera chaf,8.9757898,0,38.7601404,node/10842129134,
Akaki Subcity Office (Menaheria),8.8972852,0,38.770318,node/10842129135,
Condominium,8.9411922,0,38.7717099,node/10842129136,
Gelan Condominium,8.8789992,0,38.7666701,node/10842129137,
Wuhalimat,8.9295931,0,38.7683276,node/10842129139,
Mexico,9.0098761,0,38.7461882,node/10842129140,
Grand Anwar Mosque,9.0312472,0,38.7413343,node/10845731573,
Kebele 11,9.0247282,0,38.7457773,node/10845731574,
Guenet hotel,9.0028738,0,38.7468651,node/10845731575,
Lancia,8.9923344,0,38.7589891,node/10845731576,
Pepsi,8.9825134,0,38.755826,node/10845731577,
Lancia,8.9919399,0,38.7591215,node/10845731578,
Tekle Haimanot,9.0279893,0,38.7438378,node/10845731579,
Saris Abo,8.9441872,0,38.7666459,node/10845731580,
Legehar,9.0120319,0,38.7544517,node/10845731581,
Kera,8.9841589,0,38.7522272,node/10845731582,
Kality Customs,8.9380577,0,38.7631799,node/10845731583,
Gojam Berenda,9.0342603,0,38.7378007,node/10845731584,
Gojam Berenda,9.0343553,0,38.7381021,node/10845731585,
Derartu,8.8869148,0,38.7818893,node/10845731586,
Pepsi,8.9824223,0,38.7557408,node/10845731587,
Global Hotel,8.9943898,0,38.7596457,node/10845731588,
Sheger Building,8.9208636,0,38.7637542,node/10845731589,
Autobus Tera,9.0343246,0,38.734431,node/10845731590,
Guenet hotel,9.0027786,0,38.7469738,node/10845731591,
Tekle Haimanot,9.0279685,0,38.7439714,node/10845731592,
Beg Tera,8.9970419,0,38.7476261,node/10845731593,
Global Hotel,8.9943499,0,38.7598651,node/10845731594,
Kality Correctional,8.9223845,0,38.7641252,node/10845731595,
Cheralia Factory,8.9029367,0,38.7667306,node/10845731596,
Kebele 11,9.0246149,0,38.7457421,node/10845731597,
Grand Anwar Mosque,9.0310422,0,38.7414003,node/10845731598,
National Theatre,9.0165472,0,38.7526758,node/10845731599,
Saris,8.95346,0,38.767986,node/10845731601,
Beg Tera,8.9968163,0,38.7475303,node/10845731602,
Sengatera,9.014753,0,38.7468099,node/10845731603,
Mexico,9.0096228,0,38.746301,node/10845731604,
Bulgaria,8.9937615,0,38.7479845,node/10845749005,
kality Meneharia,8.8956285,0,38.7720203,node/10845840895,
Ayer Tena,8.9841307,0,38.6966586,node/10845840896,
Germen adebabay,8.9637758,0,38.7330269,node/10845840897,
Kality Total,8.8948231,0,38.7728316,node/10846106471,
Bole Bridge,8.9869946,0,38.7912092,node/10881147490,
Bole Bridge,8.9867302,0,38.7903563,node/10881147492,
Autobus Tera,9.0341009,0,38.7338003,node/10883106542,
Bajaj Tera,8.907041,0,38.7415025,node/10886135782,
Chera,8.904156,0,38.7479978,node/10886135783,
Gelan Condominium,8.8772921,0,38.7622377,node/10886135784,
Total,8.8549158,0,38.7845626,node/10886135785,
Tulu Dimtu,8.8737817,0,38.8197795,node/10886135787,
Tulu Dimtu,8.8738791,0,38.8202354,node/10886135789,
G7,8.8709574,0,38.820802,node/10886135790,
Total,8.8541896,0,38.7847209,node/10886135791,
Gelan Condominium,8.8758233,0,38.7630121,node/10886135793,
Bole Bridge,8.9906055,0,38.7928534,node/10886281950,
Bole Medhanyalem,8.9955183,0,38.7887705,node/10886281951,
Edna Mall Squar,8.9973425,0,38.7870108,node/10886281952,
Adey Ababa Stadium,9.0043569,0,38.7892817,node/10886281953,
22 Mazoria,9.0150262,0,38.7872566,node/10886281954,
22 Mazoria,9.0150056,0,38.787438,node/10886281956,
Freedom,9.0082739,0,38.7887083,node/10886281958,
Werku Building,9.0069454,0,38.7890587,node/10886281997,
Adey Ababa Stadium,9.0042976,0,38.7893444,node/10886281998,
Edna Mall Squar,8.9977034,0,38.7869491,node/10886281999,
Bole Medhanyalem,8.995948,0,38.7885714,node/10886282000,
Bole Bridge,8.9906936,0,38.7929596,node/10886282001,
22 Mazoria,9.0161537,0,38.7881236,node/10886427067,
Lem Hotel,9.017758,0,38.7950715,node/10886427068,
Megenagna,9.0198841,0,38.8019786,node/10886427069,
Gurd Shola,9.0191878,0,38.8200261,node/10886427070,
Civil Servis College,9.0218654,0,38.8345374,node/10886427071,
Yetebaberut,9.0209806,0,38.8536095,node/10886427072,
Ayat,9.0214852,0,38.8750186,node/10886427073,
Civil Servis College,9.0215577,0,38.8350083,node/10886427074,
Ayat,9.0211711,0,38.8737977,node/10886427075,
Meshageria,9.0204163,0,38.8598848,node/10886427076,
Yetebaberut,9.020619,0,38.8535182,node/10886427077,
Bole Bora Amusement,8.9907378,0,38.7941243,node/10886883544,
Megenagna,9.0185543,0,38.8016982,node/10886883546,
Anbessa Garage,9.0078296,0,38.8034449,node/10886883547,
Emperial Hotel,9.0037737,0,38.8009392,node/10886883548,
Hayat Hospital,8.9950343,0,38.7961015,node/10886883549,
Bole Bora Amusement,8.9916604,0,38.7949793,node/10886883550,
Sun shine,9.0199832,0,38.852562,node/10886991025,
Megenagna,9.0200202,0,38.8042842,node/10886991026,
Meshualekia,9.021578,0,38.841553,node/10886991027,
Safari,9.0110042,0,38.8522797,node/10886991028,
Summit,9.004015,0,38.8519977,node/10886991029,
Summit,9.004282,0,38.8517386,node/10886991031,
Safari,9.010941,0,38.8519018,node/10886991032,
Sun shine,9.0199154,0,38.8520834,node/10886991033,
Meshualekia,9.021324,0,38.8415391,node/10886991034,
Michael,9.021353,0,38.8392942,node/10886991035,
Gurd Shola,9.0187135,0,38.8211275,node/10886991036,
Hayat Hospital,8.9948468,0,38.7956759,node/10887120325,
Sport Accadamy,9.0001969,0,38.798384,node/10887120326,
Emperial Hotel,9.0027661,0,38.8000262,node/10887120327,
Mulugeta Building,9.0187177,0,38.8016319,node/10887120328,
93 Mazoria,8.9603848,0,38.7855121,node/10890083966,
Kaldisco,8.9623057,0,38.7863684,node/10890083967,
Key Afer,8.9642046,0,38.7872114,node/10890083968,
Bole Bridge,8.9901774,0,38.7938035,node/10890083969,
Key Afer,8.9642211,0,38.7873203,node/10890290096,
93 Mazoria,8.9604784,0,38.785703,node/10890290097,
Kebele,8.9581348,0,38.7875752,node/10890290098,
Anbessa Garage,9.0080412,0,38.8031745,node/10893030388,
Jacros,9.0035488,0,38.8169267,node/10893030389,
Alem Ayew Building,8.9993201,0,38.8210973,node/10893030390,
Goro,8.9923039,0,38.8283586,node/10893030392,
Goro,8.9917123,0,38.8287738,node/10893030394,
Goro School,8.9939213,0,38.8266397,node/10893030395,
Alem Ayew Building,8.9992455,0,38.8210064,node/10893030396,
Jacros,9.0035377,0,38.8166485,node/10893030397,
Sport Accadamy,8.9999982,0,38.7986195,node/10893030398,
Bole Bridge,8.9911487,0,38.7947324,node/10893030400,
Figa,9.0122741,0,38.8336594,node/10893316186,
Mesgid,9.0110639,0,38.8366122,node/10893316189,
Figa,9.0121764,0,38.8335762,node/10893316190,
Bole Mickael,8.984658,0,38.7731313,node/10898980600,
Ambasader,9.0162838,0,38.7551282,node/10898980601,
Dembel,9.0069448,0,38.7662663,node/10898980602,
Stadium,9.0123922,0,38.7586647,node/10898980603,
Metrology,9.0192676,0,38.7466456,node/10898980604,
Tikur Anbesa,9.0217285,0,38.7476072,node/10898986005,
Tikur Anbesa,9.0207753,0,38.7476005,node/10898986007,
Metrology,9.0188878,0,38.7467207,node/10898986008,
Ambasader,9.0164136,0,38.7553118,node/10898986009,
Stadium,9.011485,0,38.760062,node/10898986010,
Dembel,9.0038396,0,38.7686303,node/10898986011,
Bole Printing Press,8.9979213,0,38.7717243,node/10898986012,
Bole Mickael,8.9849144,0,38.7734946,node/10898986014,
Cinema Ras,9.0318094,0,38.7413697,node/10899009892,
Cinema Ras,9.0317766,0,38.7414723,node/10899009893,
Rwanda,8.992509,0,38.7781683,node/10899150564,
Shewa Dabo,9.0017627,0,38.7693116,node/10899150565,
St. Estifanos Church,9.0120704,0,38.7626611,node/10899150566,
Piassa Arada,9.0321752,0,38.7511048,node/10899150567,
Piassa Arada,9.0330229,0,38.7525581,node/10899150568,
Tewodros Square,9.0264157,0,38.7517894,node/10899150569,
Tikur Anbesa,9.0210948,0,38.7522625,node/10899150570,
Post Office,9.019064,0,38.7529153,node/10899150571,
Ghion Hotel,9.0138467,0,38.7576138,node/10899150572,
Bole Bridge,8.9885561,0,38.7897689,node/10899278324,
Friendship Building,8.9908062,0,38.7840796,node/10899278325,
Rwanda,8.9923825,0,38.7798445,node/10899278326,
Friendship Building,8.9908613,0,38.7844715,node/10899278327,
Bole Bridge,8.9887169,0,38.7898626,node/10899278328,
Anbessa Garage,9.0084115,0,38.8038533,node/10899524535,
Condominium - Gerji Mebrat hayle,9.0049309,0,38.8100683,node/10899524536,
Gerji Mebrat hayle,9.0036683,0,38.814209,node/10899524537,
Goro,8.9913434,0,38.8294024,node/10899524538,
kilinto Right,8.900477,0,38.815561,node/10899524539,
Tulu Dimtu,8.875391,0,38.8197599,node/10899524540,
kilinto Right,8.900461,0,38.8150743,node/10899524542,
Goro,8.9912832,0,38.8292469,node/10899524543,
Gerji Mebrat hayle,9.0035919,0,38.8134376,node/10899524544,
Condominium - Gerji Mebrat hayle,9.0050654,0,38.8095948,node/10899524545,
Anbessa Garage,9.0071868,0,38.8055809,node/10899524547,
Mesgid,9.011198,0,38.8364067,node/10899590290,
Saint Georgis,8.994461,0,38.8518486,node/10899590291,
Saint Georgis,8.994389,0,38.8515329,node/10899590293,
Mebrathile,8.9493529,0,38.7332958,node/10899652823,
Gebriel Bridge,8.9556186,0,38.7324445,node/10899652824,
Mickael Bridge,8.965384,0,38.7273491,node/10899652825,
Zenebewerk,8.9727473,0,38.7121031,node/10899652826,
Chaina Camp,8.975714,0,38.7055213,node/10899652827,
Ayer Tena,8.981635,0,38.6982059,node/10899652829,
Haile Garment,8.9385233,0,38.7348966,node/10901428140,
Sefera,8.9201595,0,38.7353205,node/10901428141,
Sefera Atkilt Tera,8.9311784,0,38.7337094,node/10901428142,
Sefera,8.9208099,0,38.734667,node/10901428143,
Mesalemia,8.8870433,0,38.7519617,node/10901522017,
Chera Medhanilem,8.9032086,0,38.7484085,node/10901522018,
Haile Garment,8.935726,0,38.7346387,node/10901522020,
Chera Medhanilem,8.9034769,0,38.7491293,node/10901522021,
Mesalemia,8.8871115,0,38.7524365,node/10901522022,
Saris,8.9530332,0,38.7629397,node/10901643508,
58 Mazoria,8.9431476,0,38.7540078,node/10901643510,
Kidane Mihret Stebel,8.9405222,0,38.7500946,node/10901643511,
Mexico,9.0084289,0,38.7447143,node/10902267327,
Mexico,9.0084377,0,38.7448728,node/10902267330,
AU (Mikael) Rounrdabout,8.9990666,0,38.7393711,node/10902267332,
AU (Mikael) Rounrdabout,8.9990162,0,38.7395668,node/10902267333,
Sar Bet,8.9923567,0,38.7381301,node/10902267334,
Sar Bet,8.9923453,0,38.7383324,node/10902267335,
Abo Mazoria,8.9822679,0,38.7342938,node/10902267336,
Abo Mazoria,8.9823292,0,38.7344209,node/10902267337,
Mekanisa,8.9729293,0,38.7311351,node/10902267338,
Mekanisa,8.9728812,0,38.7312498,node/10902267339,
Gebriel Bridge,8.9555964,0,38.732719,node/10902267340,
58 Mazoria,8.9432326,0,38.7539257,node/10903393900,
Varnelo Squer,8.9487486,0,38.7267004,node/10903398373,
Jemmo 1,8.9594798,0,38.7117668,node/10903398374,
Jemmo 1,8.9585188,0,38.712128,node/10903398375,
Jemmo Medhanialem,8.9524535,0,38.7161087,node/10903398376,
Jemmo Medhanialem,8.9525568,0,38.7162235,node/10903398377,
Kebele,8.9490672,0,38.7221583,node/10903398378,
Kebele,8.9491872,0,38.7221797,node/10903398379,
Varnelo Squer,8.9488837,0,38.7267159,node/10903398380,
Sar Bet,8.9951163,0,38.7373285,node/10904734315,
Austria Embassy,8.9936468,0,38.7276618,node/10904734316,
Total 3 Kuter Mazoria,8.9922476,0,38.7177291,node/10904734318,
Autobus Tera,9.0330017,0,38.7322404,node/10905160356,
Autobus Tera,9.033026,0,38.7323851,node/10905160357,
Sebategna,9.0282768,0,38.7329553,node/10905160358,
Sebategna,9.0283274,0,38.7331326,node/10905160359,
Abenet,9.021201,0,38.7333187,node/10905160360,
Abenet,9.0196344,0,38.7335682,node/10905160361,
Darmar,9.0158211,0,38.7346366,node/10905160362,
Darmar,9.0154497,0,38.7347971,node/10905160363,
Lideta Condominium,9.0133778,0,38.7343382,node/10905160364,
Lideta Condominium,9.0133623,0,38.7345056,node/10905160365,
Dessie Hotel,9.0094187,0,38.7337879,node/10905160366,
Dessie Hotel,9.0093029,0,38.7339331,node/10905160367,
Lideta,9.0046165,0,38.7337058,node/10905160368,
Lideta,9.0041332,0,38.7338158,node/10905160369,
AU (Mikael) Rounrdabout,9.0001611,0,38.7393722,node/10905160370,
AU (Mikael) Rounrdabout,8.9999889,0,38.7400667,node/10905160371,
Kera,8.9839514,0,38.7518897,node/10905641592,
Jemmo 1,8.9606229,0,38.7123799,node/10905771998,
Jemmo Mickael,8.9688439,0,38.7216431,node/10905771999,
Metrology,9.0192423,0,38.7468034,node/10905772000,
karl Square,8.9969985,0,38.7304143,node/10905772001,
Bisrate Gebrael,8.9883364,0,38.7227062,node/10905772002,
Jemmo Mickael,8.9687533,0,38.7218663,node/10905772003,
Jemmo 1,8.9604031,0,38.7124299,node/10905772004,
Noc,8.9493317,0,38.6701812,node/10905866700,
Alem Gena,8.9339514,0,38.6639521,node/10905876026,
Alem Gena,8.933851,0,38.6640124,node/10905876027,
Noc,8.9493415,0,38.670031,node/10905876029,
Jemmo 3 Squer,8.9538566,0,38.6965362,node/10905876030,
Jemmo 3 Squer,8.9552123,0,38.697557,node/10905876031,
Post Office,9.0220649,0,38.7520387,node/10905982178,
Germen Square,8.9652918,0,38.732839,node/10905982179,
Germen Square,8.9664306,0,38.7325545,node/10905982180,
Gofa,8.9717027,0,38.7418952,node/10906020778,
Gofa,8.9716231,0,38.7419996,node/10906020779,
Ayer Tena,8.9816221,0,38.6979766,node/10906074341,
Germen Square,8.9644965,0,38.7320917,node/10906074342,
Germen Square,8.9646595,0,38.732112,node/10906074343,
Mesked,8.9883474,0,38.6922537,node/10907679395,
Kidane Mihret,8.9913753,0,38.6892908,node/10907679396,
Tropical,8.9958978,0,38.683541,node/10907679398,
Alem Bank,9.0003808,0,38.677926,node/10907679399,
Alem Bank,9.0010321,0,38.6776565,node/10907679400,
Tropical,8.9957016,0,38.6841485,node/10907679401,
Kidane Mihret,8.9915373,0,38.689491,node/10907679402,
Mesked,8.9884696,0,38.6925125,node/10907679403,
Chaina Camp,8.9757717,0,38.7060819,node/10907679404,
Zenebewerk,8.9730472,0,38.7121867,node/10907725405,
Mickael Bridge,8.9655559,0,38.7275949,node/10907725406,
Germen Square,8.9648278,0,38.7333383,node/10907781477,
Kera,8.9844811,0,38.7500865,node/10907781478,
Kera,8.9842955,0,38.750364,node/10907781479,
Gofa Gebriel,8.9770976,0,38.7490157,node/10907781480,
Gofa Gebriel,8.9770919,0,38.7491174,node/10907781481,
Mekanisa Abo,8.9832814,0,38.7343726,node/10908143594,
Mekanisa Abo,8.9830621,0,38.7341531,node/10908143595,
Mexico,9.0088673,0,38.7440188,node/10908143596,
Mexico,9.0088181,0,38.7438,node/10908143597,
Tewodros Square,9.0263912,0,38.7516402,node/10908191497,
Mekanisa,8.9739466,0,38.7321651,node/10908191498,
Mekanisa,8.9738507,0,38.7322539,node/10908191499,
Post Office,9.0187971,0,38.7524753,node/10908191500,
Mebrathile,8.9493572,0,38.7334477,node/10908661149,
Coca Cola,9.0159317,0,38.729496,node/10909186645,
Merab Hotel,9.0294352,0,38.735361,node/10909186646,
Abenet,9.0213907,0,38.7334955,node/10909186647,
Merab Hotel,9.0293588,0,38.7353749,node/10909186648,
Kolfe Keranyo,9.016555,0,38.7180312,node/10909186649,
Holand,9.0203575,0,38.7159578,node/10909186650,
Holand,9.0204824,0,38.7162551,node/10909186651,
Kolfe Keranyo,9.017036,0,38.7176312,node/10909186652,
Kolfe Keranyo,9.0171583,0,38.7179346,node/10909186653,
Torhayloch,9.0122446,0,38.7202541,node/10909186654,
Torhayloch,9.0120497,0,38.7202419,node/10909186655,
Keranio Mewcha,9.0134653,0,38.7097752,node/10909186657,
Keranio Mewcha,9.0133225,0,38.7097861,node/10909186658,
Mewcha,9.0140592,0,38.7049946,node/10909186659,
Mewcha,9.0139288,0,38.7050058,node/10909186660,
Mendida,9.0153041,0,38.699427,node/10909186661,
Mendida,9.0151509,0,38.6995858,node/10909186662,
Betel,9.0037697,0,38.6937692,node/10909186663,
Betel,9.0036921,0,38.6937746,node/10909186664,
Alem Bank,9.0017481,0,38.6775777,node/10909186665,
Alem Bank,9.0016995,0,38.677633,node/10909186666,
Zenebewerk,8.9868549,0,38.7080844,node/10911198617,
Zenebewerk,8.9867824,0,38.7081829,node/10911198618,
Ayer Tena,8.9838764,0,38.6960194,node/10911198619,
Mexico Shebelle Hotel,9.0114518,0,38.7446969,node/10911242345,
Mexico Shebelle Hotel,9.0114526,0,38.7445773,node/10911242346,
Lideta,9.0117415,0,38.7336365,node/10911242347,
Lideta,9.0115482,0,38.7336469,node/10911242348,
Alem Bank,9.001869,0,38.6772002,node/10911242349,
Alem Bank,9.0018954,0,38.6769434,node/10911242350,
Ayer Tena,8.9834957,0,38.7007283,node/10911695404,
Betel,9.0044227,0,38.6943792,node/10911717876,
Betel,9.0043775,0,38.6941796,node/10911717877,
Ayer Tena,8.9831049,0,38.6982237,node/10911725505,
Zenebewerk,8.9879977,0,38.7080303,node/10912835918,
Zenebewerk,8.9880219,0,38.7079594,node/10912835920,
Mebrat Haile,9.0295143,0,38.714679,node/10913852032,
Mebrat Haile,9.0294826,0,38.7149385,node/10913852033,
18 Mazoria,9.0334554,0,38.7146172,node/10913852034,
18 Mazoria,9.0334598,0,38.714468,node/10913852035,
Abenet,9.0196268,0,38.7327435,node/10913863174,
Abenet,9.0194053,0,38.7327231,node/10913863175,
Coca Cola,9.0159095,0,38.7296372,node/10913863176,
Torhayloch,9.0117875,0,38.7222401,node/10913863177,
Torhayloch,9.0096837,0,38.7208808,node/10913863178,
Augusta Bridge,9.0056583,0,38.7185634,node/10913863179,
Augusta Bridge,9.0055925,0,38.7188581,node/10913863180,
Old Airport,9.0000925,0,38.7188599,node/10913863181,
Old Airport,8.9998426,0,38.7191188,node/10913863182,
3 Kutir Mazoriya (Total),8.9932525,0,38.7170227,node/10913863183,
3 Kutir Mazoriya (Total),8.9926315,0,38.7158494,node/10913863184,
Kara Kore,8.9756363,0,38.6817486,node/10913974717,
Kara Kore,8.9754096,0,38.6814462,node/10913974718,
Gerar,8.9813701,0,38.6894126,node/10913974719,
Gerar,8.9813486,0,38.6894421,node/10913974720,
Ayer Tena,8.9829716,0,38.6982009,node/10913974721,
Mexico,9.0116587,0,38.746198,node/10914160973,
Mexico,9.0102476,0,38.7438026,node/10914160974,
Zenebewerk,8.987734,0,38.708928,node/10914160976,
Zenebewerk,8.9849086,0,38.7049751,node/10914160977,
Zenebewerk Meneharia,8.9853381,0,38.7053463,node/10914680945,
Zenebewerk Meneharia,8.9852574,0,38.7056363,node/10914680946,
Atena Tera,9.0417169,0,38.71237,node/10914784456,
Atena Tera,9.0414427,0,38.7127192,node/10914784457,
Tekle Haimanot,9.028352,0,38.7426711,node/10915613002,
Tekle Haimanot,9.0281855,0,38.742622,node/10915613003,
Asko,9.0658063,0,38.6937551,node/10915905485,
Asko,9.065919,0,38.6937141,node/10915905486,
Chereta,9.0612502,0,38.7010467,node/10915905487,
Chereta,9.0612523,0,38.7011727,node/10915905488,
Gulele Fana,9.0575666,0,38.7069671,node/10915905489,
Gulele Fana,9.0576638,0,38.7070447,node/10915905490,
Awolia,9.0572628,0,38.7114229,node/10915905491,
Awolia,9.0576104,0,38.7116493,node/10915905492,
Winget,9.0555179,0,38.7124522,node/10915905493,
Winget,9.0554488,0,38.7127252,node/10915905494,
Kokebe,9.018116,0,38.6993091,node/10918141989,
Kokebe,9.0178995,0,38.6991634,node/10918141990,
Yeshi Debele,9.0188526,0,38.6969603,node/10918141991,
Yeshi Debele,9.0185642,0,38.6971815,node/10918141992,
Keranio Adebabay,9.0177704,0,38.7017975,node/10918141993,
Keranio Adebabay,9.0176675,0,38.7006389,node/10918141994,
Medhanalem,9.0178222,0,38.7049143,node/10918141995,
Medhanalem,9.0175512,0,38.7047128,node/10918141996,
Torhayloch,9.0115804,0,38.7208703,node/10918245686,
Torhayloch,9.0099639,0,38.720685,node/10918245687,
Torhayloch,9.0114229,0,38.7225031,node/10918314820,
Torhayloch,9.0128836,0,38.7206095,node/10918339958,
Legehar,9.0118511,0,38.7544283,node/10922141942,
Zebera,9.0691686,0,38.7174162,node/10923884107,
Addisu Gebeya,9.0630022,0,38.7350114,node/10923884109,
Addisu Gebeya,9.0625854,0,38.7352489,node/10923884110,
Bera Tera,9.0670589,0,38.725597,node/10923884111,
Zebera,9.0689759,0,38.7174444,node/10923884112,
Addisu Gebeya,9.0594889,0,38.7374564,node/10923941250,
Addisu Gebeya,9.059208,0,38.7379019,node/10923941251,
Semen Mazegaga,9.0528165,0,38.7431266,node/10923941252,
Semen Mazegaga,9.0528691,0,38.7432318,node/10923941253,
Shola,9.0483987,0,38.7461562,node/10923941254,
Shola,9.0484505,0,38.7462522,node/10923941255,
Semen Hotel,9.0446634,0,38.7483104,node/10923941256,
Semen Hotel,9.0446029,0,38.7485012,node/10923941257,
Yohanes,9.0425995,0,38.745274,node/10923941258,
Yohanes,9.0425158,0,38.7453414,node/10923941259,
Eritrea Hotel,9.0346843,0,38.7394065,node/10923941260,
Eritrea Hotel,9.0347991,0,38.7393526,node/10923941261,
Medhanalem,9.0552727,0,38.7517928,node/10924087993,
Medhanalem,9.0552441,0,38.7518851,node/10924087994,
Chelote,9.0520868,0,38.7497489,node/10924087995,
Chelote,9.0521299,0,38.7496604,node/10924087996,
Shola,9.0479898,0,38.746423,node/10924087997,
Shola,9.0480732,0,38.7465175,node/10924087998,
St. George Church,9.0385287,0,38.7516855,node/10924088002,
St. George Church,9.0385651,0,38.7518109,node/10924088003,
Piassa,9.0365922,0,38.7521881,node/10924088004,
Piassa,9.0341764,0,38.7533491,node/10924116805,
Kechenie,9.0650022,0,38.7492165,node/10924116806,
Kechenie,9.0652677,0,38.7497807,node/10924116808,
Shegole,9.0639755,0,38.7268465,node/10924211089,
Shegole,9.0640548,0,38.7269586,node/10924211090,
Rufael,9.0590346,0,38.7274953,node/10924211093,
Rufael,9.0590438,0,38.7274376,node/10924211094,
Tureta Deldy,9.0544658,0,38.7329754,node/10924211095,
Tureta Deldy,9.054531,0,38.7330307,node/10924211096,
Enqulal Fabrica,9.0492619,0,38.7377403,node/10924211097,
Enqulal Fabrica,9.0492678,0,38.7378298,node/10924211098,
Ras Desta,9.0444679,0,38.7440337,node/10924212637,
Ras Desta,9.0444022,0,38.7439161,node/10924212638,
Sebara Babur,9.0375917,0,38.7483682,node/10924212640,
Abune Petros,9.0358617,0,38.749271,node/10924212641,
Abune Petros,9.0359205,0,38.7494119,node/10924212642,
Yohanes,9.04258,0,38.7458165,node/10924212643,
Yohanes,9.0426863,0,38.7459326,node/10924212644,
Shola Abyssinia Bank,9.0230837,0,38.79823,node/10924342466,
British Embassy,9.0307347,0,38.7854804,node/10924342467,
Menelik II Hospital,9.0385889,0,38.7730468,node/10924342468,
Menlik Hospital,9.0385052,0,38.7728666,node/10924342469,
6 Kilo,9.0437871,0,38.761858,node/10924342470,
6 Kilo,9.0453786,0,38.7613161,node/10924342471,
Piassa,9.0352542,0,38.7527884,node/10924981547,
Kazanchis,9.0168504,0,38.7714084,node/10924981836,
Kazanchis,9.0167816,0,38.7712817,node/10924981837,
Meneharya,9.0199981,0,38.767286,node/10924981839,
6 Kilo,9.0462061,0,38.7614317,node/10924981840,
6 Kilo,9.046202,0,38.7615616,node/10924981841,
6 Kilo (Lion Zoo),9.0430636,0,38.7613028,node/10925096455,
Medhanalem,9.0509212,0,38.7621679,node/10925096457,
Shiromeda,9.0609308,0,38.7616364,node/10925096458,
Shiromeda,9.0610296,0,38.7618074,node/10925096459,
Abune Petros,9.0350989,0,38.7493321,node/10925161777,
Abune Petros,9.0353615,0,38.7492809,node/10925161778,
St. George Total,9.0385895,0,38.7526253,node/10925161780,
Raguel Church,9.0338335,0,38.7411822,node/10925161781,
Raguel Church,9.0340374,0,38.7413278,node/10925161782,
Piassa,9.0352768,0,38.7491307,node/10925161783,
Piassa,9.0350881,0,38.749266,node/10925161784,
Mexico,9.0115722,0,38.7462619,node/10925195639,
Winget,9.0572967,0,38.7130281,node/10925695034,
Winget,9.0576478,0,38.7136024,node/10925695035,
Shegole,9.0630668,0,38.7201372,node/10925835130,
Shegole,9.0630578,0,38.7201639,node/10925835131,
Medhanalem,9.051016,0,38.7226821,node/10925835153,
Medhanalem,9.0512021,0,38.7228048,node/10925835154,
Pawlos Hospital,9.047368,0,38.7275912,node/10925835155,
Pawlos Hospital,9.0474739,0,38.7277025,node/10925835156,
Pastor,9.0462435,0,38.7306013,node/10925835157,
Pastor,9.0460773,0,38.7305979,node/10925835158,
Michael,9.041653,0,38.7324674,node/10925835159,
Michael,9.0418749,0,38.732621,node/10925835160,
Autobus Tera,9.0356953,0,38.731876,node/10925835161,
Autobus Tera,9.0357033,0,38.731937,node/10925835162,
Summit Condominiums,8.9844426,0,38.8548285,node/10925946103,
Summit Condominiums,8.9909634,0,38.8525995,node/10925946104,
Meshageria,9.0206981,0,38.8598883,node/10925966505,
Derartu Adebabay,9.0212039,0,38.8751635,node/10925966506,
Derartu Adebabay,9.0215357,0,38.8751433,node/10925966507,
Gebreal,9.0403679,0,38.8773377,node/10925966508,
Gebreal,9.0402783,0,38.8778174,node/10925966509,
Aba Kiros,9.0556843,0,38.8778648,node/10925966510,
Aba Kiros,9.0561133,0,38.878549,node/10925966511,
Bole Arabsa,8.9732139,0,38.8903446,node/10926028111,
Bole Arabsa,8.9726241,0,38.8904396,node/10926028112,
Maseltegna,8.9932453,0,38.8850892,node/10926028113,
Maseltegna,8.9932023,0,38.8854551,node/10926028114,
Sun shine,9.0100814,0,38.8780839,node/10926028115,
Sun shine,9.0100956,0,38.8779385,node/10926028116,
Ayat,9.0215285,0,38.8770142,node/10926028117,
Mariam,8.9875932,0,38.8848989,node/10926040103,
Mariam,8.9875847,0,38.8852531,node/10926040104,
Ayat,9.0212341,0,38.8767405,node/10926074605,
Summit Condominiums,8.9910294,0,38.8529201,node/10926094674,
Megenagna,9.0195894,0,38.8033659,node/10926094675,
Megenagna,9.0203394,0,38.8038784,node/10926817920,
Tafo Square,9.057063,0,38.8779123,node/10926817921,
Tafo Square,9.0566681,0,38.8780073,node/10926817922,
Sun shine,9.0021737,0,38.8763861,node/10926849848,
Summit Chafe,9.0011674,0,38.8537813,node/10926849849,
Summit Chafe,9.0015569,0,38.8537842,node/10926849850,
Goro,8.9918731,0,38.8299574,node/10926849851,
Goro,8.9917492,0,38.8303339,node/10926849852,
Se'alite Mihret,9.0194791,0,38.8256621,node/10926896755,
Se'alite Mihret,9.0198404,0,38.8254269,node/10926896756,
Ayat Chefe Condominium,9.0109362,0,38.8944977,node/10926896757,
Ayat Chefe Condominium,9.0113892,0,38.8946434,node/10926896758,
Ayat,9.0207778,0,38.8758009,node/10928177661,
Summit Condominiums,8.9846036,0,38.854445,node/10928876312,
Summit Condominiums,8.9844416,0,38.8548242,node/10928876313,
Tewodros Square,9.0273248,0,38.751565,node/10929299420,
Tewodros Square,9.0273553,0,38.7517149,node/10929299421,
Tikur Anbesa,9.0209798,0,38.7480915,node/10929299422,
Mexico,9.0105347,0,38.7449001,node/10929337801,
Stadium,9.0119557,0,38.7559408,node/10929337802,
Stadium,9.0121328,0,38.7559437,node/10929337803,
Megenagna,9.0195364,0,38.8009614,node/10929412718,
Megenagna,9.0190569,0,38.8005907,node/10929412719,
22 Mazoria,9.0155693,0,38.787267,node/10929412721,
Lem Hotel,9.0211986,0,38.7940688,node/10929694820,
Lem Hotel,9.0210828,0,38.7939939,node/10929694821,
Signal,9.0235014,0,38.7815067,node/10929694822,
Signal,9.0233755,0,38.781471,node/10929694823,
Abuare Gebeya,9.0280712,0,38.7718347,node/10929694824,
Abuare Gebeya,9.0279894,0,38.7718123,node/10929694825,
Tewodros Square,9.0270034,0,38.7520638,node/10929694826,
Tewodros Square,9.0268625,0,38.7520149,node/10929694827,
Tekle Haimanot,9.0285216,0,38.744541,node/10929694828,
Tekle Haimanot,9.0284531,0,38.74454,node/10929694829,
Megenagna,9.020064,0,38.8009431,node/10929694830,
Megenagna,9.0200336,0,38.8005994,node/10929694831,
Torhayloch,9.0127448,0,38.7209032,node/10929752934,
Megenagna,9.0225048,0,38.7998465,node/10931788261,
Megenagna,9.021325,0,38.8010821,node/10931788262,
Kotebe,9.0303308,0,38.8385778,node/10931809323,
Se'alite Mihret,9.0284671,0,38.8331547,node/10931809324,
Se'alite Mihret,9.0283689,0,38.833187,node/10931809325,
Lamberet,9.0216042,0,38.8139293,node/10931809326,
Lamberet,9.0214909,0,38.813953,node/10931809327,
Kara,9.0404534,0,38.8642169,node/10931809328,
Kara,9.0404001,0,38.864319,node/10931809329,
Megenagna,9.0216983,0,38.8015712,node/10931809330,
Megenagna,9.0224128,0,38.799743,node/10931850027,
Kokebe Tsebah (Kebena),9.0344299,0,38.7799581,node/10931850028,
4 Kilo,9.036142,0,38.7628341,node/10931884718,
Ferensay,9.0571169,0,38.7769686,node/10931884719,
Ferensay,9.0570142,0,38.7769596,node/10931884720,
Mezan,9.0535366,0,38.7722195,node/10931884721,
Mezan,9.0535794,0,38.7721316,node/10931884722,
Jan Meda,9.0470261,0,38.7690665,node/10931884723,
Jan Meda,9.0471196,0,38.7690208,node/10931884724,
Megenagna,9.0180915,0,38.8021444,node/10931937848,
Kadisco,8.9633989,0,38.766754,node/10931937849,
Kebena,9.0347501,0,38.776629,node/10931995346,
6 Kilo,9.0435664,0,38.7618099,node/10932040828,
St. George Total,9.0386325,0,38.7526555,node/10932040829,
St. George Total,9.038614,0,38.7527659,node/10932040830,
Lem Hotel,9.017586,0,38.7950974,node/10932115661,
Lamberet,9.0239221,0,38.8198719,node/10932115662,
Mexico,9.0107374,0,38.7471612,node/10932115666,
Mexico,9.0104411,0,38.7467607,node/10932115667,
Shola Gebeya,9.0249902,0,38.796095,node/10933668851,
Shola Gebeya,9.0253078,0,38.7963986,node/10933668852,
Beg Tera,9.0290044,0,38.8021516,node/10933668868,
Beg Tera,9.0289126,0,38.802143,node/10933668869,
Zebera,9.0315916,0,38.8093843,node/10933668870,
Zebera,9.0314928,0,38.8094344,node/10933668871,
Kidane Mihret,9.0355162,0,38.818742,node/10933668873,
Kidane Mihret,9.0355971,0,38.8186176,node/10933668874,
St. Urael Church,9.0113969,0,38.7750759,node/10933970678,
St. Urael Church,9.0110384,0,38.7752362,node/10933970679,
Atlas,9.004269,0,38.7797684,node/10934121405,
Atlas,9.0041884,0,38.779678,node/10934121406,
St. Urael Church,9.0103387,0,38.7748368,node/10934121407,
St. Urael Church,9.0104642,0,38.7749361,node/10934121408,
Kera,8.9843274,0,38.7518505,node/10934142102,
Kera,8.9840695,0,38.7515846,node/10934142103,
4 Kilo,9.0324426,0,38.7632997,node/10934274056,
St. Estifanos,9.012454,0,38.762845,node/10934274058,
Buna Ena Shay,9.0109591,0,38.7482685,node/10934274059,
Buna Ena Shay,9.0106827,0,38.748215,node/10934274060,
4 Kilo,9.032283,0,38.7645933,node/10936313832,
4 Kilo,9.0323383,0,38.7648081,node/10936313833,
Sebategna,9.0289759,0,38.7321818,node/10936490562,
Sebategna,9.028913,0,38.7322093,node/10936490563,
Amanuel Total,9.0258457,0,38.7211312,node/10936490564,
Amanuel Total,9.0258301,0,38.721144,node/10936490565,
Winget,9.0576027,0,38.7131944,node/10936621813,
Enqulal Fabrica,9.0486146,0,38.7375414,node/10936724096,
Enqulal Fabrica,9.0485559,0,38.7377157,node/10936724097,
karl Square,8.9975486,0,38.731079,node/10937101933,
6 Kilo,9.0442105,0,38.7610795,node/10937167108,
6 Kilo,9.0442026,0,38.7614376,node/10937167109,
Kera,8.9877236,0,38.7484685,node/10937209934,
Kechenie,9.0652788,0,38.7497785,node/10937271651,
Mesalemia,9.033877,0,38.7252968,node/10961301939,
Mesalemia,9.0339779,0,38.7255313,node/10961301940,
Merkato,9.0338527,0,38.7312096,node/10961301941,
Merkato,9.0337645,0,38.7312282,node/10961301942,
Tekle Haimanot,9.028926,0,38.7433286,node/10961408041,
Abuare Roundabout,9.0264526,0,38.7757907,node/10961408042,
Abuare Roundabout,9.0265186,0,38.7759091,node/10961408043,
Keranio Adebabay,9.0178983,0,38.7007101,node/10961408397,
Mendida,9.014972,0,38.7004401,node/10961408398,
Mendida,9.0151204,0,38.7004576,node/10961408399,
Bole Medhanyalem,8.9983425,0,38.7860616,node/10963292174,
Bole Medhanyalem,8.9984526,0,38.7862416,node/10963292175,
Weybla Mariam,9.0231558,0,38.688451,node/10963817572,
Weybla Mariam,9.0233344,0,38.6882249,node/10963817573,
22 Mazoria,9.0159879,0,38.7889432,node/10963932669,
Bisrate Gebrael,8.9884101,0,38.7226406,node/10964879159,
Luwkanda,9.0333084,0,38.7086432,node/10970584167,
Luwkanda,9.0332835,0,38.7086485,node/10970584168,
18 Mazoria,9.0335266,0,38.7126753,node/10970584169,
18 Mazoria,9.0335023,0,38.7126794,node/10970584170,
Abysinia Coffee,9.0372905,0,38.7164132,node/10970584171,
Abysinia Coffee,9.037294,0,38.7164416,node/10970584172,
18 Mazoria,9.0337305,0,38.7149465,node/10970748190,
4 Menta Adebabay,9.0515413,0,38.7087797,node/10970748192,
4 Menta Adebabay,9.0514981,0,38.7088057,node/10970748193,
Tero Mosque,9.0503697,0,38.7058937,node/10970748194,
Tero Mosque,9.0503743,0,38.7058901,node/10970748195,
Sebategna,9.0294218,0,38.7327781,node/10970823802,
Sebategna,9.0294686,0,38.732906,node/10970823803,
Piassa Arada,9.0350955,0,38.7492677,node/10970829160,
Piassa Arada,9.033556,0,38.7535518,node/10970912911,
Rufael,9.0542225,0,38.6992026,node/10970912912,
Rufael,9.0542148,0,38.6992201,node/10970912913,
Selefia Mosque,8.9922493,0,38.6737826,node/10973319411,
Selefia Mosque,8.9922388,0,38.6737682,node/10973319412,
Piassa Arada,9.0343357,0,38.7498429,node/10973319413,
Piassa Arada,9.0343492,0,38.749831,node/10973319414,
Shiromeda,9.0610285,0,38.7606274,node/10973319416,
Shiromeda,9.0610076,0,38.760666,node/10973319417,
Akaki Gebeya,8.8697296,0,38.7886493,node/10973446898,
Akaki Gebeya,8.8697306,0,38.7886284,node/10973446899,
Meshualekya,8.8769656,0,38.7865309,node/10973446900,
Mebrathayil,8.9482942,0,38.734517,node/10973631794,
Mebrathayil,8.9481457,0,38.7344951,node/10973631795,
Lafto,8.9473757,0,38.7443373,node/10973631797,
Yeshi Total,8.8668288,0,38.7987757,node/10973672014,
Yeshi Total,8.866829,0,38.798782,node/10973672015,
Megenagna,9.0206661,0,38.8028464,node/10973929780,
Biretabret,9.0339313,0,38.8234705,node/10973929781,
Hanna Mariam,9.0375694,0,38.8316053,node/10973929783,
Hanna Mariam,9.037593,0,38.8316071,node/10973929784,
Kotebe Teachers College,9.0374618,0,38.8388573,node/10973929786,
Kotebe Gebriel,9.0390977,0,38.8505525,node/10973929787,
Kotebe Gebriel,9.039072,0,38.8505551,node/10973929788,
Kotebe,9.0357328,0,38.8279461,node/10973960231,
Kotebe,9.035744,0,38.8279666,node/10973960232,
Kebena,9.0343234,0,38.7769466,node/10973960233,
Yeka Abado,9.0637787,0,38.8735567,node/10974036529,
Yeka Abado,9.0638007,0,38.8734371,node/10974036530,
Taxi Tera,8.9948109,0,38.8092174,node/10989247669,
Bole Bridge,8.9888698,0,38.7945353,node/10989247670,
Summit,9.0048732,0,38.8517594,node/10989247671,
Summit,9.0050343,0,38.8520615,node/10989247672,
Bole Mickael,8.9791887,0,38.7737291,node/10989306740,
Bole Mickael,8.979439,0,38.7732491,node/10989306742,
Riventy,8.9647488,0,38.798111,node/10989306744,
Riventy,8.9647649,0,38.7981165,node/10989306745,
Lomi Meda,9.0437261,0,38.6991226,node/10989322788,
Philiphs,9.0423415,0,38.7046602,node/10989322789,
Philiphs,9.0423523,0,38.7046599,node/10989322790,
Atena Tera,9.0417345,0,38.7116329,node/10989322793,
Atena Tera,9.0417198,0,38.7116327,node/10989322794,
Atena Tera,9.0418861,0,38.7128543,node/10989352901,
Atena Tera,9.0419946,0,38.7136815,node/10989352903,
Kolfe,9.037404,0,38.7169566,node/10989352904,
Kolfe,9.0373552,0,38.7170428,node/10989388405,
Chid Tera,9.0376969,0,38.7213864,node/10989388406,
Chid Tera,9.0375624,0,38.7215618,node/10989388407,
Tourist Hotel,9.0339795,0,38.760933,node/10989495135,
Tourist Hotel,9.0331899,0,38.7627083,node/10989495136,
St. George Church,9.0365466,0,38.7522109,node/10989495137,
St. George Church,9.0365649,0,38.7524292,node/10989495138,
Amanuel Church,9.0280891,0,38.723026,node/10989606497,
Amanuel Church,9.0280827,0,38.7230514,node/10989606498,
Mesalemia,9.0330957,0,38.7246409,node/10989606501,
Mesalemia,9.0330994,0,38.7246228,node/10989606502,
Coca Cola,9.0170151,0,38.729182,node/10989606503,
Coca Cola,9.0169029,0,38.7293902,node/10989606504,
Tikur Anbesa,9.0216869,0,38.7477611,node/10989700748,
Tikur Anbesa,9.0214822,0,38.7476433,node/10989700750,
Megenagna,9.0198621,0,38.8028176,node/10989765272,
Tourist Hotel,9.0331305,0,38.7619614,node/10991706244,
Ambasader,9.018399,0,38.7538719,node/10991706246,
Ambasader,9.0182782,0,38.7539744,node/10991706247,
Manen,9.0515112,0,38.7588533,node/10991763449,
Manen,9.0515112,0,38.7588598,node/10991763450,
Selam Building,8.8840593,0,38.7766907,node/10992050085,
Saris Abo,8.944348,0,38.7693473,node/10992073740,
Selam Building,8.8832126,0,38.7771744,node/10992247910,
Gelan Condominium,8.8801893,0,38.768463,node/10992247911,
Gelan Condominium,8.8801651,0,38.7684764,node/10992247913,
Breta bret,8.8738823,0,38.7887302,node/10994789635,
Akaki CBE,8.867782,0,38.7888076,node/10994942333,
Akaki CBE,8.8679415,0,38.7887141,node/10994942334,
Mexico,9.0098456,0,38.7462885,node/10995013009,
Lafto,8.9470636,0,38.7443751,node/10995013010,
Lafto (Mickael),8.9537702,0,38.7504178,node/10995013013,
Woyira Sefer,9.0051854,0,38.7070388,node/10995113524,
Woyira Sefer,9.0050595,0,38.7068721,node/10995113525,
Total 3 Kutir mazoria,8.9932233,0,38.7170312,node/10996939227,
Mebrat,8.9671943,0,38.7486669,node/10997112356,
Mebrat,8.9671522,0,38.7487468,node/10997112357,
Biharetsege,8.9621911,0,38.7515775,node/10997112358,
Biharetsege,8.9622089,0,38.7515885,node/10997112359,
Adey Abeba,8.9576758,0,38.7631284,node/10997112361,
Adey Abeba,8.9576954,0,38.7631332,node/10997112362,
Gofa Gebriel,8.9758799,0,38.7488713,node/10997112364,
Gofa Gebriel,8.9758721,0,38.7489751,node/10997112365,
Abenet,9.0196301,0,38.7332825,node/10997125769,
Weleta,8.963665,0,38.6708623,node/10997242295,
Weleta,8.9636677,0,38.6708779,node/10997242296,
Weleta Tele,8.9666342,0,38.6731812,node/10997242298,
Repi Highschool,8.9764681,0,38.6774372,node/10997242299,
Repi Highschool,8.9765185,0,38.6774017,node/10997242300,
Sara Ampol,9.0576594,0,38.8741609,node/10997243557,
Sara Ampol,9.0575648,0,38.874351,node/10997243558,
Kara Condominium,9.0480764,0,38.8693718,node/10997243559,
Kara Condominium,9.0480356,0,38.8695015,node/10997243560,
Torhayloch,9.0107982,0,38.7207531,node/10997360870,
Mexico,9.0114511,0,38.7447026,node/10997382833,
Mexico,9.0114533,0,38.7445835,node/10997382834,
Mexico,9.01285,0,38.7440492,node/10997495133,
Mexico,9.01282,0,38.74405,node/10997495134,
Darmar,9.0163639,0,38.7345884,node/10997495135,
Piassa Arada,9.0329801,0,38.7545702,node/10998041498,
Piassa Arada,9.0334582,0,38.7537202,node/10998041499,
Shola,9.025295,0,38.7949306,node/10998041503,
Shola,9.0251357,0,38.7947575,node/10998041504,
Kality Meneharia,8.8954024,0,38.7722516,node/11033818190,
Kality Maseltegna,8.9361085,0,38.7642099,node/11033818192,
AU (Mikael) Rounrdabout,8.9994656,0,38.7406449,node/11033818193,
Mexico,9.0089885,0,38.7438741,node/11033818195,
Mexico,9.0089241,0,38.7440373,node/11033818196,
Bulgaria Mazoria,8.9945922,0,38.7474194,node/11033818197,
Autobis Tera,9.0316048,0,38.7373077,node/11033818199,
Autobis Tera,9.0299591,0,38.7377146,node/11033818200,
Kera,8.9864921,0,38.7483364,node/11033903482,
Saris Abo,8.9450016,0,38.7661068,node/11034015157,
Piassa Arada,9.0331054,0,38.7522899,node/11034015158,
Piassa Arada,9.0321742,0,38.7511155,node/11034015159,
Autobis Tera,9.03055,0,38.7370369,node/11034031010,
Shero Meda,9.0626384,0,38.7612633,node/11034031011,
Tsehay Chora (ShiroMeda),9.0583756,0,38.7598757,node/11034031012,
Abune Petros,9.0351037,0,38.7493262,node/11034031013,
Autobis Tera,9.0305604,0,38.7370571,node/11034031014,
Kuskoam,9.0777204,0,38.7572407,node/11034054993,
Arat Kilo,9.0321373,0,38.7654122,node/11034209866,
Kara Kore,8.9753965,0,38.6806691,node/11034280233,
Ayer Tena,8.9825611,0,38.6960927,node/11034280234,
Kara Kore,8.9753861,0,38.6805349,node/11034280236,
Lion Zoo (PEPSI Kiosk),9.0426561,0,38.7614325,node/11034427397,
Abo Mazoriya,9.0571131,0,38.777181,node/11034427398,
Yeha,9.0608545,0,38.7835816,node/11034427399,
Gurara,9.0622785,0,38.7880233,node/11034427400,
Gurara,9.0624066,0,38.7888027,node/11034427401,
Saris,8.9535755,0,38.7634093,node/11034511605,
Saris,8.9535945,0,38.7636248,node/11034511606,
Autobis Tera,9.0296904,0,38.7371486,node/11034611751,
Megenagna,9.0221498,0,38.8004821,node/11034647605,
Torhailoch,9.0115667,0,38.7220211,node/11035234709,
Millenium School,9.0408403,0,38.710203,node/11035240259,
Chid Tera,9.0376857,0,38.7214866,node/11035240260,
Degu Hotel,9.0338468,0,38.7151236,node/11035240261,
Philiphs (Lomi Meda),9.0423792,0,38.7051066,node/11035240263,
Philiphs (Lomi Meda),9.0423523,0,38.7051082,node/11035240264,
Ayer Tena,8.9837379,0,38.6971291,node/11035502832,
Ayer Tena,8.9836981,0,38.7015659,node/11035502833,
Bisrate Gebrael,8.9914198,0,38.7255627,node/11035532608,
Zenebewerk Hotel,9.0191017,0,38.7682089,node/11035607129,
Estifanos,9.0107497,0,38.7636411,node/11035607130,
Lideta Condominium,9.0109263,0,38.7386025,node/11035607131,
Zenebework,8.9882771,0,38.7080773,node/11035662205,
Darmar,9.0165403,0,38.7377271,node/11035734852,
Hana Maryam,8.9270084,0,38.7418753,node/11035734855,
Bercheko Condominium,9.058672,0,38.700756,node/11035818337,
Alem Gena,8.9231915,0,38.6529741,node/11035914858,
Noc,8.9494175,0,38.6701962,node/11035914859,
Noc,8.9490541,0,38.6699835,node/11035914860,
Weleta Tele,8.9666123,0,38.6735724,node/11035914861,
Weleta,8.9635929,0,38.6708945,node/11035914862,
Weleta,8.9641803,0,38.6707668,node/11035914863,
Weleta Tele,8.9666144,0,38.6731872,node/11035914864,
Ayer Tena,8.9834038,0,38.6967597,node/11035914865,
Ayer Tena,8.9825038,0,38.6960161,node/11035914869,
Kara,9.0404548,0,38.8642175,node/11036026882,
Saris Abo,8.9444406,0,38.7693583,node/11036079238,
Werku Sefer,8.9328577,0,38.7750063,node/11036079239,
Kera,8.9846712,0,38.7499581,node/11036079243,
