stop_lat,parent_station,stop_id,stop_name,stop_lon,location_type
9.0210561502,,way/604046026,C.M.C,38.8505081,0
9.0209504501,,way/604046027,C.M.C,38.8504555,0
9.0206309001,,way/604046028,Meri,38.86039005,0
9.0205342501,,way/604046029,Meri,38.86039745,0
9.0212283001,,way/604046052,Ayat,38.8717948,0
9.0211369001,,way/604046053,Ayat,38.87179745,0
9.0213594001,,way/758915882,St. Michael,38.8426211,0
9.0214511001,,way/758915883,St. Michael,38.8426345,0
9.0208269001,,way/758919087,Management Institute,38.8284090499,0
9.0209051001,,way/758919088,Management Institute,38.8283603999,0
9.0216842501,,way/758919089,Civil Service College,38.83479945,0
9.0217686501,,way/758919090,Civil Service College,38.83479775,0
9.0104366001,,way/758922739,Bambis,38.76879995,0
9.0103406001,,way/758922740,Bambis,38.76877485,0
9.01097965,,way/758922741,St. Urael,38.77470915,0
9.0148301501,,way/758922742,Hayahulet 2,38.7832560999,0
9.0149096001,,way/758922743,Hayahulet 2,38.7832141999,0
9.0161997001,,way/758922744,ሃያ ሁለት 1,38.7893457,0
9.0162805001,,way/758922745,ሃያ ሁለት 1,38.7893058,0
9.0178779001,,way/758922746,Lem Hotel,38.7959030499,0
9.0179702501,,way/758922747,Lem Hotel,38.7958714999,0
9.0196319001,,way/758922751,Megenagna,38.8026662,0
9.0201812501,,way/758922752,Gurd Sholla 2,38.81016615,0
9.0202704501,,way/758922753,Gurd Sholla 2,38.8101826,0
9.0190550501,,way/758922754,Gurd Sholla 1,38.8199118,0
9.0191373501,,way/758922755,Gurd Sholla 1,38.8199363,0
9.0114466001,,way/758926923,Tor Hailoch,38.7228792001,0
9.0113509001,,way/758926924,Tor Hailoch,38.7228400001,0
9.0120608501,,way/758926925,Cocacola,38.72927195,0
9.0119827001,,way/758926926,Cocacola,38.7292679,0
9.0113260501,,way/758926927,St. Lideta,38.7358812,0
9.0114191001,,way/758926928,St. Lideta,38.735902,0
9.0104883001,,way/758926929,Tegbared,38.74251165,0
9.0105720501,,way/758926930,Tegbared,38.74252605,0
9.0110042001,,way/758926931,Mexico,38.7486780499,0
9.0111035001,,way/758926932,Mexico,38.7486304499,0
9.0118976001,,way/758926933,Leghar,38.75364485,0
9.0118055501,,way/758926934,Leghar,38.7536616,0
9.0119426001,,way/758926935,Stadium,38.75765945,0
9.0120396501,,way/758926936,Stadium,38.75768125,0
9.0109756501,,way/758926937,St. Estifanos,38.7633918,0
9.0110528501,,way/758926938,St. Estifanos,38.7634133,0
9.0341520001,,way/759354435,Gojam Berenda,38.7383589,0
9.0342421001,,way/759354436,Gojam Berenda,38.73838775,0
9.0345698501,,way/759354437,Atikilt Tera,38.7469346,0
9.0346634001,,way/759354438,Atikilt Tera,38.7469217,0
8.938011,,way/759359409,Kality,38.7631070001,0
8.93795435,,way/759359410,Kality,38.7630034001,0
8.94501825,,way/759359411,Abo Junction,38.7663008501,0
8.9449765,,way/759359412,Abo Junction,38.7662190501,0
8.9519971333,,way/759359413,Saris,38.7634466333,0
8.9519912333,,way/759359414,Saris,38.7633591333,0
8.9567954,,way/759359415,Adey Abeba,38.76388145,0
8.9568021,,way/759359416,Adey Abeba,38.76379965,0
8.9903485,,way/759359417,Lancha,38.75926535,0
8.9903366,,way/759359418,Lancha,38.75916345,0
8.9952452,,way/759359419,Temenja Yazh,38.7598284334,0
8.9952399,,way/759359420,Temenja Yazh,38.7597271667,0
9.0005732,,way/759359421,Riche,38.7587088,0
9.00058575,,way/759359422,Riche,38.7586096,0
9.00485825,,way/759359423,Meshwalekya,38.7588805,0
9.00486215,,way/759359424,Meshwalekya,38.7587524,0
9.0154149,,way/759359425,Darmar,38.73475,0
9.01542485,,way/759359426,Darmar,38.73466315,0
9.0212786,,way/759359427,Abnet,38.73335125,0
9.0212687,,way/759359428,Abnet,38.73341865,0
9.0283819,,way/759359429,Sebategna,38.73298775,0
9.0284011,,way/759359430,Sebategna,38.7330763,0
9.0340910501,,way/759359431,Autobus Tera,38.7329878,0
9.0340079501,,way/759359432,Autobus Tera,38.7329908,0
8.9731988,,way/759365358,Nifas Silk 2,38.7607979501,0
8.97316965,,way/759365359,Nifas Silk 2,38.7606849501,0
8.9657149,,way/759365360,Nifas Silk 1,38.7629963,0
8.96571355,,way/759365361,Nifas Silk 1,38.7628904,0
9.0165395,,node/847244293,Beherawi Theatre,38.7525538,0
9.0209237,,node/847244423,Black Lion,38.7521415,0
9.0344007,,node/4832025024,4 Kilo,38.7632408,0
9.0223057,,node/4884374622,Lamberet Terminal (Bus),38.8158571,0
8.9929728,,node/5248250425,Sar Bet (Roundabout),38.738182,0
9.0164409,,node/5330678521,Ambassador,38.7553162,0
9.0120276,,node/5736089088,Stadium,38.7570321,0
9.0295451,,node/6251054285,Mebrathail,38.7146778,0
9.0654733,,node/6307600909,Asko,38.6928185,0
8.9976331,,node/6373574986,Bole Printing Press,38.7718334,0
9.0331479,,node/6728583386,Arada,38.7516761,0
8.9986049,,node/6798927886,Kebede Wessene Rd.,38.8053365,0
9.0094665,,node/6814022390,Mexico,38.7444332,0
8.9644773,,node/6967142984,Mebrat Condominium,38.7438796,0
8.9673396,,node/6967165728,Mebrat,38.7486643,0
8.9771232,,node/6967179322,Gofa Gebriel,38.7491221,0
8.9825519,,node/6967179323,Kera (Gofa Road),38.7498599,0
9.0277111,,node/6967225474,Tewodros Square,38.7516602,0
8.9655968,,node/6967234177,German Square,38.732897,0
8.9899905,,node/6967281153,Friendship Building,38.7859995,0
9.0319356,,node/6967281241,Piassa (Downtown Cafe),38.7512565,0
9.0330123,,node/6967281242,Piassa Arada (2),38.7526242,0
9.0418236,,node/6967318740,Gojo,38.6217166,0
9.0203188,,node/7022361366,Megenagna Terminal,38.8026673,0
8.9885373,,node/7022397409,Bole Millenium,38.7897496,0
8.9887535,,node/7022397410,Bole Millenium,38.789886,0
8.9937973,,node/7022397411,Goro School,38.8267584,0
8.9842709,,node/7022397413,Summit Condominiums,38.8569749,0
8.9842404,,node/7022397414,Summit Condominiums,38.8570885,0
8.9720161,,node/7022397416,Bole Arabsa,38.8906061,0
8.9732168,,node/7022397417,Bole Arabsa,38.8903477,0
9.0561234,,node/7022397418,Aba Kiros Roundabout,38.8785328,0
9.0689298,,node/7022397420,Yeka Abado,38.875565,0
9.0688377,,node/7022397421,Yeka Abado,38.8756232,0
9.0626023,,node/7037142410,Gurara,38.7893816,0
9.026427,,node/7037142414,Abuare Roundabout,38.7757967,0
9.026504,,node/7037142415,Abuare Roundabout,38.7759255,0
9.0224201,,node/7037142417,Marathon Motor (Megenagna),38.8000289,0
9.060739,,node/7037142419,Yeha,38.7836264,0
9.0608445,,node/7037142420,Tena Tabya,38.7839285,0
9.0598571,,node/7037142421,Biret Dildiy (Bono Wuha),38.7811505,0
9.0599927,,node/7037142422,Bret Dildy (Bono Wuha),38.7810894,0
9.0042786,,node/7037142423,Atlas,38.7797667,0
8.9983386,,node/7037142424,Bole Medhanialem,38.7860596,0
8.9984556,,node/7037142426,Bole Medhanialem,38.7862428,0
9.0098865,,node/7037142427,24,38.800549,0
9.0221273,,node/7037142428,Dinberwa Hospital,38.7866932,0
9.0345238,,node/7037142430,Kokebe Tsebah School,38.7802113,0
9.034441,,node/7037142431,Kokebe Tsebah School,38.7799476,0
9.031876,,node/7037142433,Belgium Embassy,38.7839469,0
9.0311083,,node/7037142434,British Embassy,38.784892,0
9.0309087,,node/7037142435,British Embassy,38.7855544,0
9.0287538,,node/7037142436,Abebe Sook,38.7887162,0
9.0250779,,node/7037142438,Shola Gebeya,38.7952986,0
9.0244101,,node/7037142439,Yeka Michael,38.7961373,0
9.0180934,,node/7037142441,Megenagna,38.8021491,0
9.0182711,,node/7037142442,Megenagna,38.8017521,0
8.8868864,,node/7037142443,Derartu,38.7818414,0
8.8856808,,node/7037142444,Gelan Condominium,38.7837651,0
8.8844052,,node/7037142445,08 Adarash,38.785491,0
8.8767985,,node/7037142446,Meshuwalekia Akaki,38.7865253,0
8.8738843,,node/7037142448,Akaki Beretaberet,38.7887478,0
8.870907,,node/7037142450,G7 (Tulu Dimtu),38.8207065,0
8.8552763,,node/7037142454,Tulu Dimtu Unisa,38.8042339,0
8.8556159,,node/7037142455,Tulu Dimtu,38.8041524,0
8.8597556,,node/7037142456,Akaki Korkoro,38.7961539,0
8.8688691,,node/7037142459,Tulu Dimtu (Taf Gas Station),38.8051915,0
8.8722685,,node/7037142460,Arsema,38.8136608,0
8.8722281,,node/7037142461,Selam Sefer (Tapela Gar),38.8140262,0
8.8747821,,node/7037142462,Tulu Dimtu Adebabay,38.8201689,0
8.8658608,,node/7037142464,Project 12 Akababi,38.8218482,0
8.8592154,,node/7037142465,Mahiber Betoch,38.8148895,0
8.9869933,,node/7037142466,Bole Dildiy,38.7912061,0
9.02034,,node/7037142467,Megenagna / Zefmesh,38.8000136,0
9.0213214,,node/7037142469,Megenagna,38.8010735,0
9.0217137,,node/7037142470,Megenagna,38.8015921,0
9.0215363,,node/7037142471,Abysinia Cafe Area,38.8100422,0
9.0213396,,node/7037142472,Abysinia Cafe Area,38.810853,0
9.0196778,,node/7037142474,Century Mall,38.8132781,0
9.0187352,,node/7037142475,Gurd-shola,38.8215105,0
9.0239816,,node/7037142476,Menaheria,38.8192066,0
9.0238758,,node/7037142477,Menaheria,38.8192354,0
9.003632,,node/7037142479,Gerji Mebrat Haile,38.814876,0
9.0037638,,node/7037142483,Gerji Mebrat Haile,38.8132574,0
9.0253421,,node/7037142484,Lamberet,38.8251916,0
9.0258842,,node/7037183485,Lamberet Area,38.8271787,0
9.0260507,,node/7037183486,Lamberet Area,38.8273076,0
9.0259969,,node/7037183487,Lamberet Area,38.8271189,0
8.9913503,,node/7037183490,Yerer Goro,38.8294063,0
8.9913222,,node/7037183491,Yerer Goro,38.8292171,0
9.020263,,node/7037183492,Se'alite Mihret Church,38.8265756,0
9.0203852,,node/7037183493,Management Institute,38.82686,0
9.0203048,,node/7037183494,Sealite Mihret,38.8273219,0
9.0216167,,node/7037183495,Civil Service College,38.8342032,0
9.021312,,node/7037183496,St. Michael,38.8414217,0
9.0215489,,node/7037183497,St. Micheal Church,38.8425033,0
9.0283709,,node/7037183498,Salite Mihret,38.8331954,0
9.0285264,,node/7037183499,Hillside (Ethio-China Mebrathaile),38.8333256,0
9.030459,,node/7037183501,Wessen Michael,38.838592,0
9.0375551,,node/7037183502,Hanna Mariam,38.8316144,0
9.0375969,,node/7037183503,Hanna Mariam,38.8316246,0
9.0330948,,node/7037183504,Wessen,38.8442968,0
9.033228,,node/7037183505,Wessen,38.8445812,0
9.0330982,,node/7037183507,Wessen (Mariam),38.8446898,0
9.0342084,,node/7037183508,Kotebe Teachers College,38.8466963,0
9.0357649,,node/7037183509,Yabem Hotel,38.8533863,0
9.036101,,node/7037183510,Kotebe Gebriel,38.8545188,0
9.0201901,,node/7037183513,Yetebaberut,38.8526027,0
9.0207031,,node/7037183515,Yetebaberut,38.8539074,0
9.0207092,,node/7037183516,Meri,38.8603565,0
9.0205124,,node/7037183518,Meri (Yetebaberut),38.8610727,0
9.0208331,,node/7037183519,Ayat,38.8686047,0
9.0210633,,node/7037183520,Ayat Zone 2,38.8678248,0
9.0379427,,node/7037183521,Kara (Turn),38.8606002,0
9.0401552,,node/7037183523,Medhanalem Church,38.8640163,0
9.0106828,,node/7037183525,Safari,38.852259,0
9.0043876,,node/7037183527,Summit (MOHA),38.8520658,0
8.9955228,,node/7037183528,Saint Georgis,38.8513132,0
8.9941038,,node/7037183529,Tena Tabeya,38.860685,0
8.9894728,,node/7037183532,Gate 2,38.8582866,0
8.9846055,,node/7037183533,Summit Condominiums,38.8544474,0
9.0213287,,node/7037183535,Ayat Train Station,38.8719812,0
9.0211208,,node/7037183536,CMC,38.872594,0
9.0212396,,node/7037183537,Ayat Square,38.8767684,0
9.0216916,,node/7037183538,Feres Bet,38.8862575,0
9.0170704,,node/7037183539,Police Tabia,38.8946069,0
9.0222555,,node/7037183540,Tsebel,38.891209,0
9.0219034,,node/7037183541,Bono Meskid,38.8902931,0
9.0113906,,node/7037183542,Ayat Chefe Condominium,38.8946677,0
9.0109368,,node/7037183543,Ayat Chefe Condominium,38.8944878,0
9.0023517,,node/7037183545,Nebu Mikael,38.8767662,0
8.9965746,,node/7037183546,Ayat Adebabay Hulet (2),38.8851706,0
8.9963324,,node/7037183547,Bole Arabsa (3),38.8855436,0
8.9841602,,node/7037183548,Bole Arabsa (2),38.8851362,0
8.9733148,,node/7037183550,Bole Arabsa,38.8902717,0
9.0354891,,node/7037183552,Yeka Condominium 1,38.877919,0
9.0381306,,node/7037183554,Tafo Gebrael,38.8777819,0
9.0505157,,node/7037183555,Tafo Condominium 1,38.8779667,0
9.0425957,,node/7037183557,Tafo Mebrathail,38.8773973,0
9.0427743,,node/7037183558,Tafo Mebrathail,38.877866,0
9.0465834,,node/7037183559,Tafo Condominium 2,38.8779122,0
9.0501511,,node/7037183562,Kara Condominium,38.8705589,0
9.0666282,,node/7037183563,Yeka Abado,38.8647703,0
9.0571811,,node/7037183565,Sara Ampol (Gedera),38.8737753,0
9.0580264,,node/7037183567,Sara Ampol,38.8742538,0
9.0606875,,node/7037183569,Aba Kiros,38.8812971,0
9.0630654,,node/7037183570,Makefafeya,38.8841651,0
9.0670494,,node/7037183571,Gari Tera,38.8892044,0
9.0707009,,node/7037183572,CCD,38.8938058,0
9.0718221,,node/7037183573,140,38.8952147,0
9.0818058,,node/7037183574,Legedadi Mission,38.9074861,0
9.0821737,,node/7037183575,Legedadi Mission,38.90832,0
8.8832831,,node/7041052894,Selam Building,38.7771574,0
8.8910809,,node/7041052895,Gojo Hotel,38.7768265,0
8.8958584,,node/7041052896,Kality Meneharia,38.7717989,0
8.9029458,,node/7041052897,Cheralia Factory,38.7668359,0
8.9029223,,node/7041052898,Cheralia Factory,38.7667452,0
8.9113422,,node/7041052900,Kality Gebriel,38.7638335,0
8.912466,,node/7041052901,Kality Prison,38.7633399,0
8.928137,,node/7041052912,Hana Maryam,38.7416641,0
8.9274906,,node/7041052914,Tabelew,38.6590102,0
8.9244259,,node/7041052915,Ubedi Academy,38.6548173,0
8.9230001,,node/7041052916,Alem Gena,38.6526472,0
8.9229882,,node/7041052917,Alem Gena,38.652656,0
8.9213858,,node/7041052918,Mama,38.6465912,0
8.9683942,,node/7041052927,Mekanisa (Old Revenues Office),38.73129,0
8.9656974,,node/7041052928,German Square,38.7327236,0
8.9556239,,node/7041052932,Gebriel Bridge,38.7324437,0
8.955596,,node/7041052934,Gebriel Bridge,38.7327233,0
8.9469471,,node/7041052935,Mebrathile (EEPCo),38.7339608,0
8.9790248,,node/7041052936,Mekanisa School,38.7341955,0
8.9785916,,node/7041052937,Abo,38.7339384,0
8.973373,,node/7041052938,Sheged Hotel,38.7246092,0
8.9673959,,node/7041052939,Jemo Michael,38.720836,0
8.966996,,node/7041052940,Jemo Michael,38.7209392,0
8.9614893,,node/7041052942,Jemo YBP (All Mart),38.7152564,0
8.9606358,,node/7041052944,Jemmo 1,38.7123763,0
8.9604074,,node/7041052945,Jemmo 1,38.7124284,0
8.9595125,,node/7041052946,Mestawet Fabrica,38.7084697,0
8.958513,,node/7041052948,Mestawet Fabrica,38.7059934,0
8.9564,,node/7041052949,Jemo 3,38.6992718,0
8.9556244,,node/7041052950,Jemmo 3,38.6985348,0
8.9866742,,node/7041052951,Zenebework,38.7077567,0
8.9611777,,node/7041052952,Welete Maryam,38.6713097,0
8.9657858,,node/7041052953,Mickael Bridge,38.7272059,0
8.9813447,,node/7041052954,Gerar,38.689429,0
8.9794179,,node/7041052955,Repi (Gerar),38.6851955,0
8.9773403,,node/7041052957,Gebre Kirstos,38.7220154,0
8.9884304,,node/7041052958,Bisrate Gebrael,38.7228933,0
8.9753751,,node/7041052959,Gofa Gebriel (2),38.7488548,0
8.9771139,,node/7041052960,Gofa Gebriel,38.7490217,0
8.9816131,,node/7041052963,Bole Mickael,38.7772221,0
8.9822682,,node/7041052965,MOHA (Pepsi Factory),38.7560783,0
8.9762662,,node/7041052969,Gotera (Oilibiya),38.7600125,0
8.976182,,node/7041052970,Gotera (Oilibiya),38.7598239,0
8.9697308,,node/7041052975,St. Joseph Church,38.7620577,0
8.9659447,,node/7041052977,kadisco Building,38.7627885,0
8.965927,,node/7041052978,kadisco Building,38.762999,0
8.9637596,,node/7041052979,Kadisco,38.7630788,0
8.9583017,,node/7041052980,Adey Abeba,38.7640609,0
8.9582595,,node/7041052982,Adey Abeba,38.7638459,0
8.9528662,,node/7041071286,Saris (CBE),38.7635583,0
8.9527596,,node/7041071287,Saris (CBE/Shoa Bakery),38.7633266,0
8.9450003,,node/7041071289,Abo Junction,38.7661044,0
8.9450733,,node/7041071290,Abo Junction,38.7663069,0
8.9380959,,node/7041071291,Customs (Train Station),38.763132,0
8.9323275,,node/7041071295,Kality Maseltegna,38.766627,0
8.9298173,,node/7041071296,Wehalemat,38.7681692,0
8.9950292,,node/7041071342,Bulgaria Mazoria,38.7478244,0
8.9971703,,node/7041071344,Begtera,38.7475059,0
8.9990638,,node/7041071347,AU (Mikael) Rounrdabout,38.7394459,0
8.9990569,,node/7041071348,AU (Mikael) Rounrdabout,38.7395945,0
8.9937942,,node/7041071350,Bulgaria,38.7478465,0
8.9941475,,node/7041071352,Global Hotel,38.7595772,0
8.9941836,,node/7041071353,Global Hotel,38.7598183,0
8.9953383,,node/7041071354,Beklo Bet (Global),38.7596352,0
9.000141,,node/7041071355,Tele Garage,38.7584812,0
9.0043253,,node/7041071356,Riche,38.7586986,0
9.0166957,,node/7041071359,6th (Raddison Blu),38.7669535,0
9.017718,,node/7041071360,Filweha (Hotsprings),38.7572645,0
9.0175554,,node/7041071362,Filweha (Hotsprings),38.7570579,0
9.0137609,,node/7041071363,Ghion Hotel (Enterance),38.7574492,0
9.0138328,,node/7041071364,Ghion Hotel (Enterance),38.7576145,0
9.0098008,,node/7041071367,St. Joseph School,38.7591876,0
9.0104995,,node/7041071370,St. Joseph School,38.7592761,0
9.0105316,,node/7041071371,Admas University College,38.7590434,0
9.0118612,,node/7041071372,Lalibela Hotel,38.7570112,0
9.0121294,,node/7041071374,Stadium,38.7560438,0
9.011849,,node/7041071376,Legehar,38.7545386,0
9.0117857,,node/7041071377,Legehar,38.7539285,0
9.0109604,,node/7041071378,Legehar (Old Train Station),38.7533069,0
9.0097755,,node/7041071380,Mexico,38.7461963,0
9.0031416,,node/7041071382,African Union,38.7414166,0
9.0053059,,node/7041071383,Popolare,38.7423863,0
9.0046908,,node/7041071384,Guenet Hotel,38.7466748,0
9.0032786,,node/7041071385,Guenet Hotel,38.74694,0
9.0214263,,node/7041071388,Abenet,38.7334947,0
9.0132791,,node/7041071389,Lideta Condominium,38.7345522,0
9.0157856,,node/7041071390,Darmar,38.7348248,0
9.0159169,,node/7041071391,Coca Cola,38.7294714,0
8.9939406,,node/7041071392,Austria Embassy,38.7278809,0
8.9936591,,node/7041071393,Mechare Meda,38.727499,0
8.9925902,,node/7041071395,3 Kutir Mazoriya (Total),38.7152417,0
8.995414,,node/7041071397,Minaye Building,38.7184074,0
8.9998642,,node/7041071399,Old Airport (Mobil),38.7191221,0
9.0099949,,node/7041071400,Tor Hailoch,38.7206897,0
9.0133411,,node/7041071401,Keranio Mewcha,38.7100309,0
9.0213057,,node/7041071402,Holand,38.7159484,0
9.0245409,,node/7041071403,Meseret Edget,38.714954,0
9.0278226,,node/7041071404,Teklehaymanot,38.7440603,0
9.0247481,,node/7041071405,Kebele 11,38.7458014,0
9.0262634,,node/7041071406,Tewodros Square,38.75166,0
9.0263826,,node/7041071407,Tewodros Square,38.7517909,0
9.0218352,,node/7041071411,Black Lion,38.7521859,0
9.0158768,,node/7041071414,National Theatre,38.751592,0
9.0156938,,node/7041071415,National Theatre,38.7513097,0
9.0139102,,node/7041071416,A.A. Commercial College,38.7494881,0
9.0138228,,node/7041071418,A.A. Commercial College,38.7495568,0
9.0114261,,node/7041071419,Buna Ena Shay,38.7490599,0
9.0105922,,node/7041071420,Buna Ena Shay,38.7479733,0
9.0119916,,node/7041071423,Mexico Shebelle Hotel,38.7468862,0
9.0105894,,node/7041071425,TVET College (Tegbare'd),38.7429038,0
9.0103865,,node/7041071429,Federal Police (Tegbare'd),38.7426638,0
9.0109303,,node/7041071430,Lideta (Balcha Hospital),38.738603,0
9.0111161,,node/7041071431,Lideta (Balcha Hospital),38.7385604,0
9.011233,,node/7041071432,Lideta Condominium,38.7377815,0
9.0041706,,node/7041071433,Lideta Tsebel,38.733822,0
9.0093091,,node/7041071434,Dessie Hotel,38.7338119,0
9.0108572,,node/7041071435,High Court,38.7342297,0
9.0115829,,node/7041071437,Lideta High Court,38.733431,0
9.0121559,,node/7041071439,Hintsa College,38.7293132,0
9.0119411,,node/7041071441,Coca Cafe,38.7292339,0
9.011282,,node/7041071444,Mekonenoch (Golf) Club,38.7265458,0
9.0115616,,node/7041071446,Tor Hailoch Junction,38.7220202,0
9.0119442,,node/7041071447,Torhailoch,38.7216866,0
9.0139112,,node/7041071448,Tor Hailoch,38.7206478,0
9.013939,,node/7041071449,Tor Hailoch,38.7209168,0
9.0194506,,node/7041071450,Keranio Bridge,38.7089411,0
9.0175679,,node/7041071451,Medhanialem,38.7049748,0
9.0176634,,node/7041071452,Keranio Adebabay,38.7006446,0
9.0180779,,node/7041071453,Kokebe,38.6994971,0
9.0195382,,node/7041071454,Yeshi Debele,38.6954056,0
9.0190748,,node/7041071455,Yeshi Debele,38.6957701,0
9.0231539,,node/7041071456,Mariam,38.6884518,0
9.021983,,node/7041071458,Anfo Meda,38.6742682,0
9.0110433,,node/7041071459,St. Urael Church,38.7752596,0
9.0104908,,node/7041071461,Salcost Apartments (NOC),38.766397,0
9.0118738,,node/7041071462,St. Estifanos Church,38.7626376,0
9.0199107,,node/7041071464,St. Gebriel,38.7675809,0
9.0193852,,node/7041071465,Zenebewerk Hotel,38.7680315,0
9.0206693,,node/7041071466,Meles Zenawi Foundation,38.7715231,0
9.0194316,,node/7041071468,Azmari Bet (Traditional Music Club),38.770643,0
9.0166401,,node/7041071469,Kazanchis (6th),38.7702335,0
9.0196382,,node/7041071471,Hilton Hotel (Apartments),38.7638714,0
9.0233468,,node/7041071473,Women Square,38.7772342,0
9.0234508,,node/7041071474,Women Square,38.7771738,0
9.0244322,,node/7041071475,Aware Bridge,38.7765755,0
9.0319312,,node/7041071479,Arat Kilo,38.7633615,0
9.0321438,,node/7041071480,Arat Kilo,38.7652099,0
9.032458,,node/7041071481,Bel Air,38.7728461,0
9.0324918,,node/7041071482,Addis View Hotel,38.7730493,0
9.0385857,,node/7041071483,Menelik II Hospital,38.7730556,0
9.0388201,,node/7041071484,Menlik Hospital,38.7719268,0
9.0365871,,node/7041071579,Piassa Arada,38.7522029,0
9.0363947,,node/7041071580,Piassa Arada,38.7524445,0
9.0354239,,node/7041071592,Piassa Arada,38.7523326,0
9.0352553,,node/7041071594,Habtegiorgis Bridge,38.7491242,0
9.0343899,,node/7041071595,Kurtu Building,38.7438917,0
9.0341887,,node/7041071596,Kurtu Building,38.7437548,0
9.0343321,,node/7041071597,Pharmacy,38.7434135,0
9.0343947,,node/7041071598,Gojam Berenda,38.737968,0
9.0342308,,node/7041071599,Autobis Tera (3),38.7337775,0
9.03371,,node/7041071600,Autobus Tera,38.7298446,0
9.0338533,,node/7041071601,Darsema Grosery,38.7294433,0
9.04636,,node/7041071604,Girum Hospital,38.7200106,0
9.0407262,,node/7041071605,Woreda 7 TVET,38.7212396,0
9.0366318,,node/7041071606,Sefere Salam,38.7219216,0
9.037044,,node/7041071607,Kolfe,38.7173824,0
9.0373422,,node/7041071608,Abysinia Coffee,38.7164487,0
9.0338162,,node/7041071609,Degu Hotel,38.7151531,0
9.0335338,,node/7041071610,18 Mazoria,38.7130781,0
9.0335825,,node/7041071612,18 Mazoria,38.7135105,0
9.0333303,,node/7041071614,Luwkanda,38.7093322,0
9.0340139,,node/7041071615,Kolfe Secondary School,38.704541,0
9.0327975,,node/7041071616,Realstate,38.6951186,0
9.034058,,node/7041071619,Police Tabiya,38.6888917,0
9.0342811,,node/7041071620,Feli Doro (1),38.6875252,0
9.0353789,,node/7041071622,Feli Doro,38.6853297,0
9.0389362,,node/7041071628,Ras Mekonene Bridge (Seba Dereja),38.7568178,0
9.0385989,,node/7041071629,5 Kilo (History Museum),38.7625491,0
9.0408311,,node/7041071630,5 Kilo University,38.761951,0
9.0427151,,node/7041071633,Lion Zoo (PEPSI Kiosk),38.7615693,0
9.0438891,,node/7041071636,Yekatit 12 Hospital,38.7603878,0
9.0436921,,node/7041071637,Yeatit 12 Hospital,38.7593176,0
9.0386136,,node/7041071638,Red-Cross (St. George Total),38.7527639,0
9.0386684,,node/7041071639,St. George Church (Total),38.7517494,0
9.0436522,,node/7041071640,Semen Hotel,38.7488778,0
9.0446929,,node/7041071641,Semen Hotel,38.7482928,0
9.0486023,,node/7041071642,Kelemwerk,38.7461719,0
9.0488673,,node/7041071643,Kelemwerk,38.7458026,0
9.0512494,,node/7041071645,Tibeb Ediget School,38.7443439,0
9.0523631,,node/7041071646,Semen Mazegaga,38.7433813,0
9.0537306,,node/7041071647,Semen Mazagaja,38.7424925,0
9.0541015,,node/7041071648,Shegole Bank,38.7200104,0
9.0474202,,node/7041071649,Pawlos Hospital,38.7277601,0
9.0514832,,node/7041071650,Finance,38.7221677,0
9.0513651,,node/7041071651,Medhanialem (TOTAL),38.7220512,0
9.0528369,,node/7041071653,Finance,38.7201878,0
9.0531245,,node/7041071654,Finance,38.7199027,0
9.0544244,,node/7041071655,Winget Chaf,38.7149847,0
9.0520588,,node/7041071657,4 Menta Adebabay,38.7088754,0
9.051327,,node/7041071658,Mikili Land,38.6987792,0
9.0571703,,node/7041071659,Winget Adebabay,38.7137033,0
9.0576087,,node/7041071660,Awolia,38.7116367,0
9.0577975,,node/7041071661,Gulele Fana,38.7067279,0
9.0582376,,node/7041071662,Gulele Fana,38.7065488,0
9.0593548,,node/7041071663,Berchiko,38.7034077,0
9.0665816,,node/7041071665,Gebriel (Sansusi),38.69045,0
9.057952,,node/7041071718,Bono Weha,38.7791204,0
9.053538,,node/7041071719,Mezan,38.7722233,0
9.0470252,,node/7041071721,3rd Shaleka,38.7690705,0
9.0461753,,node/7041071723,6 Kilo (University),38.7615547,0
9.0513004,,node/7041071725,Meksaye Hizunan Medhanialem,38.7622054,0
9.052326,,node/7041071726,Teferi Mekonen,38.7622236,0
9.0541533,,node/7041071729,Sebseba Maekel,38.7625698,0
9.0649811,,node/7041071737,Eyesus,38.7715088,0
9.0585516,,node/7041071738,Hamle 19,38.7680987,0
9.0692162,,node/7041071740,Selassie,38.7607205,0
9.0745256,,node/7041071741,Sanba Nekersa-Shiromeda,38.7590628,0
9.0777328,,node/7041071742,Kuskoam,38.7572536,0
9.0710894,,node/7041071749,Dil Ber,38.7374397,0
9.0638294,,node/7041071753,Anbessa Garage (Shegole),38.7204079,0
9.0691617,,node/7041071754,Kebt Beret,38.7182194,0
9.0843712,,node/7041071755,Entoto Kela,38.7230011,0
9.1051152,,node/7041071758,Weserbi Realestate,38.7095299,0
9.1095355,,node/7041071759,Classy Water,38.7147037,0
9.1100449,,node/7041071760,Medret Hotel,38.7158285,0
9.1176074,,node/7041071761,Kburea,38.7300979,0
9.1179357,,node/7041071762,Kenenisa,38.7304557,0
9.1273122,,node/7041071763,Shefunea,38.7395293,0
9.1277902,,node/7041071764,Shefine,38.7397834,0
9.1339361,,node/7041071772,Doro Erbata,38.7522344,0
9.1341343,,node/7041071773,Abo Gabriel,38.7524529,0
9.1408321,,node/7041071774,Tulu Fati,38.7549356,0
9.1449015,,node/7041071775,Ashewa,38.7538733,0
9.1560016,,node/7041071776,Tabya Hotel,38.7542489,0
8.9929589,,node/7047495429,Sar Bet (Roundabout),38.738359,0
9.0286142,,node/7047495432,United Bank (Ashewa Meda),38.6600221,0
8.9208064,,node/7047495433,Sefera,38.7346499,0
8.9473774,,node/7049122264,Lafto,38.744323,0
8.935835,,node/7049122265,Hana Mariam (2),38.7440895,0
8.9387647,,node/7049122266,Haile Garment,38.7345586,0
9.0304285,,node/7049921444,Yekiber Demena Church,38.8779866,0
9.0204726,,node/7049921445,Megenagna Terminal,38.8024339,0
9.0220882,,node/7049921447,Hill Bottom (Recreation),38.8759579,0
9.0304125,,node/7049921448,Zone 8,38.8775474,0
9.0570656,,node/7049921449,Aba Kiros (Tafo) Roundabout,38.8779122,0
9.0566049,,node/7050234123,Tafo Junction,38.8790275,0
9.020626,,node/7050327664,Megenagna Terminal,38.8021323,0
9.0476858,,node/7054842410,6 Kilo,38.7617178,0
9.0476498,,node/7054842414,6 Kilo,38.7617169,0
9.0106346,,node/7055060064,Legehar (Old Train Station),38.7532161,0
9.0359897,,node/7055598734,Kotebe Gebriel,38.8546711,0
9.0269686,,node/7055598736,Ahmed Building,38.8299268,0
9.0363488,,node/7055598738,St. Mary Church,38.7579049,0
9.0335541,,node/7055598739,Piassa Arada,38.7535483,0
9.0327818,,node/7055598742,Piassa Arada,38.7534018,0
9.0363807,,node/7055598743,St. Mary Church,38.7579442,0
9.0274541,,node/7055598744,NOC End,38.8307544,0
9.0341209,,node/7056754511,Kotebe Teachers College,38.8467717,0
9.0630764,,node/7056754514,Meskelegna (Ababdo),38.8732637,0
9.020907,,node/7056754516,Megenagna,38.8022361,0
9.0041945,,node/7057002158,Atlas,38.779674,0
9.0329242,,node/7057002161,Piassa Arada,38.7528717,0
9.0389386,,node/7057002162,Ras Mekonene Bridge (Seba Dereja),38.7568279,0
8.9904207,,node/7057187392,Brass Clinic (Bole),38.7929906,0
8.9903142,,node/7057187393,Brass Clinic (Bole),38.7932003,0
9.0379471,,node/7062689844,St.Gorgis,38.7519784,0
9.0358742,,node/7062689845,St. George Church (2),38.751629,0
9.0345896,,node/7062689848,Piassa,38.7549398,0
9.0325203,,node/7062689850,Arat Kilo,38.764362,0
9.0344021,,node/7062689851,4 Kilo,38.7630946,0
9.0506154,,node/7062689852,Medhanialem,38.7621098,0
9.044142,,node/7062689854,Education Bureau (6 Kilo),38.7635923,0
9.0471236,,node/7062689855,Jan Meda,38.7690204,0
9.0557922,,node/7062689856,Frensaye Kela,38.7742742,0
9.0551762,,node/7062689857,Frensaye Kela,38.7736282,0
9.0569998,,node/7062689858,Abo Mazoriya,38.7777387,0
9.0623294,,node/7062689859,Gurara,38.7881845,0
8.9730894,,node/7067942461,Mamo (NFSL TVET),38.7608987,0
8.988213,,node/7067942462,Agona Cinema,38.7595747,0
8.9882665,,node/7067942463,Agona Cinema,38.7597959,0
9.0004682,,node/7067942465,Tele Garage,38.7587377,0
9.0057314,,node/7067942466,Meshualekia,38.7589773,0
9.0145395,,node/7067990019,Zerihun Building,38.7824519,0
9.0166971,,node/7067990020,6th (Raddison Blu),38.7669539,0
9.0264536,,node/7070861695,National Palace,38.7621198,0
8.9897614,,node/7070861696,SNAP Building,38.7872174,0
8.9908557,,node/7070861697,Friendship,38.7844888,0
8.9917592,,node/7070861698,Heber Restaurant,38.7822311,0
8.992295,,node/7070861699,RWANDA (Werbek House),38.7791533,0
8.9946542,,node/7070861700,Wollo Sefer,38.7740953,0
8.9924,,node/7070861701,Rwanda,38.7798477,0
8.9966227,,node/7070861702,Bole Printing Press,38.7723732,0
8.9976714,,node/7070861703,Bole Printing Press,38.7715908,0
8.9993469,,node/7070861704,Mega Printing Press,38.7708659,0
9.001132,,node/7070861705,Shewa Dabo,38.7697078,0
9.0014126,,node/7070861706,Getu Commercial Center,38.7697673,0
9.004953,,node/7070861707,Dembel City Center,38.7678519,0
9.0100482,,node/7070861710,Flamingo,38.7634195,0
9.0358386,,node/7070861712,Piassa Arada,38.7528459,0
9.0074376,,node/7070861713,Anbessa Garage,38.8054033,0
9.0221276,,node/7070861714,Ayat Roundabout,38.876525,0
9.0401288,,node/7070861716,Gebriel,38.8777949,0
9.0527134,,node/7074233342,Semen Mazegaja | ሰሜን ማዘጋጃ,38.7433527,0
9.0559007,,node/7074233343,Del Ber School,38.7411604,0
9.0592088,,node/7074233344,Adisu Gebeya,38.7379037,0
9.061605,,node/7074233345,Kelebat,38.7355505,0
9.0679367,,node/7074233346,Oilibiya (Dil Ber),38.7347909,0
9.0463006,,node/7074267433,Pastor,38.7301845,0
9.051161,,node/7074267434,Medhanialem,38.7228618,0
9.0554455,,node/7074267435,Winget,38.7138884,0
9.0576131,,node/7074269464,Kela,38.6101592,0
9.0576152,,node/7074269465,Kela,38.6101611,0
9.0452427,,node/7074275407,Semen Hotel,38.7481339,0
8.9866969,,node/7074294627,Kera,38.7484333,0
9.0653014,,node/7074299254,Asko,38.6922669,0
9.0286512,,node/7074324043,Sebategna,38.733098,0
9.0317912,,node/7074324044,Autobis Tera (2),38.7324012,0
9.0347276,,node/7074324045,Autobis Tera,38.7321005,0
8.9733512,,node/7074326525,Mekanisa,38.7315967,0
8.9822244,,node/7074326526,Abo Mazoria,38.7343058,0
8.9894962,,node/7074330387,Gate 2,38.8580841,0
8.9942098,,node/7074330389,Tena Tabeya,38.8605382,0
8.9984544,,node/7074330391,Condminium (Gate),38.8602323,0
9.0014062,,node/7074330392,Gomista,38.8573283,0
9.0040839,,node/7074330394,Summit (MOHA),38.8517162,0
9.0106601,,node/7074330397,Safari,38.8518265,0
8.999474,,node/7074330400,Alemayehu,38.820944,0
9.0005663,,node/7074330401,Alemayehu,38.8196821,0
9.0050845,,node/7074330403,Condominium,38.8095474,0
9.026612,,node/7074330407,Ethio-china,38.8287819,0
9.0403987,,node/7074330409,Kara,38.8643277,0
8.9654679,,node/7074332290,Project 15,38.8850641,0
8.9772657,,node/7074332294,Kela,38.8845811,0
9.0616842,,node/7074347184,Chereta,38.7010211,0
8.9813585,,node/7074353066,Gerar,38.6894082,0
8.9538291,,node/7074374410,Jemo 3,38.6959643,0
8.951847,,node/7074374411,Furi,38.6921288,0
9.0714186,,node/7074387585,Sansusi,38.6891023,0
9.0285405,,node/7074496216,Kersa (2),38.6722328,0
9.0326531,,node/7074496217,Ashewa Meda,38.6653802,0
9.0326414,,node/7074496218,Ashewa Meda,38.6653823,0
9.0258997,,node/7074496219,United Bank (Ashewa Meda),38.6569665,0
9.027689,,node/7074496221,St. Gebriel,38.6515848,0
9.0276843,,node/7074496222,St. Gebriel,38.6515743,0
9.0417975,,node/7074496225,Gojo,38.6216778,0
9.0010346,,node/7074504387,Alem Bank,38.6776598,0
8.9831093,,node/7074504388,Ayer Tena,38.6982193,0
9.0045877,,node/7074504390,Bethel,38.6944335,0
9.0139079,,node/7074504391,Mewcha,38.7053132,0
9.0149626,,node/7074504392,Mendida,38.7004735,0
8.9700751,,node/7074525370,Mebrat Nigist Hotel,38.7486994,0
9.0116457,,node/7074541084,Lideta Kefetega Firdbet,38.7326808,0
8.9249315,,node/7074561389,Sefera Square,38.7341804,0
8.9368661,,node/7074561391,Haile Garment,38.7363202,0
8.9493593,,node/7074561392,Mebrathile (EEPCo),38.7334502,0
8.9309368,,node/7074561393,Hana Mariam,38.7544146,0
8.9361698,,node/7074561394,Hana Mariam (2),38.7444615,0
8.95299,,node/7074561395,Meskelgna,38.7448233,0
9.0357438,,node/7074585943,Piassa Arada,38.7514315,0
9.0324015,,node/7074585944,Arat Kilo,38.7633143,0
8.9953761,,node/7074599697,Beklo Bet (Global),38.759835,0
9.0055741,,node/7074691520,Dembel City Center,38.7672511,0
9.010735,,node/7074707878,Mexico,38.7471393,0
9.0127963,,node/7074707880,ERA Office (Big Mak),38.7478601,0
9.0092034,,node/7074707881,Saint Josphe School,38.7591385,0
9.0124825,,node/7074707883,St. Estifanos Church,38.7628296,0
8.9725713,,node/7074819178,Mamo (NFSL TVET),38.7607684,0
8.9310399,,node/7074841187,Kadisco,38.7585063,0
8.9339802,,node/7074841188,Kality Maseltegna,38.7643672,0
9.0291868,,node/7074921333,Teklehaimanot,38.7442895,0
9.0266712,,node/7074921334,Berbere Tera,38.7406481,0
8.9585362,,node/7075101457,Dildiy Mariam,38.7498569,0
8.9837158,,node/7075101459,Kera (Gofa Stop),38.7497528,0
9.009717,,node/7075129253,Tor Hailoch,38.7208842,0
9.0117428,,node/7075129254,Torhayloch,38.7207996,0
9.0117788,,node/7075129255,Tor Hailoch,38.7222467,0
9.0043941,,node/7076294502,Riche,38.7588986,0
8.9645236,,node/7076294503,Mebrat Condominium,38.7438551,0
8.9638868,,node/7076294504,Kadisco,38.7633289,0
9.0089349,,node/7076294505,Flamingo,38.7646677,0
8.9984013,,node/7076294507,Condminium (Gate),38.8601035,0
9.0571285,,node/7076294508,Sara Ampol (Gedera),38.8738883,0
9.0418835,,node/7076294509,Michael (2),38.7325725,0
9.0622823,,node/7076294510,Shero Meda,38.7612538,0
9.0618175,,node/7076294511,Shero Meda,38.7613619,0
9.0716602,,node/7076294512,Dil Ber,38.7369836,0
9.0692159,,node/7076294515,Shiromeda Selassie,38.7607132,0
9.0618235,,node/7076294516,Shero Meda,38.7613887,0
9.0447597,,node/7076310930,6 Kilo (Akim Genbata),38.7612093,0
9.0626379,,node/7076310931,Shero Meda,38.7612397,0
9.0507372,,node/7077424942,Medhanialem,38.7619991,0
9.0163885,,node/7077601626,Ambassador,38.7551039,0
9.0216085,,node/7077785205,Lamberet,38.8139111,0
9.0479009,,node/7077785206,Kara Condominium,38.8692642,0
9.0655587,,node/7077785207,G-7 (Meskelegna),38.8676583,0
9.0480304,,node/7077785209,Kara Condominium,38.8695121,0
9.031811,,node/7077863009,Autobis Tera (2),38.7325536,0
8.9960545,,node/7077863010,Tropical,38.6833448,0
9.0003767,,node/7077863012,Alem Bank,38.6779208,0
8.9965876,,node/7077863014,Tropical,38.6830207,0
8.9923549,,node/7077863015,Kidane Mihret,38.6892387,0
9.004479,,node/7077863016,Bethel,38.6941906,0
9.0151128,,node/7077863017,Mendida,38.7004836,0
9.019638,,node/7077863018,Abinet,38.7327417,0
9.0280905,,node/7077863019,Sebategna,38.7329768,0
9.0088714,,node/7078164250,Mexico,38.7440208,0
8.9381825,,node/7078164251,Haile Garment,38.7349155,0
8.9729343,,node/7078164254,Mekanisa,38.7311018,0
8.9820586,,node/7078164255,Abo Mazoria,38.7345326,0
9.0088201,,node/7078164256,Mexico,38.7437936,0
9.0330269,,node/7078406225,Autobis Tera (1),38.7323925,0
8.9876369,,node/7078406227,Zenebework,38.7090191,0
8.9822919,,node/7078406228,Ayer Tena,38.6949214,0
8.9755975,,node/7078406231,Kara Kore,38.6817556,0
8.9763865,,node/7078406235,Kara Kore,38.6823873,0
8.9822452,,node/7078406236,Ayer Tena (Gerar-Repi),38.6939258,0
8.9795411,,node/7078406237,Repi (Gerar),38.6853377,0
8.9852814,,node/7078406238,Zenebework (Crossing),38.7051886,0
8.992776,,node/7078406239,3 Kutir Mazoriya (Total),38.715946,0
9.0330007,,node/7078406240,Autobis Tera (1),38.7322299,0
9.0049451,,node/7080251773,Condominium,38.8100534,0
8.993889,,node/7080251774,Goro School,38.8268744,0
9.0071789,,node/7080251776,Anbessa Garage,38.8056204,0
9.0110028,,node/7080440194,Estifanos,38.76366,0
9.0104866,,node/7080440195,BAMBIS,38.7690578,0
9.0115088,,node/7080440196,St. Urael Church,38.7752996,0
9.0147285,,node/7080440197,Lex Plaza,38.7823039,0
9.0164226,,node/7080440198,22 (Haya Hulet),38.7896417,0
9.0194097,,node/7080440200,Megenagna,38.8004816,0
9.019032,,node/7080440203,Megenagna,38.8005914,0
9.0177169,,node/7080440204,Lem Hotel,38.7955696,0
9.0162149,,node/7080440205,22 (Haya Hulet),38.7896635,0
9.0102033,,node/7080440206,BAMBIS,38.7694936,0
9.0104304,,node/7080440208,Mexico,38.7467585,0
9.0098462,,node/7080527282,Mexico,38.7462899,0
8.9863213,,node/7080527284,Kera,38.7487773,0
8.96688,,node/7080611085,Mebrat,38.7487535,0
9.0120423,,node/7080611091,Mexico Shebelle Hotel,38.746773,0
9.0412736,,node/7080893992,Michael,38.7322629,0
9.034717,,node/7080893993,Autobis Tera,38.732023,0
9.0460782,,node/7080893994,Pastor,38.7306587,0
9.0560646,,node/7080893995,Winget,38.713458,0
9.0613645,,node/7080893996,Chereta,38.7009781,0
9.0715888,,node/7080894001,Sansusi,38.6891732,0
9.0385658,,node/7081034796,5 Kilo (History Museum),38.7624277,0
9.0574672,,node/7081034797,Abo Mazoriya,38.7785478,0
9.0441923,,node/7081034799,Education Bureau (6 Kilo),38.7640045,0
9.0648091,,node/7084255331,Total (Dil Ber),38.732915,0
9.0341775,,node/7084255333,Piassa Arada,38.7533521,0
9.0594855,,node/7084255334,Addisu Gebeya,38.7374497,0
9.0638908,,node/7084255335,Tsion Cafe (Addisu Gebeya),38.733166,0
9.0653883,,node/7084255336,Total (Dil Ber),38.7327389,0
9.0337517,,node/7084722454,Ummar School,38.7405402,0
9.0341036,,node/7084722456,Autobis Tera (3),38.7337992,0
9.0341305,,node/7084722457,Gojam Berenda (Tefera Buillding),38.7418327,0
9.0404538,,node/7084722458,Dej. Wube (Ras Abebe School),38.7533374,0
9.0440672,,node/7084722459,Wube Bereha,38.7544994,0
9.0515491,,node/7084722460,Menen,38.7588473,0
9.0584002,,node/7084722461,Tsehay Chora (ShiroMeda),38.7598297,0
9.0274958,,node/7084873006,Sebategna (Taem Bakery),38.7332661,0
9.0188835,,node/7084873007,Mola Maru (Jos Hansen),38.7380924,0
9.0167149,,node/7084873008,Geja Sefer (Darmar),38.7382054,0
8.9856954,,node/7084873009,Kera (Green Market),38.7486804,0
8.9841757,,node/7084873010,Kera (Mexico Stop),38.7518917,0
8.9824212,,node/7084873011,MOHA (Pepsi Factory),38.7560749,0
8.9547202,,node/7084873012,Saris (Shoa Bakery),38.7635412,0
8.9844206,,node/7084873013,Kera (Saris Stop),38.7509324,0
9.002055,,node/7084873014,Guenet Hotel (Orbis),38.7469466,0
9.0111972,,node/7084873015,St. Lideta Church,38.736541,0
9.0192478,,node/7084873016,Abenet (Joshansen),38.733649,0
8.9951157,,node/7084932737,Canada Embassy,38.7373207,0
8.9973163,,node/7084932738,Mechare Meda,38.7311778,0
8.9892732,,node/7084932739,Bisrate Gebrael,38.7239615,0
8.9850622,,node/7084932740,Zenebework (Crossing),38.705264,0
8.9838449,,node/7084932741,Ayer Tena,38.6961239,0
8.9917639,,node/7084932742,Kidane Mihret (Roundabout),38.6887357,0
8.9910254,,node/7084932743,Kidane Mihret (2),38.690106,0
9.0056187,,node/7084932745,Augusta Bridge (Tor Hailoch),38.7185689,0
9.0114539,,node/7084932747,Mexico,38.7445753,0
8.9839859,,node/7098810331,Goro Roundabout,38.8285018,0
8.9678887,,node/7098810332,Kotebe Shet',38.8370059,0
8.9585287,,node/7098810333,Bole Lemi,38.8352869,0
8.9405669,,node/7098810334,Endorro 2,38.8219339,0
8.9007946,,node/7098810335,Kilinto Right (Heniken),38.8152364,0
8.8947925,,node/7098810336,Koye Feche 4,38.8240221,0
8.8925887,,node/7098810337,Koye Feche 3,38.8277372,0
8.896302,,node/7098810338,Koye Feche 2,38.8313712,0
8.9045894,,node/7098810339,Koye Feche,38.8270083,0
8.9837967,,node/7098810340,Goro Roundabout,38.8289328,0
8.9678046,,node/7098810341,Kotebe Shet',38.8374461,0
8.9573187,,node/7098810342,Bole Lemi,38.8354629,0
8.9393928,,node/7098810343,Endorro 2,38.8217947,0
8.9307029,,node/7098810344,Endorro 1,38.820007,0
8.9005132,,node/7098810345,kilinto (Heniken Brewery),38.8155747,0
9.0192718,,node/7098833728,Gurd-shola,38.8196082,0
9.021924,,node/7098833729,Civil Service College,38.8331381,0
9.021617,,node/7098833730,St. Michael,38.8400876,0
9.0193173,,node/7098833731,Sunshine Apartments,38.8524287,0
9.0019915,,node/7098833732,Gomista,38.8575794,0
8.9918735,,node/7098833735,Hasset Photo,38.8588022,0
9.0190988,,node/7098833736,Sunshine Apartments,38.8521013,0
9.0208488,,node/7098833737,CMC (Apartments),38.8504565,0
9.0213567,,node/7098833738,St. Michael,38.8401568,0
9.0337594,,node/7102193971,Merkato,38.7312293,0
9.0338552,,node/7102193972,Mesalemia (Area Police),38.7254909,0
9.0332635,,node/7102193973,Luwkanda,38.7086533,0
9.0338494,,node/7102193974,Comprensive,38.7049566,0
9.031909,,node/7102193975,Gefersa,38.642409,0
9.0563274,,node/7102193976,Gojo (Kela),38.6117467,0
9.0560454,,node/7102193977,Gojo (Kela),38.6120244,0
9.0375371,,node/7102193978,Gefersa (2),38.6265192,0
9.0356795,,node/7102193979,Gefersa,38.6329501,0
9.0328635,,node/7102193980,Ashewa Meda (1),38.6674596,0
9.0286003,,node/7102193981,Kersa (1),38.6760437,0
9.0343761,,node/7102193982,Feli Doro (2),38.687173,0
9.0344498,,node/7102193983,Mesalemia,38.7244946,0
9.0338637,,node/7102269985,Merkato,38.7312074,0
8.9821491,,node/7103202615,Ayer Tena,38.6977085,0
8.9647174,,node/7103202616,German Bridge,38.7316085,0
8.9470109,,node/7103202617,Mebrathile (EEPCo),38.7342372,0
8.9444277,,node/7103202619,Saris Abo,38.7692016,0
8.944353,,node/7103202620,Saris Abo,38.7666082,0
8.9336411,,node/7103202621,Kality Maseltegna,38.7645892,0
8.930547,,node/7103202622,Hana Mariam (Bridge),38.7550031,0
8.9653607,,node/7103202623,Mickael Bridge,38.72738,0
8.9820533,,node/7103202625,Ayer Tena,38.6976219,0
9.0323651,,node/7104888674,Bel Air,38.7729637,0
9.0211237,,node/7105158906,CMC (Apartments),38.8506098,0
9.0462589,,node/7105158907,Tafo Condominium 2,38.8774831,0
9.0502639,,node/7105158908,Tafo Condominium 1,38.8775457,0
8.9593839,,node/7105268824,Mebrat (Lafto),38.7490031,0
8.9587047,,node/7105268825,Dildiy Mariam,38.7497551,0
8.9537745,,node/7105268826,Lafto (Mickael),38.7504407,0
8.9465504,,node/7105268828,Lafto,38.7493803,0
8.9558865,,node/7105268830,Lafto (Primary School),38.7450783,0
9.0185243,,node/7105398617,Post Office (Ambassador),38.7534558,0
9.0462,,node/7105398618,6 Kilo,38.761425,0
9.0522977,,node/7105398619,Teferi Mekonen,38.7623138,0
9.022269,,node/7105584907,Marathon Motor (Megenagna),38.7999868,0
9.0332665,,node/7105584908,Arat Kilo,38.762507,0
9.0341288,,node/7105584909,Piassa Arada,38.7532588,0
9.0332715,,node/7105584911,Arat Kilo,38.7625094,0
9.0289345,,node/7105584912,Abebe Sook,38.7888307,0
9.0358919,,node/7105840324,Abune Petros,38.7492708,0
9.0424895,,node/7105840325,Yohannes,38.745898,0
9.0472271,,node/7105840326,Arbegnoch Primary School,38.7421685,0
9.0485317,,node/7105840327,Enqulal Fabrica,38.7376837,0
9.0434044,,node/7105840330,Yohannes,38.7450108,0
9.0481067,,node/7105840331,Enqulal Fabrica,38.7373533,0
8.9209077,,node/7107670562,Sefera,38.7350358,0
8.94963,,node/7107670563,Mebrathile (EEPCo),38.7332384,0
8.9829863,,node/7107670564,Mekanisa Abo,38.7341183,0
8.9606298,,node/7107789218,Jemmo 2,38.6879228,0
9.0319297,,node/7107789219,Piassa (Downtown Cafe),38.7511477,0
8.9605732,,node/7107789220,Jemmo 2,38.6878636,0
8.9860956,,node/7108224469,Kera,38.7483037,0
9.0166264,,node/7110438104,6th (Raddison Blu),38.7675202,0
9.0171928,,node/7110438105,Kazanchis (6th),38.7701955,0
9.0231177,,node/7110438106,Aware Roundabout,38.7758778,0
9.0234853,,node/7110438107,Signal,38.7815333,0
9.0221973,,node/7110438108,Dinberwa Hospital,38.7867845,0
9.0212061,,node/7110438109,Lem Hotel,38.7940254,0
9.022362,,node/7110438110,Lamberet (Queens),38.8157252,0
9.0348925,,node/7110438111,Kotebe 01,38.8281186,0
9.0349074,,node/7110438113,Kotebe 01,38.8281855,0
9.0217059,,node/7110438114,Shola (United Bank),38.7948696,0
9.021194,,node/7110438115,Sumeya Mosque,38.792498,0
9.023369,,node/7110438116,Signal,38.7815645,0
8.9104302,,node/7110725239,Kality Gebriel,38.7640618,0
8.9572931,,node/7110725240,Addis Sefer (Overpass),38.7673729,0
8.9799499,,node/7110725241,Bole Mickael (2),38.7723221,0
8.9867261,,node/7110725242,Bole Bridge,38.7903601,0
8.9948785,,node/7110725243,MOENCO,38.7957512,0
9.0009401,,node/7110725244,Sport Academy,38.7988652,0
9.0077883,,node/7110725245,Anbessa Garage,38.8030776,0
9.0076034,,node/7110725247,Anbessa Garage,38.8032793,0
9.0037859,,node/7110725248,Emperial Hotel,38.8009424,0
8.9910225,,node/7110725250,Bole (Bora Amusement),38.7947105,0
8.9795995,,node/7110725251,Bole Mickael (2),38.7721474,0
8.9603711,,node/7110725252,Addis Sefer,38.7676814,0
8.945759,,node/7110725253,Saris Abo,38.7692206,0
8.9234126,,node/7110725254,Kality (Correctional Facility),38.7648588,0
8.8959395,,node/7110725256,Kality Meneharia,38.7718808,0
9.0354591,,node/7111821010,Arat Kilo,38.7588358,0
9.0325113,,node/7111821011,Piassa (EPPCO),38.7538404,0
9.0317457,,node/7111821013,Autobis Tera,38.7374552,0
9.0302352,,node/7111821015,Autobis Tera,38.7372851,0
9.0216842,,node/7111821016,Dinberwa Hospital (1),38.7887833,0
9.0374493,,node/7112123457,Chid Tera,38.721592,0
9.0294949,,node/7112123458,Mebrathail,38.7149359,0
9.0173854,,node/7112123459,Kolfe Keranyo,38.7177803,0
9.0193846,,node/7112123460,Keranio Bridge,38.708993,0
9.0170237,,node/7112123462,Kolfe Keranyo,38.7176821,0
9.0370321,,node/7112123463,Abysinia Coffee,38.7163686,0
9.0376714,,node/7112123464,Chid Tera,38.7208971,0
8.9998854,,node/7112215078,Old Airport (Mobil),38.7188624,0
9.008471,,node/7112215079,Minaye (Shoa Supermarket),38.7196192,0
9.0208524,,node/7112215080,Holand,38.7158287,0
9.0361682,,node/7112215081,18 Mazoria (Atena Tera),38.7141478,0
9.0409736,,node/7112215082,Atena Tera,38.7125982,0
9.0491202,,node/7112215083,Winget TVET,38.7116581,0
9.0555289,,node/7112215084,Winget,38.7124575,0
9.0554541,,node/7112280388,Winget,38.7127274,0
9.0494004,,node/7112280389,Winget TVET,38.7117843,0
9.0448145,,node/7112280390,kolfe (Atena Tera),38.7122352,0
9.0414434,,node/7112280391,Atena Tera,38.712721,0
9.0362317,,node/7112280392,18 Mazoria (Atena Tera),38.7143961,0
9.0244809,,node/7112280393,Meseret Edget,38.7152453,0
9.0056155,,node/7112280394,Augusta Bridge (Tor Hailoch),38.7188519,0
8.8596281,,node/7112648156,Mahiber Betoch,38.8146269,0
8.865212,,node/7112648157,Project 12 Akababi,38.8210444,0
8.8701237,,node/7112648158,G7 (Tulu Dimtu),38.8204129,0
8.871336,,node/7112648159,Belay Ab Moters,38.7965426,0
8.8797273,,node/7112648160,Gelan Condominium,38.779459,0
8.894811,,node/7112648161,Kality Total,38.7728422,0
8.8973286,,node/7112648162,Akaki Subcity Office (Menaheria),38.770309,0
8.9224149,,node/7112648163,Kality (Correctional Facility),38.7641522,0
8.9281178,,node/7112648164,Techtra Engineering,38.7676362,0
8.9572677,,node/7112648165,Adey Abeba,38.7637599,0
8.9323914,,node/7112648166,Kality Maseltegna,38.7669427,0
8.9298175,,node/7112648167,Wehalemat,38.768315,0
8.8837788,,node/7112648168,Awash Bank (Akaki Kality),38.7768426,0
8.8799589,,node/7112648169,Gelan Condominium,38.7793211,0
8.8716847,,node/7112648170,Belay Ab Moters,38.7963837,0
8.8705655,,node/7112648172,TAF Oil (Tulu Dimtu),38.8091005,0
9.0278217,,node/7112755338,Teklehaymanot,38.7439418,0
9.0314996,,node/7112755340,Autobis Tera,38.7376384,0
9.0308454,,node/7112755342,Autobis Tera,38.7381207,0
9.0194238,,node/7112755343,Meteorology,38.7468282,0
9.0462468,,node/7113004009,Girum Hospital,38.7199737,0
9.0509733,,node/7113004010,Ras Hailu (Medhanialem),38.7211613,0
9.0572551,,node/7113004011,Awolia,38.7114101,0
9.0640587,,node/7113004012,Bercheko Fabrica (Asko),38.6983516,0
9.0598807,,node/7113004013,Gulele,38.70588,0
9.0507813,,node/7113004014,Ras Hailu (Medhanialem),38.7210939,0
9.040909,,node/7113004015,Woreda 7 TVET,38.7212829,0
9.0380466,,node/7113004016,Chid Tera,38.7213725,0
9.0312199,,node/7113004018,Autobis Tera,38.7365754,0
9.0426217,,node/7113004020,Michael (2),38.73268,0
9.0485205,,node/7113004021,Pawlos Hospital (Saba Mosque),38.7261371,0
9.0643796,,node/7113004022,Anbessa Garage (Shegole),38.7205811,0
9.0641379,,node/7113004024,Shegole (Mender 7),38.7266132,0
9.0641466,,node/7113004026,Shegole (Mender 7),38.726699,0
9.0589167,,node/7113004027,Hassen & Hussein Mosque (Shegole),38.7189551,0
9.0548351,,node/7113004028,Shegole Bank,38.7198445,0
9.0409541,,node/7113004029,Michael,38.7321449,0
9.0652655,,node/7113158623,Eyesus,38.7712666,0
8.9931107,,node/7122983960,Wello Sefer,38.7741153,0
8.9891423,,node/7122983961,Kassech Kitfo,38.7720567,0
8.9855755,,node/7122983962,Ambasel,38.7679985,0
8.9840055,,node/7122983963,WAGGA (Singer Liquior Store),38.7662234,0
8.9814923,,node/7122983964,Wengalawit,38.7635127,0
8.9817105,,node/7122983968,Wengalawit,38.7636059,0
8.9857381,,node/7122983969,MEDCO,38.7680101,0
8.98977,,node/7122983970,Tebaber Berta,38.7723942,0
8.9930626,,node/7122983972,Wello Sefer,38.7739711,0
9.0113972,,node/7123180286,Beshale Area,38.8356151,0
9.0185063,,node/7123180287,Megenagna,38.802106,0
9.0111777,,node/7123180289,Jacros,38.821148,0
9.0100121,,node/7123180290,Safari,38.8526604,0
9.0116739,,node/7123180291,Safari (Summit),38.8657082,0
9.0115148,,node/7123180293,Safari (Summit),38.8657494,0
9.0099646,,node/7123180295,Safari,38.8513684,0
9.011279,,node/7123180296,Beshale Area,38.8356503,0
9.0189315,,node/7123180297,Gurd Shola,38.8201425,0
9.0194519,,node/7123180298,Megenagna,38.803506,0
8.9882804,,node/7123265052,Meskel Flower,38.7650036,0
8.9911645,,node/7123265053,Loza (Adot),38.7659652,0
8.9934001,,node/7123265054,Nazra Hotel,38.7663984,0
8.9959487,,node/7123265055,Yetam Hotel,38.7666123,0
8.9980982,,node/7123265056,Kebele Kibeb,38.7667571,0
8.9999844,,node/7123265061,Mulu Shewa (Gazebo),38.7669271,0
8.9979306,,node/7123265062,Kebele Kibeb,38.7668423,0
8.9959132,,node/7123265063,Yetam Hotel,38.7667132,0
8.9937071,,node/7123265064,Nazra Hotel,38.7665439,0
8.9910552,,node/7123265065,Loza (Adot),38.7660467,0
8.9885268,,node/7123265066,Meskel Flower,38.7652457,0
8.9921561,,node/7182111861,Total 3 Kuter Mazoria,38.7180191,0
8.9865792,,node/7182111862,Kera,38.7468023,0
9.0351361,,node/7214490240,4 Kilo Minilik School,38.7629695,0
8.8967488,,node/7214490241,Kality Menaheriya,38.7708485,0
9.0675662,,node/10672522047,Holeta,38.497947,0
9.065884,,node/10672522056,Sademo,38.53199,0
9.0712731,,node/10672522057,Cheshire Ethiopia,38.5920589,0
8.8504983,,node/10672721751,Delta Fuel Station,38.8085926,0
8.8412588,,node/10672739809,Sidama Awash NOC,38.8243789,0
8.8314833,,node/10672739811,Atlas Resort,38.8396009,0
8.8447465,,node/10672739815,ODDA Fuel Station,38.818065,0
8.9943894,,node/10672961242,3 Kutir (TZNA Area),38.717673,0
9.0117316,,node/10672961244,Lideta High Court,38.7335924,0
8.9839135,,node/10750378219,Ayer Tena,38.7024743,0
8.9925223,,node/10755917239,Sar Bet,38.7394551,0
8.9924619,,node/10755917241,Sar Bet,38.7392871,0
8.9859671,,node/10755917242,Kera,38.7469304,0
8.9900132,,node/10755917243,Kera,38.7418629,0
8.995096,,node/10755917244,Sar Bet,38.7376124,0
8.9973975,,node/10755917245,karl Square,38.7309965,0
8.9970773,,node/10755917246,karl Square,38.7302642,0
8.9927368,,node/10755917247,Bisrate Gebrael,38.7268512,0
8.9914228,,node/10755917248,Bisrate Gebrael,38.7255644,0
8.9888937,,node/10755917249,Bisrate Gebrael,38.7226976,0
8.9922875,,node/10755917250,Total 3 Kuter Mazoria,38.7175917,0
8.8967652,,node/10766121857,kality Meneharia,38.7708737,0
8.9319554,,node/10766121859,kality Maseltegna,38.7669453,0
8.9632423,,node/10766121860,Kadisco Roundabout,38.7668102,0
8.9816305,,node/10766121861,Bole Mickael,38.7761571,0
8.9966149,,node/10766121862,Bole Printing Press,38.7721247,0
9.0100526,,node/10766121863,Flamingo,38.7634141,0
9.0125659,,node/10766121864,St. Estifanos,38.7626278,0
9.035146,,node/10766121865,4 Kilo (Menlik),38.7629874,0
9.0352952,,node/10766121866,4 Kilo (Menlik),38.7631121,0
9.0214342,,node/10766121867,Place Parking (Gibi Gebriel),38.7641345,0
9.01014,,node/10766121868,Flamingo,38.7636218,0
8.9944147,,node/10766121869,Wollo Sefer,38.7743234,0
8.9812653,,node/10766121871,Bole Mikael,38.7761469,0
8.9737518,,node/10766121872,Mamo (Nifas Silk),38.765481,0
8.9321192,,node/10766121873,kality Maseltegna,38.7670877,0
8.8957067,,node/10766121874,kality Meneharia,38.7721261,0
9.0056744,,node/10766454593,Olympia,38.7674734,0
8.9867247,,node/10766454594,Bole Roundabout,38.7908923,0
8.965437,,node/10768858714,German Square,38.7341844,0
8.97192,,node/10768858715,Gofa Camp,38.7420458,0
9.003043,,node/10768858718,African Union,38.7411322,0
9.0296254,,node/10768858719,Autobis Tera,38.7370315,0
9.0026517,,node/10768858720,Guenet Hotel (Orbis),38.7470064,0
8.9651822,,node/10768858723,German Square,38.7340469,0
9.0239162,,node/10781643820,Lamberet Menaheria,38.8198728,0
9.0322896,,node/10781643821,Arat Kilo,38.7650098,0
9.0328365,,node/10781643822,4 kilo (Children Theatre),38.7666152,0
9.0325481,,node/10781643823,Bel Air,38.7736753,0
9.0344084,,node/10781643824,Kebena,38.7768069,0
9.0350794,,node/10781643825,Kokebe Tsebah (Kebena),38.7794124,0
9.0324942,,node/10781643826,Kenya Embassy (Kebena),38.7823515,0
9.0309005,,node/10781643827,British Embassy,38.785575,0
9.0289673,,node/10781643828,Abebe Sook,38.7888226,0
9.0251295,,node/10781643829,Shola (Yeka Court),38.7947497,0
9.0232585,,node/10781643830,Shola Abyssinia Bank,38.7984062,0
9.0224046,,node/10781643831,Megenagna (Marathon Motors),38.7997354,0
9.0208971,,node/10781643832,Megenagna,38.8010368,0
9.0208722,,node/10781643833,Megenagna (Israel Embassy),38.8048559,0
9.0240444,,node/10781643834,Lamberet Menaheria,38.8199227,0
9.0297042,,node/10781643835,Kotebe,38.836729,0
9.0304539,,node/10781643836,Kotebe,38.8385612,0
9.0348007,,node/10781643837,Kotebe Teachers College,38.8490303,0
9.0363204,,node/10781643838,Kotebe Gebriel,38.8553365,0
9.0358505,,node/10781643839,Kotebe Gebriel,38.8541265,0
9.032918,,node/10781643840,Wessen Grocery,38.8443436,0
9.0407203,,node/10781643841,Kara,38.8648947,0
9.0411416,,node/10781643842,Kara,38.8653607,0
9.0287927,,node/10781844855,Abebe Sook,38.788672,0
9.0313214,,node/10781844856,British Embassy,38.7843424,0
9.038677,,node/10781844857,5 Kilo St. Mary,38.7623866,0
9.0462129,,node/10781844858,6 Kilo University,38.7614003,0
9.0462072,,node/10781844859,6 Kilo University,38.7615945,0
9.0430896,,node/10781844860,6 Kilo (Lion Zoo),38.7615002,0
9.032679,,node/10781844861,Kenya Embassy (Kebena),38.7826601,0
9.0250431,,node/10781844862,Shola (Yeka Court),38.7953847,0
9.0225097,,node/10781844863,Megenagna (Marathon Motors),38.7998471,0
9.0381854,,node/10823916391,Yeka 03,38.8773834,0
8.931276,,node/10842065101,Sefera Atkilt Tera,38.7341685,0
8.9358559,,node/10842065103,kality Maseltegna,38.7646885,0
8.9948043,,node/10842065104,Bulgaria,38.7478806,0
8.9379429,,node/10842129005,Kality Customs,38.7628904,0
8.9644696,,node/10842129006,Germen Square,38.7330813,0
8.93579,,node/10842129008,Hana Mariam,38.7441345,0
8.9373819,,node/10842129009,Gomista,38.7703639,0
8.948706,,node/10842129010,Nigd bank,38.780123,0
8.9342123,,node/10842129011,kality Maseltegna,38.7642814,0
8.9310906,,node/10842129012,Kadisco,38.7585214,0
8.9582797,,node/10842129013,Adey abeba,38.7638648,0
8.9457865,,node/10842129015,Saris abo,38.7690665,0
8.93876,,node/10842129016,Haile Garment,38.7345583,0
8.9546992,,node/10842129017,Saris,38.7635479,0
8.9834477,,node/10842129019,Bole Cargo,38.7819099,0
8.9944221,,node/10842129020,Bulgaria,38.7483448,0
8.9482742,,node/10842129021,Kore,38.7765022,0
8.9444276,,node/10842129022,Saris Abo,38.7691994,0
8.8973782,,node/10842129023,Kality Menaheria,38.7704449,0
8.9254109,,node/10842129024,Sefera Square,38.7340982,0
9.009032,,node/10842129025,Mexico,38.7463895,0
8.9092945,,node/10842129026,Kality Gebriel,38.7644698,0
8.8869211,,node/10842129027,Derartu,38.7821218,0
8.9836884,,node/10842129028,Bole Cargo,38.7818039,0
8.8948904,,node/10842129029,Kality Total,38.7729402,0
8.9927142,,node/10842129030,Noc,38.748144,0
8.9901397,,node/10842129031,Lancha,38.7590821,0
8.9375158,,node/10842129032,Haile Garment,38.7359129,0
8.9880834,,node/10842129033,Agona,38.759633,0
8.9336783,,node/10842129034,kality Maseltegna,38.76464,0
8.9417644,,node/10842129035,Mesqelegna,38.7214531,0
8.9537651,,node/10842129037,Jemo,38.6979529,0
8.9577771,,node/10842129038,Adey abeba,38.7640443,0
8.9448318,,node/10842129040,Saris Abo,38.7661797,0
8.9457862,,node/10842129041,Mebrat hayle,38.7343973,0
8.9633984,,node/10842129042,Kadisco,38.7669226,0
8.9356798,,node/10842129043,Hana Mariam,38.7453864,0
8.9729895,,node/10842129045,Mamo (NFSL),38.7609585,0
8.9490785,,node/10842129046,Medhani alem,38.7785848,0
8.9047633,,node/10842129047,Mosque (Mesged),38.7660661,0
8.9093265,,node/10842129048,Kality Gebriel,38.7645559,0
8.9859342,,node/10842129051,Bole Roundabout,38.7888143,0
8.9295556,,node/10842129052,Wuhalimat,38.7681435,0
8.9361549,,node/10842129053,Hana Mariam,38.7445142,0
8.9797944,,node/10842129054,Bole Mickael,38.7719673,0
8.9192813,,node/10842129055,Sheger building,38.7635639,0
8.9705748,,node/10842129056,Yoseph,38.7668114,0
8.9947898,,node/10842129057,Bulgaria,38.7477478,0
8.9470316,,node/10842129058,Mebrathayil,38.7342346,0
8.9250202,,node/10842129059,Sefera Square,38.7346011,0
9.0000494,,node/10842129060,Tele Garage,38.758701,0
8.9469179,,node/10842129061,Mebrathayil,38.7339445,0
8.9376734,,node/10842129062,Haile garment,38.7335906,0
9.0058652,,node/10842129063,Meshualekia,38.758986,0
8.9571801,,node/10842129066,Adey abada,38.7640108,0
8.9755358,,node/10842129069,Menaheria (Zenebu Werk),38.706617,0
8.9602509,,node/10842129070,Adis sefer,38.767446,0
8.930883,,node/10842129071,Kadisco,38.758758,0
8.993831,,node/10842129072,Bulgaria,38.7478486,0
8.9661182,,node/10842129073,Kadisco,38.7627716,0
8.9517202,,node/10842129074,Bulbula,38.7861393,0
8.966096,,node/10842129075,Kadisko,38.7629867,0
8.9444437,,node/10842129076,Saris abo,38.7700795,0
8.8759809,,node/10842129077,Meshualekya,38.7875287,0
8.9871416,,node/10842129078,Agona,38.7597928,0
8.9771026,,node/10842129079,Gotera chaf,38.7595824,0
8.9528149,,node/10842129080,Saris,38.7633358,0
9.0106804,,node/10842129082,St. Joseph School,38.7593422,0
8.9321621,,node/10842129083,Kotari Condominium,38.7338312,0
8.9732793,,node/10842129084,Mamo,38.7652695,0
8.9448603,,node/10842129085,Saris Abo,38.7664084,0
8.9705442,,node/10842129086,Yosef,38.7665547,0
8.9068482,,node/10842129088,Kality Cheralia,38.7654586,0
8.9066965,,node/10842129089,Kality Cheralia,38.7653555,0
8.9906489,,node/10842129090,Lancha,38.7593009,0
8.9375024,,node/10842129091,Gomista,38.7701062,0
8.9375082,,node/10842129092,Haile Garment,38.7331196,0
9.0001174,,node/10842129093,Tele Garage,38.7584826,0
8.8840544,,node/10842129094,Selam Building,38.7767338,0
8.9453322,,node/10842129095,Medhani alem,38.7769101,0
8.8831855,,node/10842129096,Selam Building,38.7772259,0
8.8759552,,node/10842129097,Meshualekya,38.7872182,0
8.9531876,,node/10842129098,Saris,38.7635911,0
8.963723,,node/10842129102,Germen adebabay,38.7328242,0
8.972508,,node/10842129103,Mamo (NFSL),38.7607874,0
8.9875165,,node/10842129105,Kera,38.7486365,0
8.9867627,,node/10842129106,Agona,38.7599766,0
8.9446574,,node/10842129107,Saris abo,38.7701231,0
8.9860883,,node/10842129108,Kera,38.7483211,0
8.8790966,,node/10842129110,Gelan Condominium,38.7666013,0
8.9953066,,node/10842129111,Temenja yasi,38.7596133,0
9.0041803,,node/10842129112,Riche,38.7588933,0
8.9368154,,node/10842129113,Haile garment,38.7364242,0
8.9795749,,node/10842129114,Bole Mickael,38.7720906,0
8.9835322,,node/10842129116,Ayer Tena,38.6971287,0
8.9537239,,node/10842129117,Jemo,38.6977027,0
9.0052072,,node/10842129118,Land mark,38.7467544,0
8.9411484,,node/10842129119,Meskelegna,38.7218311,0
8.9381771,,node/10842129120,Haile Garment,38.7349153,0
9.0040548,,node/10842129121,Riche,38.7586909,0
8.9476648,,node/10842129122,Kore,38.7841911,0
8.8770606,,node/10842129124,Meshualekya,38.7866845,0
8.9518942,,node/10842129125,Bulbula,38.7863461,0
8.9357353,,node/10842129126,kality Maseltegna,38.7643342,0
8.9457601,,node/10842129129,Saris abo,38.7692278,0
8.9603252,,node/10842129131,Addis sefer,38.7676873,0
8.9352291,,node/10842129132,Hana mariam,38.744852,0
8.9866879,,node/10842129133,Kera,38.7484325,0
8.9757898,,node/10842129134,Gotera chaf,38.7601404,0
8.8972852,,node/10842129135,Akaki Subcity Office (Menaheria),38.770318,0
8.9411922,,node/10842129136,Condominium,38.7717099,0
8.8789992,,node/10842129137,Gelan Condominium,38.7666701,0
8.9295931,,node/10842129139,Wuhalimat,38.7683276,0
9.0098761,,node/10842129140,Mexico,38.7461882,0
9.0312472,,node/10845731573,Grand Anwar Mosque,38.7413343,0
9.0247282,,node/10845731574,Kebele 11,38.7457773,0
9.0028738,,node/10845731575,Guenet hotel,38.7468651,0
8.9923344,,node/10845731576,Lancia,38.7589891,0
8.9825134,,node/10845731577,Pepsi,38.755826,0
8.9919399,,node/10845731578,Lancia,38.7591215,0
9.0279893,,node/10845731579,Tekle Haimanot,38.7438378,0
8.9441872,,node/10845731580,Saris Abo,38.7666459,0
9.0120319,,node/10845731581,Legehar,38.7544517,0
8.9841589,,node/10845731582,Kera,38.7522272,0
8.9380577,,node/10845731583,Kality Customs,38.7631799,0
9.0342603,,node/10845731584,Gojam Berenda,38.7378007,0
9.0343553,,node/10845731585,Gojam Berenda,38.7381021,0
8.8868675,,node/10845731586,Derartu,38.7818631,0
8.9824223,,node/10845731587,Pepsi,38.7557408,0
8.9943898,,node/10845731588,Global Hotel,38.7596457,0
8.9208636,,node/10845731589,Sheger Building,38.7637542,0
9.0343246,,node/10845731590,Autobus Tera,38.734431,0
9.0027786,,node/10845731591,Guenet hotel,38.7469738,0
9.0279685,,node/10845731592,Tekle Haimanot,38.7439714,0
8.9970419,,node/10845731593,Beg Tera,38.7476261,0
8.9943499,,node/10845731594,Global Hotel,38.7598651,0
8.9223845,,node/10845731595,Kality Correctional,38.7641252,0
8.9029367,,node/10845731596,Cheralia Factory,38.7667306,0
9.0246149,,node/10845731597,Kebele 11,38.7457421,0
9.0310422,,node/10845731598,Grand Anwar Mosque,38.7414003,0
9.0165472,,node/10845731599,National Theatre,38.7526758,0
8.9214902,,node/10845731600,Sheger Building,38.7639368,0
8.95346,,node/10845731601,Saris,38.767986,0
8.9968163,,node/10845731602,Beg Tera,38.7475303,0
9.014753,,node/10845731603,Sengatera,38.7468099,0
9.0096228,,node/10845731604,Mexico,38.746301,0
8.9937615,,node/10845749005,Bulgaria,38.7479845,0
8.8956285,,node/10845840895,kality Meneharia,38.7720203,0
8.9841176,,node/10845840896,Ayer Tena,38.6966894,0
8.9637758,,node/10845840897,Germen adebabay,38.7330269,0
8.8948231,,node/10846106471,Kality Total,38.7728316,0
8.9869946,,node/10881147490,Bole Bridge,38.7912092,0
8.9867302,,node/10881147492,Bole Bridge,38.7903563,0
9.0341009,,node/10883106542,Autobus Tera,38.7338003,0
8.907041,,node/10886135782,Bajaj Tera,38.7415025,0
8.904156,,node/10886135783,Chera,38.7479978,0
8.8772921,,node/10886135784,Gelan Condominium,38.7622377,0
8.8549158,,node/10886135785,Total,38.7845626,0
8.8737817,,node/10886135787,Tulu Dimtu,38.8197795,0
8.8738791,,node/10886135789,Tulu Dimtu,38.8202354,0
8.8709574,,node/10886135790,G7,38.820802,0
8.8541896,,node/10886135791,Total,38.7847209,0
8.8758233,,node/10886135793,Gelan Condominium,38.7630121,0
8.9906055,,node/10886281950,Bole Bridge,38.7928534,0
8.9955183,,node/10886281951,Bole Medhanyalem,38.7887705,0
8.9973425,,node/10886281952,Edna Mall Squar,38.7870108,0
9.0043569,,node/10886281953,Adey Ababa Stadium,38.7892817,0
9.0150262,,node/10886281954,22 Mazoria,38.7872566,0
9.0150056,,node/10886281956,22 Mazoria,38.787438,0
9.0082739,,node/10886281958,Freedom,38.7887083,0
9.0069454,,node/10886281997,Werku Building,38.7890587,0
9.0042976,,node/10886281998,Adey Ababa Stadium,38.7893444,0
8.9977034,,node/10886281999,Edna Mall Squar,38.7869491,0
8.995948,,node/10886282000,Bole Medhanyalem,38.7885714,0
8.9906936,,node/10886282001,Bole Bridge,38.7929596,0
9.0161537,,node/10886427067,22 Mazoria,38.7881236,0
9.017758,,node/10886427068,Lem Hotel,38.7950715,0
9.0198841,,node/10886427069,Megenagna,38.8019786,0
9.0191878,,node/10886427070,Gurd Shola,38.8200261,0
9.0218654,,node/10886427071,Civil Servis College,38.8345374,0
9.0209806,,node/10886427072,Yetebaberut,38.8536095,0
9.0214852,,node/10886427073,Ayat,38.8750186,0
9.0215577,,node/10886427074,Civil Servis College,38.8350083,0
9.0211711,,node/10886427075,Ayat,38.8737977,0
9.0204163,,node/10886427076,Meshageria,38.8598848,0
9.020619,,node/10886427077,Yetebaberut,38.8535182,0
8.9907378,,node/10886883544,Bole Bora Amusement,38.7941243,0
9.0185543,,node/10886883546,Megenagna,38.8016982,0
9.0078296,,node/10886883547,Anbessa Garage,38.8034449,0
9.0037737,,node/10886883548,Emperial Hotel,38.8009392,0
8.9950343,,node/10886883549,Hayat Hospital,38.7961015,0
8.9916604,,node/10886883550,Bole Bora Amusement,38.7949793,0
9.0220177,,node/10886991025,Sun shine,38.853022,0
9.0200202,,node/10886991026,Megenagna,38.8042842,0
9.021578,,node/10886991027,Meshualekia,38.841553,0
9.0110042,,node/10886991028,Safari,38.8522797,0
9.004015,,node/10886991029,Summit,38.8519977,0
9.004282,,node/10886991031,Summit,38.8517386,0
9.010941,,node/10886991032,Safari,38.8519018,0
9.0199154,,node/10886991033,Sun shine,38.8520834,0
9.021324,,node/10886991034,Meshualekia,38.8415391,0
9.021353,,node/10886991035,Michael,38.8392942,0
9.0187135,,node/10886991036,Gurd Shola,38.8211275,0
8.9948468,,node/10887120325,Hayat Hospital,38.7956759,0
9.0001969,,node/10887120326,Sport Accadamy,38.798384,0
9.0027661,,node/10887120327,Emperial Hotel,38.8000262,0
9.0187177,,node/10887120328,Mulugeta Building,38.8016319,0
8.9603848,,node/10890083966,93 Mazoria,38.7855121,0
8.9623057,,node/10890083967,Kaldisco,38.7863684,0
8.9642046,,node/10890083968,Key Afer,38.7872114,0
8.9901774,,node/10890083969,Bole Bridge,38.7938035,0
9.0169433,,node/10890083974,Mulugeta Building,38.8025239,0
8.9642211,,node/10890290096,Key Afer,38.7873203,0
8.9604784,,node/10890290097,93 Mazoria,38.785703,0
8.9581348,,node/10890290098,Kebele,38.7875752,0
9.0080412,,node/10893030388,Anbessa Garage,38.8031745,0
9.0035488,,node/10893030389,Jacros,38.8169267,0
8.9993201,,node/10893030390,Alem Ayew Building,38.8210973,0
8.9923039,,node/10893030392,Goro,38.8283586,0
8.9917123,,node/10893030394,Goro,38.8287738,0
8.9939213,,node/10893030395,Goro School,38.8266397,0
8.9992455,,node/10893030396,Alem Ayew Building,38.8210064,0
9.0035377,,node/10893030397,Jacros,38.8166485,0
8.9999982,,node/10893030398,Sport Accadamy,38.7986195,0
8.9911487,,node/10893030400,Bole Bridge,38.7947324,0
9.0122741,,node/10893316186,Figa,38.8336594,0
9.0110639,,node/10893316189,Mesgid,38.8366122,0
9.0121764,,node/10893316190,Figa,38.8335762,0
8.984658,,node/10898980600,Bole Mickael,38.7731313,0
9.0162838,,node/10898980601,Ambasader,38.7551282,0
9.0069448,,node/10898980602,Dembel,38.7662663,0
9.0123922,,node/10898980603,Stadium,38.7586647,0
9.0192676,,node/10898980604,Metrology,38.7466456,0
9.0217285,,node/10898986005,Tikur Anbesa,38.7476072,0
9.0207753,,node/10898986007,Tikur Anbesa,38.7476005,0
9.0188878,,node/10898986008,Metrology,38.7467207,0
9.0164136,,node/10898986009,Ambasader,38.7553118,0
9.011485,,node/10898986010,Stadium,38.760062,0
9.0038396,,node/10898986011,Dembel,38.7686303,0
8.9979213,,node/10898986012,Bole Printing Press,38.7717243,0
8.9849144,,node/10898986014,Bole Mickael,38.7734946,0
9.0318094,,node/10899009892,Cinema Ras,38.7413697,0
9.0317766,,node/10899009893,Cinema Ras,38.7414723,0
8.992509,,node/10899150564,Rwanda,38.7781683,0
9.0017627,,node/10899150565,Shewa Dabo,38.7693116,0
9.0120704,,node/10899150566,St. Estifanos Church,38.7626611,0
9.0321752,,node/10899150567,Piassa Arada,38.7511048,0
9.0330229,,node/10899150568,Piassa Arada,38.7525581,0
9.0264157,,node/10899150569,Tewodros Square,38.7517894,0
9.0210948,,node/10899150570,Tikur Anbesa,38.7522625,0
9.019064,,node/10899150571,Post Office,38.7529153,0
9.0138467,,node/10899150572,Ghion Hotel,38.7576138,0
8.9885561,,node/10899278324,Bole Bridge,38.7897689,0
8.9908062,,node/10899278325,Friendship Building,38.7840796,0
8.9923825,,node/10899278326,Rwanda,38.7798445,0
8.9908613,,node/10899278327,Friendship Building,38.7844715,0
8.9887169,,node/10899278328,Bole Bridge,38.7898626,0
9.0084115,,node/10899524535,Anbessa Garage,38.8038533,0
9.0049309,,node/10899524536,Condominium - Gerji Mebrat hayle,38.8100683,0
9.0036683,,node/10899524537,Gerji Mebrat hayle,38.814209,0
8.9913434,,node/10899524538,Goro,38.8294024,0
8.900477,,node/10899524539,kilinto Right,38.815561,0
8.8753804,,node/10899524540,Tulu Dimtu,38.8197368,0
8.900461,,node/10899524542,kilinto Right,38.8150743,0
8.9912832,,node/10899524543,Goro,38.8292469,0
9.0035919,,node/10899524544,Gerji Mebrat hayle,38.8134376,0
9.0050654,,node/10899524545,Condominium - Gerji Mebrat hayle,38.8095948,0
9.0071868,,node/10899524547,Anbessa Garage,38.8055809,0
9.011198,,node/10899590290,Mesgid,38.8364067,0
8.994461,,node/10899590291,Saint Georgis,38.8518486,0
8.994389,,node/10899590293,Saint Georgis,38.8515329,0
8.9493529,,node/10899652823,Mebrathile,38.7332958,0
8.9556186,,node/10899652824,Gebriel Bridge,38.7324445,0
8.965384,,node/10899652825,Mickael Bridge,38.7273491,0
8.9727473,,node/10899652826,Zenebewerk,38.7121031,0
8.975714,,node/10899652827,Chaina Camp,38.7055213,0
8.981635,,node/10899652829,Ayer Tena,38.6982059,0
8.9385233,,node/10901428140,Haile Garment,38.7348966,0
8.9201595,,node/10901428141,Sefera,38.7353205,0
8.9311784,,node/10901428142,Sefera Atkilt Tera,38.7337094,0
8.9208099,,node/10901428143,Sefera,38.734667,0
8.8870433,,node/10901522017,Mesalemia,38.7519617,0
8.9032086,,node/10901522018,Chera Medhanilem,38.7484085,0
8.935726,,node/10901522020,Haile Garment,38.7346387,0
8.9034769,,node/10901522021,Chera Medhanilem,38.7491293,0
8.8871115,,node/10901522022,Mesalemia,38.7524365,0
8.9530332,,node/10901643508,Saris,38.7629397,0
8.9431476,,node/10901643510,58 Mazoria,38.7540078,0
8.9405222,,node/10901643511,Kidane Mihret Stebel,38.7500946,0
9.0084289,,node/10902267327,Mexico,38.7447143,0
9.0084377,,node/10902267330,Mexico,38.7448728,0
8.9990666,,node/10902267332,AU (Mikael) Rounrdabout,38.7393711,0
8.9990162,,node/10902267333,AU (Mikael) Rounrdabout,38.7395668,0
8.9923567,,node/10902267334,Sar Bet,38.7381301,0
8.9923453,,node/10902267335,Sar Bet,38.7383324,0
8.9822679,,node/10902267336,Abo Mazoria,38.7342938,0
8.9823292,,node/10902267337,Abo Mazoria,38.7344209,0
8.9729293,,node/10902267338,Mekanisa,38.7311351,0
8.9728812,,node/10902267339,Mekanisa,38.7312498,0
8.9555964,,node/10902267340,Gebriel Bridge,38.732719,0
8.9432326,,node/10903393900,58 Mazoria,38.7539257,0
8.9487486,,node/10903398373,Varnelo Squer,38.7267004,0
8.9594798,,node/10903398374,Jemmo 1,38.7117668,0
8.9585188,,node/10903398375,Jemmo 1,38.712128,0
8.9524535,,node/10903398376,Jemmo Medhanialem,38.7161087,0
8.9525568,,node/10903398377,Jemmo Medhanialem,38.7162235,0
8.9490672,,node/10903398378,Kebele,38.7221583,0
8.9491872,,node/10903398379,Kebele,38.7221797,0
8.9488837,,node/10903398380,Varnelo Squer,38.7267159,0
8.9951163,,node/10904734315,Sar Bet,38.7373285,0
8.9936468,,node/10904734316,Austria Embassy,38.7276618,0
8.9922476,,node/10904734318,Total 3 Kuter Mazoria,38.7177291,0
9.0330017,,node/10905160356,Autobus Tera,38.7322404,0
9.033026,,node/10905160357,Autobus Tera,38.7323851,0
9.0282768,,node/10905160358,Sebategna,38.7329553,0
9.0283274,,node/10905160359,Sebategna,38.7331326,0
9.021201,,node/10905160360,Abenet,38.7333187,0
9.0196344,,node/10905160361,Abenet,38.7335682,0
9.0158211,,node/10905160362,Darmar,38.7346366,0
9.0154497,,node/10905160363,Darmar,38.7347971,0
9.0133778,,node/10905160364,Lideta Condominium,38.7343382,0
9.0133623,,node/10905160365,Lideta Condominium,38.7345056,0
9.0094187,,node/10905160366,Dessie Hotel,38.7337879,0
9.0093029,,node/10905160367,Dessie Hotel,38.7339331,0
9.0046165,,node/10905160368,Lideta,38.7337058,0
9.0041332,,node/10905160369,Lideta,38.7338158,0
9.0001611,,node/10905160370,AU (Mikael) Rounrdabout,38.7393722,0
8.9999889,,node/10905160371,AU (Mikael) Rounrdabout,38.7400667,0
8.9839514,,node/10905641592,Kera,38.7518897,0
8.9606229,,node/10905771998,Jemmo 1,38.7123799,0
8.9688439,,node/10905771999,Jemmo Mickael,38.7216431,0
9.0192423,,node/10905772000,Metrology,38.7468034,0
8.9969985,,node/10905772001,karl Square,38.7304143,0
8.9883364,,node/10905772002,Bisrate Gebrael,38.7227062,0
8.9687533,,node/10905772003,Jemmo Mickael,38.7218663,0
8.9604031,,node/10905772004,Jemmo 1,38.7124299,0
8.9493317,,node/10905866700,Noc,38.6701812,0
8.9339514,,node/10905876026,Alem Gena,38.6639521,0
8.933851,,node/10905876027,Alem Gena,38.6640124,0
8.9493415,,node/10905876029,Noc,38.670031,0
8.9538566,,node/10905876030,Jemmo 3 Squer,38.6965362,0
8.9552123,,node/10905876031,Jemmo 3 Squer,38.697557,0
9.0220649,,node/10905982178,Post Office,38.7520387,0
8.9652918,,node/10905982179,Germen Square,38.732839,0
8.9664306,,node/10905982180,Germen Square,38.7325545,0
8.9717027,,node/10906020778,Gofa,38.7418952,0
8.9716231,,node/10906020779,Gofa,38.7419996,0
8.9816221,,node/10906074341,Ayer Tena,38.6979766,0
8.9644965,,node/10906074342,Germen Square,38.7320917,0
8.9646595,,node/10906074343,Germen Square,38.732112,0
8.9883638,,node/10907679395,Mesked,38.6922765,0
8.9913917,,node/10907679396,Kidane Mihret,38.6893136,0
8.9958978,,node/10907679398,Tropical,38.683541,0
9.0003808,,node/10907679399,Alem Bank,38.677926,0
9.0010321,,node/10907679400,Alem Bank,38.6776565,0
8.9957016,,node/10907679401,Tropical,38.6841485,0
8.9915373,,node/10907679402,Kidane Mihret,38.689491,0
8.9884696,,node/10907679403,Mesked,38.6925125,0
8.9757717,,node/10907679404,Chaina Camp,38.7060819,0
8.9730472,,node/10907725405,Zenebewerk,38.7121867,0
8.9655559,,node/10907725406,Mickael Bridge,38.7275949,0
8.9648278,,node/10907781477,Germen Square,38.7333383,0
8.9844811,,node/10907781478,Kera,38.7500865,0
8.9842955,,node/10907781479,Kera,38.750364,0
8.9770976,,node/10907781480,Gofa Gebriel,38.7490157,0
8.9770919,,node/10907781481,Gofa Gebriel,38.7491174,0
8.9832814,,node/10908143594,Mekanisa Abo,38.7343726,0
8.9830621,,node/10908143595,Mekanisa Abo,38.7341531,0
9.0088673,,node/10908143596,Mexico,38.7440188,0
9.0088181,,node/10908143597,Mexico,38.7438,0
9.0263912,,node/10908191497,Tewodros Square,38.7516402,0
8.9739466,,node/10908191498,Mekanisa,38.7321651,0
8.9738507,,node/10908191499,Mekanisa,38.7322539,0
9.0187971,,node/10908191500,Post Office,38.7524753,0
8.9493572,,node/10908661149,Mebrathile,38.7334477,0
9.0159317,,node/10909186645,Coca Cola,38.729496,0
9.0294352,,node/10909186646,Merab Hotel,38.735361,0
9.0213907,,node/10909186647,Abenet,38.7334955,0
9.0293588,,node/10909186648,Merab Hotel,38.7353749,0
9.016555,,node/10909186649,Kolfe Keranyo,38.7180312,0
9.0203575,,node/10909186650,Holand,38.7159578,0
9.0204824,,node/10909186651,Holand,38.7162551,0
9.017036,,node/10909186652,Kolfe Keranyo,38.7176312,0
9.0171583,,node/10909186653,Kolfe Keranyo,38.7179346,0
9.0122446,,node/10909186654,Torhayloch,38.7202541,0
9.0120497,,node/10909186655,Torhayloch,38.7202419,0
9.0134653,,node/10909186657,Keranio Mewcha,38.7097752,0
9.0133225,,node/10909186658,Keranio Mewcha,38.7097861,0
9.0140592,,node/10909186659,Mewcha,38.7049946,0
9.0139288,,node/10909186660,Mewcha,38.7050058,0
9.0153205,,node/10909186661,Mendida,38.6994498,0
9.0151509,,node/10909186662,Mendida,38.6995858,0
9.0037697,,node/10909186663,Betel,38.6937692,0
9.0036921,,node/10909186664,Betel,38.6937746,0
9.0017481,,node/10909186665,Alem Bank,38.6775777,0
9.0016995,,node/10909186666,Alem Bank,38.677633,0
8.9868549,,node/10911198617,Zenebewerk,38.7080844,0
8.9867824,,node/10911198618,Zenebewerk,38.7081829,0
8.9838366,,node/10911198619,Ayer Tena,38.6961361,0
9.0114518,,node/10911242345,Mexico Shebelle Hotel,38.7446969,0
9.0114526,,node/10911242346,Mexico Shebelle Hotel,38.7445773,0
9.0117415,,node/10911242347,Lideta,38.7336365,0
9.0115482,,node/10911242348,Lideta,38.7336469,0
9.001869,,node/10911242349,Alem Bank,38.6772002,0
9.0018954,,node/10911242350,Alem Bank,38.6769434,0
8.9834957,,node/10911695404,Ayer Tena,38.7007283,0
9.0044227,,node/10911717876,Betel,38.6943792,0
9.0043939,,node/10911717877,Betel,38.6942024,0
8.9831049,,node/10911725505,Ayer Tena,38.6982237,0
8.9879977,,node/10912835918,Zenebewerk,38.7080303,0
8.9880219,,node/10912835920,Zenebewerk,38.7079594,0
9.0295143,,node/10913852032,Mebrat Haile,38.714679,0
9.0294826,,node/10913852033,Mebrat Haile,38.7149385,0
9.0334554,,node/10913852034,18 Mazoria,38.7146172,0
9.0334598,,node/10913852035,18 Mazoria,38.714468,0
9.0196268,,node/10913863174,Abenet,38.7327435,0
9.0194053,,node/10913863175,Abenet,38.7327231,0
9.0159095,,node/10913863176,Coca Cola,38.7296372,0
9.0117875,,node/10913863177,Torhayloch,38.7222401,0
9.0096837,,node/10913863178,Torhayloch,38.7208808,0
9.0056583,,node/10913863179,Augusta Bridge,38.7185634,0
9.0055925,,node/10913863180,Augusta Bridge,38.7188581,0
9.0000925,,node/10913863181,Old Airport,38.7188599,0
8.9998426,,node/10913863182,Old Airport,38.7191188,0
8.9932525,,node/10913863183,3 Kutir Mazoriya (Total),38.7170227,0
8.9926315,,node/10913863184,3 Kutir Mazoriya (Total),38.7158494,0
8.9756363,,node/10913974717,Kara Kore,38.6817486,0
8.9754096,,node/10913974718,Kara Kore,38.6814462,0
8.9813701,,node/10913974719,Gerar,38.6894126,0
8.9813486,,node/10913974720,Gerar,38.6894421,0
8.9829716,,node/10913974721,Ayer Tena,38.6982009,0
9.0116587,,node/10914160973,Mexico,38.746198,0
9.0102476,,node/10914160974,Mexico,38.7438026,0
8.987734,,node/10914160976,Zenebewerk,38.708928,0
8.9849086,,node/10914160977,Zenebewerk,38.7049751,0
8.9853381,,node/10914680945,Zenebewerk Meneharia,38.7053463,0
8.9852574,,node/10914680946,Zenebewerk Meneharia,38.7056363,0
9.0417169,,node/10914784456,Atena Tera,38.71237,0
9.0414427,,node/10914784457,Atena Tera,38.7127192,0
9.028352,,node/10915613002,Tekle Haimanot,38.7426711,0
9.0281855,,node/10915613003,Tekle Haimanot,38.742622,0
9.0658063,,node/10915905485,Asko,38.6937551,0
9.065919,,node/10915905486,Asko,38.6937141,0
9.0612502,,node/10915905487,Chereta,38.7010467,0
9.0612523,,node/10915905488,Chereta,38.7011727,0
9.0575666,,node/10915905489,Gulele Fana,38.7069671,0
9.0576638,,node/10915905490,Gulele Fana,38.7070447,0
9.0572628,,node/10915905491,Awolia,38.7114229,0
9.0576104,,node/10915905492,Awolia,38.7116493,0
9.0555179,,node/10915905493,Winget,38.7124522,0
9.0554488,,node/10915905494,Winget,38.7127252,0
9.018116,,node/10918141989,Kokebe,38.6993091,0
9.0178995,,node/10918141990,Kokebe,38.6991634,0
9.0188526,,node/10918141991,Yeshi Debele,38.6969603,0
9.0185806,,node/10918141992,Yeshi Debele,38.6972043,0
9.0177704,,node/10918141993,Keranio Adebabay,38.7017975,0
9.0176839,,node/10918141994,Keranio Adebabay,38.7006617,0
9.0178222,,node/10918141995,Medhanalem,38.7049143,0
9.0175512,,node/10918141996,Medhanalem,38.7047128,0
9.0115804,,node/10918245686,Torhayloch,38.7208703,0
9.0099639,,node/10918245687,Torhayloch,38.720685,0
9.0114229,,node/10918314820,Torhayloch,38.7225031,0
9.0128836,,node/10918339958,Torhayloch,38.7206095,0
9.0118511,,node/10922141942,Legehar,38.7544283,0
9.0691686,,node/10923884107,Zebera,38.7174162,0
9.0630022,,node/10923884109,Addisu Gebeya,38.7350114,0
9.0625854,,node/10923884110,Addisu Gebeya,38.7352489,0
9.0670589,,node/10923884111,Bera Tera,38.725597,0
9.0689759,,node/10923884112,Zebera,38.7174444,0
9.0594889,,node/10923941250,Addisu Gebeya,38.7374564,0
9.059208,,node/10923941251,Addisu Gebeya,38.7379019,0
9.0528165,,node/10923941252,Semen Mazegaga,38.7431266,0
9.0528691,,node/10923941253,Semen Mazegaga,38.7432318,0
9.0483987,,node/10923941254,Shola,38.7461562,0
9.0484505,,node/10923941255,Shola,38.7462522,0
9.0446634,,node/10923941256,Semen Hotel,38.7483104,0
9.0446029,,node/10923941257,Semen Hotel,38.7485012,0
9.0425995,,node/10923941258,Yohanes,38.745274,0
9.0425158,,node/10923941259,Yohanes,38.7453414,0
9.0346843,,node/10923941260,Eritrea Hotel,38.7394065,0
9.0347991,,node/10923941261,Eritrea Hotel,38.7393526,0
9.0552727,,node/10924087993,Medhanalem,38.7517928,0
9.0552441,,node/10924087994,Medhanalem,38.7518851,0
9.0520868,,node/10924087995,Chelote,38.7497489,0
9.0521299,,node/10924087996,Chelote,38.7496604,0
9.0479898,,node/10924087997,Shola,38.746423,0
9.0480732,,node/10924087998,Shola,38.7465175,0
9.0385287,,node/10924088002,St. George Church,38.7516855,0
9.0385651,,node/10924088003,St. George Church,38.7518109,0
9.0365922,,node/10924088004,Piassa,38.7521881,0
9.0341764,,node/10924116805,Piassa,38.7533491,0
9.0650022,,node/10924116806,Kechenie,38.7492165,0
9.0652677,,node/10924116808,Kechenie,38.7497807,0
9.0639755,,node/10924211089,Shegole,38.7268465,0
9.0640548,,node/10924211090,Shegole,38.7269586,0
9.0590346,,node/10924211093,Rufael,38.7274953,0
9.0590438,,node/10924211094,Rufael,38.7274376,0
9.0544658,,node/10924211095,Tureta Deldy,38.7329754,0
9.054531,,node/10924211096,Tureta Deldy,38.7330307,0
9.0492619,,node/10924211097,Enqulal Fabrica,38.7377403,0
9.0492678,,node/10924211098,Enqulal Fabrica,38.7378298,0
9.0444679,,node/10924212637,Ras Desta,38.7440337,0
9.0444022,,node/10924212638,Ras Desta,38.7439161,0
9.0375917,,node/10924212640,Sebara Babur,38.7483682,0
9.0358617,,node/10924212641,Abune Petros,38.749271,0
9.0359205,,node/10924212642,Abune Petros,38.7494119,0
9.04258,,node/10924212643,Yohanes,38.7458165,0
9.0426863,,node/10924212644,Yohanes,38.7459326,0
9.0230837,,node/10924342466,Shola Abyssinia Bank,38.79823,0
9.0307347,,node/10924342467,British Embassy,38.7854804,0
9.0385889,,node/10924342468,Menelik II Hospital,38.7730468,0
9.0385052,,node/10924342469,Menlik Hospital,38.7728666,0
9.0437871,,node/10924342470,6 Kilo,38.761858,0
9.0453786,,node/10924342471,6 Kilo,38.7613161,0
9.0352542,,node/10924981547,Piassa,38.7527884,0
9.0168504,,node/10924981836,Kazanchis,38.7714084,0
9.0167816,,node/10924981837,Kazanchis,38.7712817,0
9.0199981,,node/10924981839,Meneharya,38.767286,0
9.0462061,,node/10924981840,6 Kilo,38.7614317,0
9.046202,,node/10924981841,6 Kilo,38.7615616,0
9.0430636,,node/10925096455,6 Kilo (Lion Zoo),38.7613028,0
9.0509212,,node/10925096457,Medhanalem,38.7621679,0
9.0609308,,node/10925096458,Shiromeda,38.7616364,0
9.0610296,,node/10925096459,Shiromeda,38.7618074,0
9.0350989,,node/10925161777,Abune Petros,38.7493321,0
9.0353615,,node/10925161778,Abune Petros,38.7492809,0
9.0385895,,node/10925161780,St. George Total,38.7526253,0
9.0338335,,node/10925161781,Raguel Church,38.7411822,0
9.0340374,,node/10925161782,Raguel Church,38.7413278,0
9.0352768,,node/10925161783,Piassa,38.7491307,0
9.0350881,,node/10925161784,Piassa,38.749266,0
9.0115722,,node/10925195639,Mexico,38.7462619,0
9.0572967,,node/10925695034,Winget,38.7130281,0
9.0576478,,node/10925695035,Winget,38.7136024,0
9.0630668,,node/10925835130,Shegole,38.7201372,0
9.0630578,,node/10925835131,Shegole,38.7201639,0
9.051016,,node/10925835153,Medhanalem,38.7226821,0
9.0512021,,node/10925835154,Medhanalem,38.7228048,0
9.047368,,node/10925835155,Pawlos Hospital,38.7275912,0
9.0474739,,node/10925835156,Pawlos Hospital,38.7277025,0
9.0462435,,node/10925835157,Pastor,38.7306013,0
9.0460773,,node/10925835158,Pastor,38.7305979,0
9.041653,,node/10925835159,Michael,38.7324674,0
9.0418749,,node/10925835160,Michael,38.732621,0
9.0356953,,node/10925835161,Autobus Tera,38.731876,0
9.0357033,,node/10925835162,Autobus Tera,38.731937,0
8.9844426,,node/10925946103,Summit Condominiums,38.8548285,0
8.9909634,,node/10925946104,Summit Condominiums,38.8525995,0
9.0206981,,node/10925966505,Meshageria,38.8598883,0
9.0212039,,node/10925966506,Derartu Adebabay,38.8751635,0
9.0215357,,node/10925966507,Derartu Adebabay,38.8751433,0
9.0403679,,node/10925966508,Gebreal,38.8773377,0
9.0402783,,node/10925966509,Gebreal,38.8778174,0
9.0556843,,node/10925966510,Aba Kiros,38.8778648,0
9.0561259,,node/10925966511,Aba Kiros,38.8785325,0
8.9732139,,node/10926028111,Bole Arabsa,38.8903446,0
8.9726305,,node/10926028112,Bole Arabsa,38.8904415,0
8.9932453,,node/10926028113,Maseltegna,38.8850892,0
8.9932023,,node/10926028114,Maseltegna,38.8854551,0
9.0100814,,node/10926028115,Sun shine,38.8780839,0
9.0100956,,node/10926028116,Sun shine,38.8779385,0
9.0215285,,node/10926028117,Ayat,38.8770142,0
8.9875932,,node/10926040103,Mariam,38.8848989,0
8.9875847,,node/10926040104,Mariam,38.8852531,0
9.0212341,,node/10926074605,Ayat,38.8767405,0
8.9910294,,node/10926094674,Summit Condominiums,38.8529201,0
9.0195894,,node/10926094675,Megenagna,38.8033659,0
9.0203394,,node/10926817920,Megenagna,38.8038784,0
9.057063,,node/10926817921,Tafo Square,38.8779123,0
9.0566681,,node/10926817922,Tafo Square,38.8780073,0
9.0021737,,node/10926849848,Sun shine,38.8763861,0
9.0011674,,node/10926849849,Summit Chafe,38.8537813,0
9.0015569,,node/10926849850,Summit Chafe,38.8537842,0
8.9918731,,node/10926849851,Goro,38.8299549,0
8.9917194,,node/10926849852,Goro,38.8303813,0
9.0194791,,node/10926896755,Se'alite Mihret,38.8256621,0
9.0198404,,node/10926896756,Se'alite Mihret,38.8254269,0
9.0109362,,node/10926896757,Ayat Chefe Condominium,38.8944977,0
9.0113892,,node/10926896758,Ayat Chefe Condominium,38.8946434,0
9.0207778,,node/10928177661,Ayat,38.8758009,0
8.9846036,,node/10928876312,Summit Condominiums,38.854445,0
8.9844416,,node/10928876313,Summit Condominiums,38.8548242,0
9.0273248,,node/10929299420,Tewodros Square,38.751565,0
9.0273553,,node/10929299421,Tewodros Square,38.7517149,0
9.0209798,,node/10929299422,Tikur Anbesa,38.7480915,0
9.0105347,,node/10929337801,Mexico,38.7449001,0
9.0119557,,node/10929337802,Stadium,38.7559408,0
9.0121328,,node/10929337803,Stadium,38.7559437,0
9.0195364,,node/10929412718,Megenagna,38.8009614,0
9.0190569,,node/10929412719,Megenagna,38.8005907,0
9.0155693,,node/10929412721,22 Mazoria,38.787267,0
9.0211986,,node/10929694820,Lem Hotel,38.7940688,0
9.0210828,,node/10929694821,Lem Hotel,38.7939939,0
9.0235014,,node/10929694822,Signal,38.7815067,0
9.0233755,,node/10929694823,Signal,38.781471,0
9.0280712,,node/10929694824,Abuare Gebeya,38.7718347,0
9.0279894,,node/10929694825,Abuare Gebeya,38.7718123,0
9.0270034,,node/10929694826,Tewodros Square,38.7520638,0
9.0268625,,node/10929694827,Tewodros Square,38.7520149,0
9.0285216,,node/10929694828,Tekle Haimanot,38.744541,0
9.0284531,,node/10929694829,Tekle Haimanot,38.74454,0
9.020064,,node/10929694830,Megenagna,38.8009431,0
9.0200336,,node/10929694831,Megenagna,38.8005994,0
9.0127448,,node/10929752934,Torhayloch,38.7209032,0
9.0225048,,node/10931788261,Megenagna,38.7998465,0
9.021325,,node/10931788262,Megenagna,38.8010821,0
9.0303308,,node/10931809323,Kotebe,38.8385778,0
9.0284671,,node/10931809324,Se'alite Mihret,38.8331547,0
9.0283689,,node/10931809325,Se'alite Mihret,38.833187,0
9.0216042,,node/10931809326,Lamberet,38.8139293,0
9.0214909,,node/10931809327,Lamberet,38.813953,0
9.0404534,,node/10931809328,Kara,38.8642169,0
9.0404001,,node/10931809329,Kara,38.864319,0
9.0216983,,node/10931809330,Megenagna,38.8015712,0
9.0224128,,node/10931850027,Megenagna,38.799743,0
9.0344299,,node/10931850028,Kokebe Tsebah (Kebena),38.7799581,0
9.036142,,node/10931884718,4 Kilo,38.7628341,0
9.0571169,,node/10931884719,Ferensay,38.7769686,0
9.0570142,,node/10931884720,Ferensay,38.7769596,0
9.0535366,,node/10931884721,Mezan,38.7722195,0
9.0535794,,node/10931884722,Mezan,38.7721316,0
9.0470261,,node/10931884723,Jan Meda,38.7690665,0
9.0471196,,node/10931884724,Jan Meda,38.7690208,0
9.0180915,,node/10931937848,Megenagna,38.8021444,0
8.9633989,,node/10931937849,Kadisco,38.766754,0
9.0347501,,node/10931995346,Kebena,38.776629,0
9.0435664,,node/10932040828,6 Kilo,38.7618099,0
9.0386325,,node/10932040829,St. George Total,38.7526555,0
9.038614,,node/10932040830,St. George Total,38.7527659,0
9.017586,,node/10932115661,Lem Hotel,38.7950974,0
9.0239221,,node/10932115662,Lamberet,38.8198719,0
9.0107374,,node/10932115666,Mexico,38.7471612,0
9.0104411,,node/10932115667,Mexico,38.7467607,0
9.0249902,,node/10933668851,Shola Gebeya,38.796095,0
9.0253078,,node/10933668852,Shola Gebeya,38.7963986,0
9.0290044,,node/10933668868,Beg Tera,38.8021516,0
9.0289126,,node/10933668869,Beg Tera,38.802143,0
9.0315916,,node/10933668870,Zebera,38.8093843,0
9.0314928,,node/10933668871,Zebera,38.8094344,0
9.0355162,,node/10933668873,Kidane Mihret,38.818742,0
9.0355971,,node/10933668874,Kidane Mihret,38.8186176,0
9.0113969,,node/10933970678,St. Urael Church,38.7750759,0
9.0110384,,node/10933970679,St. Urael Church,38.7752362,0
9.004269,,node/10934121405,Atlas,38.7797684,0
9.0041884,,node/10934121406,Atlas,38.779678,0
9.0103387,,node/10934121407,St. Urael Church,38.7748368,0
9.0104642,,node/10934121408,St. Urael Church,38.7749361,0
8.9843274,,node/10934142102,Kera,38.7518505,0
8.9840695,,node/10934142103,Kera,38.7515846,0
9.0324426,,node/10934274056,4 Kilo,38.7632997,0
9.012454,,node/10934274058,St. Estifanos,38.762845,0
9.0109591,,node/10934274059,Buna Ena Shay,38.7482685,0
9.0106827,,node/10934274060,Buna Ena Shay,38.748215,0
9.032283,,node/10936313832,4 Kilo,38.7645933,0
9.0323383,,node/10936313833,4 Kilo,38.7648081,0
9.0289759,,node/10936490562,Sebategna,38.7321818,0
9.028913,,node/10936490563,Sebategna,38.7322093,0
9.0258457,,node/10936490564,Amanuel Total,38.7211312,0
9.0258301,,node/10936490565,Amanuel Total,38.721144,0
9.0576027,,node/10936621813,Winget,38.7131944,0
9.0486146,,node/10936724096,Enqulal Fabrica,38.7375414,0
9.0485559,,node/10936724097,Enqulal Fabrica,38.7377157,0
8.9975486,,node/10937101933,karl Square,38.731079,0
9.0442105,,node/10937167108,6 Kilo,38.7610795,0
9.0442026,,node/10937167109,6 Kilo,38.7614376,0
8.9877236,,node/10937209934,Kera,38.7484685,0
9.0652788,,node/10937271651,Kechenie,38.7497785,0
9.033877,,node/10961301939,Mesalemia,38.7252968,0
9.0339779,,node/10961301940,Mesalemia,38.7255313,0
9.0338527,,node/10961301941,Merkato,38.7312096,0
9.0337645,,node/10961301942,Merkato,38.7312282,0
9.028926,,node/10961408041,Tekle Haimanot,38.7433286,0
9.0264526,,node/10961408042,Abuare Roundabout,38.7757907,0
9.0265186,,node/10961408043,Abuare Roundabout,38.7759091,0
9.0178983,,node/10961408397,Keranio Adebabay,38.7007101,0
9.014972,,node/10961408398,Mendida,38.7004401,0
9.0151204,,node/10961408399,Mendida,38.7004576,0
8.9983425,,node/10963292174,Bole Medhanyalem,38.7860616,0
8.9984526,,node/10963292175,Bole Medhanyalem,38.7862416,0
9.0231558,,node/10963817572,Weybla Mariam,38.688451,0
9.0233344,,node/10963817573,Weybla Mariam,38.6882249,0
9.0159879,,node/10963932669,22 Mazoria,38.7889432,0
8.9884101,,node/10964879159,Bisrate Gebrael,38.7226406,0
9.0333084,,node/10970584167,Luwkanda,38.7086432,0
9.0332835,,node/10970584168,Luwkanda,38.7086485,0
9.0335266,,node/10970584169,18 Mazoria,38.7126753,0
9.0335023,,node/10970584170,18 Mazoria,38.7126794,0
9.0372905,,node/10970584171,Abysinia Coffee,38.7164132,0
9.037294,,node/10970584172,Abysinia Coffee,38.7164416,0
9.0337305,,node/10970748190,18 Mazoria,38.7149465,0
9.0515413,,node/10970748192,4 Menta Adebabay,38.7087797,0
9.0514981,,node/10970748193,4 Menta Adebabay,38.7088057,0
9.0503697,,node/10970748194,Tero Mosque,38.7058937,0
9.0503743,,node/10970748195,Tero Mosque,38.7058901,0
9.0294218,,node/10970823802,Sebategna,38.7327781,0
9.0294686,,node/10970823803,Sebategna,38.732906,0
9.0350955,,node/10970829160,Piassa Arada,38.7492677,0
9.033556,,node/10970912911,Piassa Arada,38.7535518,0
9.0542225,,node/10970912912,Rufael,38.6992026,0
9.0542148,,node/10970912913,Rufael,38.6992201,0
8.9922493,,node/10973319411,Selefia Mosque,38.6737826,0
8.9922388,,node/10973319412,Selefia Mosque,38.6737682,0
9.0343357,,node/10973319413,Piassa Arada,38.7498429,0
9.0343492,,node/10973319414,Piassa Arada,38.749831,0
9.0610285,,node/10973319416,Shiromeda,38.7606274,0
9.0610076,,node/10973319417,Shiromeda,38.760666,0
8.8697296,,node/10973446898,Akaki Gebeya,38.7886493,0
8.8697306,,node/10973446899,Akaki Gebeya,38.7886284,0
8.8769296,,node/10973446900,Meshualekya,38.7864676,0
8.9482942,,node/10973631794,Mebrathayil,38.734517,0
8.9481457,,node/10973631795,Mebrathayil,38.7344951,0
8.9473757,,node/10973631797,Lafto,38.7443373,0
8.8667554,,node/10973672014,Yeshi Total,38.798935,0
9.0206661,,node/10973929780,Megenagna,38.8028464,0
9.0339313,,node/10973929781,Biretabret,38.8234705,0
9.0375694,,node/10973929783,Hanna Mariam,38.8316053,0
9.037593,,node/10973929784,Hanna Mariam,38.8316071,0
9.0374618,,node/10973929786,Kotebe Teachers College,38.8388573,0
9.0390977,,node/10973929787,Kotebe Gebriel,38.8505525,0
9.039072,,node/10973929788,Kotebe Gebriel,38.8505551,0
9.0357328,,node/10973960231,Kotebe,38.8279461,0
9.035744,,node/10973960232,Kotebe,38.8279666,0
9.0343234,,node/10973960233,Kebena,38.7769466,0
9.0637787,,node/10974036529,Yeka Abado,38.8735567,0
9.0638007,,node/10974036530,Yeka Abado,38.8734371,0
8.9948109,,node/10989247669,Taxi Tera,38.8092174,0
8.9888698,,node/10989247670,Bole Bridge,38.7945353,0
9.0048732,,node/10989247671,Summit,38.8517594,0
9.0050343,,node/10989247672,Summit,38.8520615,0
9.0005807,,node/10989247673,Medhanalem,38.838022,0
9.0002413,,node/10989247674,Medhanalem,38.8382224,0
8.9791887,,node/10989306740,Bole Mickael,38.7737291,0
8.979439,,node/10989306742,Bole Mickael,38.7732491,0
8.9647488,,node/10989306744,Riventy,38.798111,0
8.9647649,,node/10989306745,Riventy,38.7981165,0
9.0437261,,node/10989322788,Lomi Meda,38.6991226,0
9.0423415,,node/10989322789,Philiphs,38.7046602,0
9.0423523,,node/10989322790,Philiphs,38.7046599,0
9.0417345,,node/10989322793,Atena Tera,38.7116329,0
9.0417198,,node/10989322794,Atena Tera,38.7116327,0
9.0418861,,node/10989352901,Atena Tera,38.7128543,0
9.0419946,,node/10989352903,Atena Tera,38.7136815,0
9.037404,,node/10989352904,Kolfe,38.7169566,0
9.0373552,,node/10989388405,Kolfe,38.7170428,0
9.0376969,,node/10989388406,Chid Tera,38.7213864,0
9.0375624,,node/10989388407,Chid Tera,38.7215618,0
9.0339795,,node/10989495135,Tourist Hotel,38.760933,0
9.0331899,,node/10989495136,Tourist Hotel,38.7627083,0
9.0365466,,node/10989495137,St. George Church,38.7522109,0
9.0365649,,node/10989495138,St. George Church,38.7524292,0
9.0280891,,node/10989606497,Amanuel Church,38.723026,0
9.0280827,,node/10989606498,Amanuel Church,38.7230514,0
9.0330957,,node/10989606501,Mesalemia,38.7246409,0
9.0330994,,node/10989606502,Mesalemia,38.7246228,0
9.0170151,,node/10989606503,Coca Cola,38.729182,0
9.0169029,,node/10989606504,Coca Cola,38.7293902,0
9.0216869,,node/10989700748,Tikur Anbesa,38.7477611,0
9.0214822,,node/10989700750,Tikur Anbesa,38.7476433,0
9.0198621,,node/10989765272,Megenagna,38.8028176,0
9.0331305,,node/10991706244,Tourist Hotel,38.7619614,0
9.018399,,node/10991706246,Ambasader,38.7538719,0
9.0182782,,node/10991706247,Ambasader,38.7539744,0
9.0515112,,node/10991763449,Manen,38.7588533,0
9.0515112,,node/10991763450,Manen,38.7588598,0
8.883961,,node/10992050085,Selam Building,38.776766,0
8.944348,,node/10992073740,Saris Abo,38.7693473,0
8.883111,,node/10992247910,Selam Building,38.7772664,0
8.8801893,,node/10992247911,Gelan Condominium,38.768463,0
8.8801651,,node/10992247913,Gelan Condominium,38.7684764,0
8.8738823,,node/10994789635,Breta bret,38.7887302,0
8.867782,,node/10994942333,Akaki CBE,38.7888076,0
8.8679415,,node/10994942334,Akaki CBE,38.7887141,0
9.0098456,,node/10995013009,Mexico,38.7462885,0
8.9470636,,node/10995013010,Lafto,38.7443751,0
8.9537702,,node/10995013013,Lafto (Mickael),38.7504178,0
9.0051854,,node/10995113524,Woyira Sefer,38.7070388,0
9.0050595,,node/10995113525,Woyira Sefer,38.7068721,0
8.9932233,,node/10996939227,Total 3 Kutir mazoria,38.7170312,0
8.9671943,,node/10997112356,Mebrat,38.7486669,0
8.9671522,,node/10997112357,Mebrat,38.7487468,0
8.9621911,,node/10997112358,Biharetsege,38.7515775,0
8.9622089,,node/10997112359,Biharetsege,38.7515885,0
8.9576758,,node/10997112361,Adey Abeba,38.7631284,0
8.9576954,,node/10997112362,Adey Abeba,38.7631332,0
8.9758799,,node/10997112364,Gofa Gebriel,38.7488713,0
8.9758721,,node/10997112365,Gofa Gebriel,38.7489751,0
9.0196301,,node/10997125769,Abenet,38.7332825,0
8.963665,,node/10997242295,Weleta,38.6708623,0
8.9636677,,node/10997242296,Weleta,38.6708779,0
8.9666342,,node/10997242298,Weleta Tele,38.6731812,0
8.9764681,,node/10997242299,Repi Highschool,38.6774372,0
8.9765185,,node/10997242300,Repi Highschool,38.6774017,0
9.0576594,,node/10997243557,Sara Ampol,38.8741609,0
9.0575648,,node/10997243558,Sara Ampol,38.874351,0
9.0480764,,node/10997243559,Kara Condominium,38.8693718,0
9.0480356,,node/10997243560,Kara Condominium,38.8695015,0
9.0107982,,node/10997360870,Torhayloch,38.7207531,0
9.0114511,,node/10997382833,Mexico,38.7447026,0
9.0114533,,node/10997382834,Mexico,38.7445835,0
9.01285,,node/10997495133,Mexico,38.7440492,0
9.01282,,node/10997495134,Mexico,38.74405,0
9.0163639,,node/10997495135,Darmar,38.7345884,0
9.0329801,,node/10998041498,Piassa Arada,38.7545702,0
9.0334582,,node/10998041499,Piassa Arada,38.7537202,0
9.025295,,node/10998041503,Shola,38.7949306,0
9.0251357,,node/10998041504,Shola,38.7947575,0
8.8954024,,node/11033818190,Kality Meneharia,38.7722516,0
8.9361073,,node/11033818192,Kality Maseltegna,38.7642175,0
8.9994656,,node/11033818193,AU (Mikael) Rounrdabout,38.7406449,0
9.0089885,,node/11033818195,Mexico,38.7438741,0
9.0089241,,node/11033818196,Mexico,38.7440373,0
8.9945922,,node/11033818197,Bulgaria Mazoria,38.7474194,0
9.0316048,,node/11033818199,Autobis Tera,38.7373077,0
9.0299591,,node/11033818200,Autobis Tera,38.7377146,0
8.9864921,,node/11033903482,Kera,38.7483364,0
8.9450004,,node/11034015157,Saris Abo,38.7661144,0
9.0331054,,node/11034015158,Piassa Arada,38.7522899,0
9.0321742,,node/11034015159,Piassa Arada,38.7511155,0
9.03055,,node/11034031010,Autobis Tera,38.7370369,0
9.0626384,,node/11034031011,Shero Meda,38.7612633,0
9.0583756,,node/11034031012,Tsehay Chora (ShiroMeda),38.7598757,0
9.0351037,,node/11034031013,Abune Petros,38.7493262,0
9.0777204,,node/11034054993,Kuskoam,38.7572407,0
9.0321373,,node/11034209866,Arat Kilo,38.7654122,0
8.9753965,,node/11034280233,Kara Kore,38.6806691,0
8.9825611,,node/11034280234,Ayer Tena,38.6960927,0
8.9753861,,node/11034280236,Kara Kore,38.6805349,0
9.0426561,,node/11034427397,Lion Zoo (PEPSI Kiosk),38.7614325,0
9.0571131,,node/11034427398,Abo Mazoriya,38.777181,0
9.0608545,,node/11034427399,Yeha,38.7835816,0
9.0622785,,node/11034427400,Gurara,38.7880233,0
9.0624066,,node/11034427401,Gurara,38.7888027,0
8.9535755,,node/11034511605,Saris,38.7634093,0
8.9535945,,node/11034511606,Saris,38.7636248,0
9.0296904,,node/11034611751,Autobis Tera,38.7371486,0
9.0221498,,node/11034647605,Megenagna,38.8004821,0
9.0115667,,node/11035234709,Torhailoch,38.7220211,0
9.0376857,,node/11035240260,Chid Tera,38.7214866,0
8.9837379,,node/11035502832,Ayer Tena,38.6971291,0
8.9836981,,node/11035502833,Ayer Tena,38.7015659,0
8.9914198,,node/11035532608,Bisrate Gebrael,38.7255627,0
9.0191017,,node/11035607129,Zenebewerk Hotel,38.7682089,0
9.0107497,,node/11035607130,Estifanos,38.7636411,0
9.0109263,,node/11035607131,Lideta Condominium,38.7386025,0
8.9882771,,node/11035662205,Zenebework,38.7080773,0
9.0165403,,node/11035734852,Darmar,38.7377271,0
8.9270084,,node/11035734855,Hana Maryam,38.7418753,0
9.058672,,node/11035818337,Bercheko Condominium,38.700756,0
8.9231915,,node/11035914858,Alem Gena,38.6529741,0
8.9494175,,node/11035914859,Noc,38.6701962,0
8.9490541,,node/11035914860,Noc,38.6699835,0
8.9665643,,node/11035914861,Welete Tele,38.6732105,0
8.9635929,,node/11035914862,Welete,38.6708945,0
8.9641803,,node/11035914863,Weleta,38.6707668,0
8.9666144,,node/11035914864,Weleta Tele,38.6731872,0
8.9834038,,node/11035914865,Ayer Tena,38.6967597,0
