location_type,stop_id,stop_name,stop_lat,parent_station,stop_lon
0,way/604046026,C.M.C,9.0210263001,,38.8504558
0,way/604046027,C.M.C,9.0209365501,,38.85044875
0,way/604046028,Meri,9.0206309001,,38.86039005
0,way/604046029,Meri,9.0205342501,,38.86039745
0,way/604046052,Ayat,9.0212283001,,38.8717948
0,way/604046053,Ayat,9.0211369001,,38.87179745
0,way/758915882,St. Michael,9.0213594001,,38.8426211
0,way/758915883,St. Michael,9.0214511001,,38.8426345
0,way/758919087,Management Institute,9.0208269001,,38.8284090499
0,way/758919088,Management Institute,9.0209051001,,38.8283603999
0,way/758919089,Civil Service College,9.0216842501,,38.83479945
0,way/758919090,Civil Service College,9.0217686501,,38.83479775
0,way/758922739,Bambis,9.0104366001,,38.76879995
0,way/758922740,Bambis,9.0103406001,,38.76877485
0,way/758922741,St. Urael,9.01099095,,38.77470515
0,way/758922742,Hayahulet 2,9.0148321501,,38.7832101499
0,way/758922743,Hayahulet 2,9.0149132501,,38.7832128499
0,way/758922744,ሃያ ሁለት 1,9.0161997001,,38.7893457
0,way/758922745,ሃያ ሁለት 1,9.0162805001,,38.7893058
0,way/758922746,Lem Hotel,9.0178812001,,38.7959009999
0,way/758922747,Lem Hotel,9.0179702501,,38.7958714999
0,way/758922751,Megenagna,9.0196319001,,38.8026662
0,way/758922752,Gurd Sholla 2,9.0201812501,,38.81016615
0,way/758922753,Gurd Sholla 2,9.0202704501,,38.8101826
0,way/758922754,Gurd Sholla 1,9.0190550501,,38.8199118
0,way/758922755,Gurd Sholla 1,9.0191373501,,38.8199363
0,way/758926923,Tor Hailoch,9.0114466001,,38.7228792001
0,way/758926924,Tor Hailoch,9.0113509001,,38.7228400001
0,way/758926925,Cocacola,9.0120903001,,38.72925215
0,way/758926926,Cocacola,9.0120082001,,38.72924475
0,way/758926927,St. Lideta,9.0113260501,,38.7358812
0,way/758926928,St. Lideta,9.0114191001,,38.735902
0,way/758926929,Tegbared,9.0104883001,,38.74251165
0,way/758926930,Tegbared,9.0105720501,,38.74252605
0,way/758926931,Mexico,9.0110042001,,38.7486780499
0,way/758926932,Mexico,9.0111035001,,38.7486304499
0,way/758926933,Leghar,9.0118976001,,38.75364485
0,way/758926934,Leghar,9.0118055501,,38.7536616
0,way/758926935,Stadium,9.0119426001,,38.75765945
0,way/758926936,Stadium,9.0120396501,,38.75768125
0,way/758926937,St. Estifanos,9.0109756501,,38.7633918
0,way/758926938,St. Estifanos,9.0110528501,,38.7634133
0,way/759354435,Gojam Berenda,9.0341520001,,38.7383589
0,way/759354436,Gojam Berenda,9.0342421001,,38.73838775
0,way/759354437,Atikilt Tera,9.0345698501,,38.7469346
0,way/759354438,Atikilt Tera,9.0346634001,,38.7469217
0,way/759359409,Kality,8.938011,,38.7631070001
0,way/759359410,Kality,8.93795435,,38.7630034001
0,way/759359411,Abo Junction,8.94501825,,38.7663008501
0,way/759359412,Abo Junction,8.9449765,,38.7662190501
0,way/759359413,Saris,8.9519971333,,38.7634466333
0,way/759359414,Saris,8.9519912333,,38.7633591333
0,way/759359415,Adey Abeba,8.9567954,,38.76388145
0,way/759359416,Adey Abeba,8.9568021,,38.76379965
0,way/759359417,Lancha,8.9903485,,38.75926535
0,way/759359418,Lancha,8.9903366,,38.75916345
0,way/759359419,Temenja Yazh,8.9952452,,38.7598284334
0,way/759359420,Temenja Yazh,8.9952399,,38.7597271667
0,way/759359421,Riche,9.0005732,,38.7587088
0,way/759359422,Riche,9.00058575,,38.7586096
0,way/759359423,Meshwalekya,9.00485825,,38.7588805
0,way/759359424,Meshwalekya,9.00486215,,38.7587524
0,way/759359425,Darmar,9.0154149,,38.73475
0,way/759359426,Darmar,9.01542485,,38.73466315
0,way/759359427,Abnet,9.0212786,,38.73335125
0,way/759359428,Abnet,9.0212687,,38.73341865
0,way/759359429,Sebategna,9.0283819,,38.73298775
0,way/759359430,Sebategna,9.0284011,,38.7330763
0,way/759359431,Autobus Tera,9.0340910501,,38.7329878
0,way/759359432,Autobus Tera,9.0340079501,,38.7329908
0,way/759365358,Nifas Silk 2,8.9731988,,38.7607979501
0,way/759365359,Nifas Silk 2,8.97316965,,38.7606849501
0,way/759365360,Nifas Silk 1,8.9657149,,38.7629963
0,way/759365361,Nifas Silk 1,8.96571355,,38.7628904
0,node/847244293,Beherawi Theatre,9.0165395,,38.7525538
0,node/847244423,Black Lion,9.0209237,,38.7521415
0,node/4832025024,4 Kilo,9.0344007,,38.7632408
0,node/4884374622,Lamberet Terminal (Bus),9.0223057,,38.8158571
0,node/5248250425,Sar Bet (Roundabout),8.9929728,,38.738182
0,node/5330678521,Ambassador,9.0164409,,38.7553162
0,node/5736089088,Stadium,9.0120276,,38.7570321
0,node/6251054285,Mebrathail,9.0295451,,38.7146778
0,node/6307600909,Asko,9.0654733,,38.6928185
0,node/6373574986,Bole Printing Press,8.9976331,,38.7718334
0,node/6728583386,Arada,9.0331479,,38.7516761
0,node/6798927886,Kebede Wessene Rd.,8.9986049,,38.8053365
0,node/6814022390,Mexico,9.0094665,,38.7444332
0,node/6967142984,Mebrat Condominium,8.9644773,,38.7438796
0,node/6967165728,Mebrat,8.9673396,,38.7486643
0,node/6967179322,Gofa Gebriel,8.9771232,,38.7491221
0,node/6967179323,Kera (Gofa Road),8.9825519,,38.7498599
0,node/6967225474,Tewodros Square,9.0277111,,38.7516602
0,node/6967234177,German Square,8.9655968,,38.732897
0,node/6967281153,Friendship Building,8.9899905,,38.7859995
0,node/6967281241,Piassa (Downtown Cafe),9.0319356,,38.7512565
0,node/6967281242,Piassa Arada (2),9.0330123,,38.7526242
0,node/6967318740,Gojo,9.0418236,,38.6217166
0,node/7022361366,Megenagna Terminal,9.0203188,,38.8026673
0,node/7022397409,Bole Millenium,8.9885373,,38.7897496
0,node/7022397410,Bole Millenium,8.9887535,,38.789886
0,node/7022397411,Goro School,8.9937973,,38.8267584
0,node/7022397413,Summit Condominiums,8.9842709,,38.8569749
0,node/7022397414,Summit Condominiums,8.9842404,,38.8570885
0,node/7022397416,Bole Arabsa,8.9720161,,38.8906061
0,node/7022397417,Bole Arabsa,8.9732168,,38.8903477
0,node/7022397418,Aba Kiros Roundabout,9.0561234,,38.8785328
0,node/7022397420,Yeka Abado,9.0689298,,38.875565
0,node/7022397421,Yeka Abado,9.0688377,,38.8756232
0,node/7037142410,Gurara,9.0626023,,38.7893816
0,node/7037142414,Abuare Roundabout,9.026427,,38.7757967
0,node/7037142415,Abuare Roundabout,9.026504,,38.7759255
0,node/7037142417,Marathon Motor (Megenagna),9.0224201,,38.8000289
0,node/7037142419,Yeha,9.060739,,38.7836264
0,node/7037142420,Tena Tabya,9.0608445,,38.7839285
0,node/7037142421,Biret Dildiy (Bono Wuha),9.0598571,,38.7811505
0,node/7037142422,Bret Dildy (Bono Wuha),9.0599927,,38.7810894
0,node/7037142423,Atlas,9.0042786,,38.7797667
0,node/7037142424,Bole Medhanialem,8.9983386,,38.7860596
0,node/7037142426,Bole Medhanialem,8.9984556,,38.7862428
0,node/7037142427,24,9.0098865,,38.800549
0,node/7037142428,Dinberwa Hospital,9.0221273,,38.7866932
0,node/7037142430,Kokebe Tsebah School,9.0345238,,38.7802113
0,node/7037142431,Kokebe Tsebah School,9.034441,,38.7799476
0,node/7037142433,Belgium Embassy,9.031876,,38.7839469
0,node/7037142434,British Embassy,9.0311083,,38.784892
0,node/7037142435,British Embassy,9.0309087,,38.7855544
0,node/7037142436,Abebe Sook,9.0287538,,38.7887162
0,node/7037142438,Shola Gebeya,9.0250779,,38.7952986
0,node/7037142439,Yeka Michael,9.0244101,,38.7961373
0,node/7037142441,Megenagna,9.0180934,,38.8021491
0,node/7037142442,Megenagna,9.0182711,,38.8017521
0,node/7037142443,Derartu,8.8869301,,38.7818835
0,node/7037142444,Gelan Condominium,8.8857405,,38.7838224
0,node/7037142445,08 Adarash,8.8844269,,38.785591
0,node/7037142446,Meshuwalekia Akaki,8.8767985,,38.7865253
0,node/7037142448,Akaki Beretaberet,8.8738843,,38.7887478
0,node/7037142450,G7 (Tulu Dimtu),8.870907,,38.8207065
0,node/7037142454,Tulu Dimtu Unisa,8.8552763,,38.8042339
0,node/7037142455,Tulu Dimtu,8.8556159,,38.8041524
0,node/7037142456,Akaki Korkoro,8.8597556,,38.7961539
0,node/7037142459,Tulu Dimtu (Taf Gas Station),8.8688691,,38.8051915
0,node/7037142460,Arsema,8.8722685,,38.8136608
0,node/7037142461,Selam Sefer (Tapela Gar),8.8722281,,38.8140262
0,node/7037142462,Tulu Dimtu Adebabay,8.8747821,,38.8201689
0,node/7037142464,Project 12 Akababi,8.8658608,,38.8218482
0,node/7037142465,Mahiber Betoch,8.8592154,,38.8148895
0,node/7037142466,Bole Dildiy,8.9869933,,38.7912061
0,node/7037142467,Megenagna / Zefmesh,9.02034,,38.8000136
0,node/7037142469,Megenagna,9.0213214,,38.8010735
0,node/7037142470,Megenagna,9.0217137,,38.8015921
0,node/7037142471,Abysinia Cafe Area,9.0215363,,38.8100422
0,node/7037142472,Abysinia Cafe Area,9.0213396,,38.810853
0,node/7037142474,Century Mall,9.0196778,,38.8132781
0,node/7037142475,Gurd-shola,9.0187352,,38.8215105
0,node/7037142476,Menaheria,9.0239816,,38.8192066
0,node/7037142477,Menaheria,9.0238758,,38.8192354
0,node/7037142479,Gerji Mebrat Haile,9.003632,,38.814876
0,node/7037142483,Gerji Mebrat Haile,9.0037638,,38.8132574
0,node/7037142484,Lamberet,9.0253421,,38.8251916
0,node/7037183485,Lamberet Area,9.0258842,,38.8271787
0,node/7037183486,Lamberet Area,9.0260507,,38.8273076
0,node/7037183487,Lamberet Area,9.0259969,,38.8271189
0,node/7037183490,Yerer Goro,8.9913503,,38.8294063
0,node/7037183491,Yerer Goro,8.9913222,,38.8292171
0,node/7037183492,Se'alite Mihret Church,9.020263,,38.8265756
0,node/7037183493,Management Institute,9.0203852,,38.82686
0,node/7037183494,Sealite Mihret,9.0203048,,38.8273219
0,node/7037183495,Civil Service College,9.0216167,,38.8342032
0,node/7037183496,St. Michael,9.021312,,38.8414217
0,node/7037183497,St. Micheal Church,9.0215489,,38.8425033
0,node/7037183498,Salite Mihret,9.0283709,,38.8331954
0,node/7037183499,Hillside (Ethio-China Mebrathaile),9.0285264,,38.8333256
0,node/7037183501,Wessen Michael,9.030459,,38.838592
0,node/7037183502,Hanna Mariam,9.0375551,,38.8316144
0,node/7037183503,Hanna Mariam,9.0375969,,38.8316246
0,node/7037183504,Wessen,9.0330948,,38.8442968
0,node/7037183505,Wessen,9.033228,,38.8445812
0,node/7037183507,Wessen (Mariam),9.0330982,,38.8446898
0,node/7037183508,Kotebe Teachers College,9.0342084,,38.8466963
0,node/7037183509,Yabem Hotel,9.0357649,,38.8533863
0,node/7037183510,Kotebe Gebriel,9.036101,,38.8545188
0,node/7037183513,Yetebaberut,9.0201901,,38.8526027
0,node/7037183515,Yetebaberut,9.0207031,,38.8539074
0,node/7037183516,Meri,9.0207092,,38.8603565
0,node/7037183518,Meri (Yetebaberut),9.0205124,,38.8610727
0,node/7037183519,Ayat,9.0208331,,38.8686047
0,node/7037183520,Ayat Zone 2,9.0210633,,38.8678248
0,node/7037183521,Kara (Turn),9.0379427,,38.8606002
0,node/7037183523,Medhanalem Church,9.0401552,,38.8640163
0,node/7037183525,Safari,9.0106828,,38.852259
0,node/7037183527,Summit (MOHA),9.0043876,,38.8520658
0,node/7037183528,Saint Georgis,8.9955228,,38.8513132
0,node/7037183529,Tena Tabeya,8.9941038,,38.860685
0,node/7037183532,Gate 2,8.9894728,,38.8582866
0,node/7037183533,Summit Condominiums,8.9846055,,38.8544474
0,node/7037183535,Ayat Train Station,9.0213287,,38.8719812
0,node/7037183536,CMC,9.0211208,,38.872594
0,node/7037183537,Ayat Square,9.0212396,,38.8767684
0,node/7037183538,Feres Bet,9.0216916,,38.8862575
0,node/7037183539,Police Tabia,9.0170704,,38.8946069
0,node/7037183540,Tsebel,9.0222555,,38.891209
0,node/7037183541,Bono Meskid,9.0219034,,38.8902931
0,node/7037183542,Ayat Chefe Condominium,9.0113906,,38.8946677
0,node/7037183543,Ayat Chefe Condominium,9.0109368,,38.8944878
0,node/7037183545,Nebu Mikael,9.0023517,,38.8767662
0,node/7037183546,Ayat Adebabay Hulet (2),8.9965746,,38.8851706
0,node/7037183547,Bole Arabsa (3),8.9963324,,38.8855436
0,node/7037183548,Bole Arabsa (2),8.9841602,,38.8851362
0,node/7037183550,Bole Arabsa,8.9733148,,38.8902717
0,node/7037183552,Yeka Condominium 1,9.0354891,,38.877919
0,node/7037183554,Tafo Gebrael,9.0381306,,38.8777819
0,node/7037183555,Tafo Condominium 1,9.0505157,,38.8779667
0,node/7037183557,Tafo Mebrathail,9.0425957,,38.8773973
0,node/7037183558,Tafo Mebrathail,9.0427743,,38.877866
0,node/7037183559,Tafo Condominium 2,9.0465834,,38.8779122
0,node/7037183562,Kara Condominium,9.0501511,,38.8705589
0,node/7037183563,Yeka Abado,9.0666282,,38.8647703
0,node/7037183565,Sara Ampol (Gedera),9.0571811,,38.8737753
0,node/7037183567,Sara Ampol,9.0580264,,38.8742538
0,node/7037183569,Aba Kiros,9.0606875,,38.8812971
0,node/7037183570,Makefafeya,9.0630654,,38.8841651
0,node/7037183571,Gari Tera,9.0670494,,38.8892044
0,node/7037183572,CCD,9.0707009,,38.8938058
0,node/7037183573,140,9.0718221,,38.8952147
0,node/7037183574,Legedadi Mission,9.0818058,,38.9074861
0,node/7037183575,Legedadi Mission,9.0821737,,38.90832
0,node/7041052894,Selam Building,8.8832831,,38.7771574
0,node/7041052895,Gojo Hotel,8.8910809,,38.7768265
0,node/7041052896,Kality Meneharia,8.8958584,,38.7717989
0,node/7041052897,Cheralia Factory,8.9029458,,38.7668359
0,node/7041052898,Cheralia Factory,8.9029223,,38.7667452
0,node/7041052900,Kality Gebriel,8.9113422,,38.7638335
0,node/7041052901,Kality Prison,8.912466,,38.7633399
0,node/7041052912,Hana Maryam,8.928137,,38.7416641
0,node/7041052914,Tabelew,8.9274906,,38.6590102
0,node/7041052915,Ubedi Academy,8.9244259,,38.6548173
0,node/7041052916,Alem Gena,8.9230001,,38.6526472
0,node/7041052917,Alem Gena,8.9229882,,38.652656
0,node/7041052918,Mama,8.9213858,,38.6465912
0,node/7041052927,Mekanisa (Old Revenues Office),8.9683942,,38.73129
0,node/7041052928,German Square,8.9656974,,38.7327236
0,node/7041052932,Gebriel Bridge,8.9556239,,38.7324437
0,node/7041052934,Gebriel Bridge,8.955596,,38.7327233
0,node/7041052935,Mebrathile (EEPCo),8.9469471,,38.7339608
0,node/7041052936,Mekanisa School,8.9790248,,38.7341955
0,node/7041052937,Abo,8.9785916,,38.7339384
0,node/7041052938,Sheged Hotel,8.973373,,38.7246092
0,node/7041052939,Jemo Michael,8.9673959,,38.720836
0,node/7041052940,Jemo Michael,8.966996,,38.7209392
0,node/7041052942,Jemo YBP (All Mart),8.9614893,,38.7152564
0,node/7041052944,Jemmo 1,8.9606358,,38.7123763
0,node/7041052945,Jemmo 1,8.9604074,,38.7124284
0,node/7041052946,Mestawet Fabrica,8.9595125,,38.7084697
0,node/7041052948,Mestawet Fabrica,8.958513,,38.7059934
0,node/7041052949,Jemo 3,8.9564,,38.6992718
0,node/7041052950,Jemmo 3,8.9556244,,38.6985348
0,node/7041052951,Zenebework,8.9866742,,38.7077567
0,node/7041052952,Welete Maryam,8.9611777,,38.6713097
0,node/7041052953,Mickael Bridge,8.9657858,,38.7272059
0,node/7041052954,Gerar,8.9813447,,38.689429
0,node/7041052955,Repi (Gerar),8.9794179,,38.6851955
0,node/7041052957,Gebre Kirstos,8.9773403,,38.7220154
0,node/7041052958,Bisrate Gebrael,8.9884304,,38.7228933
0,node/7041052959,Gofa Gebriel (2),8.9753751,,38.7488548
0,node/7041052960,Gofa Gebriel,8.9771139,,38.7490217
0,node/7041052963,Bole Mickael,8.9816131,,38.7772221
0,node/7041052965,MOHA (Pepsi Factory),8.9822682,,38.7560783
0,node/7041052969,Gotera (Oilibiya),8.9762662,,38.7600125
0,node/7041052970,Gotera (Oilibiya),8.976182,,38.7598239
0,node/7041052975,St. Joseph Church,8.9697308,,38.7620577
0,node/7041052977,kadisco Building,8.9659447,,38.7627885
0,node/7041052978,kadisco Building,8.965927,,38.762999
0,node/7041052979,Kadisco,8.9637596,,38.7630788
0,node/7041052980,Adey Abeba,8.9583017,,38.7640609
0,node/7041052982,Adey Abeba,8.9582595,,38.7638459
0,node/7041071286,Saris (CBE),8.9528662,,38.7635583
0,node/7041071287,Saris (CBE/Shoa Bakery),8.9527596,,38.7633266
0,node/7041071289,Abo Junction,8.9450003,,38.7661044
0,node/7041071290,Abo Junction,8.9450733,,38.7663069
0,node/7041071291,Customs (Train Station),8.9380959,,38.763132
0,node/7041071295,Kality Maseltegna,8.9323275,,38.766627
0,node/7041071296,Wehalemat,8.9298173,,38.7681692
0,node/7041071342,Bulgaria Mazoria,8.9950292,,38.7478244
0,node/7041071344,Begtera,8.9971703,,38.7475059
0,node/7041071347,AU (Mikael) Rounrdabout,8.9990638,,38.7394459
0,node/7041071348,AU (Mikael) Rounrdabout,8.9990569,,38.7395945
0,node/7041071350,Bulgaria,8.9937942,,38.7478465
0,node/7041071352,Global Hotel,8.9941475,,38.7595772
0,node/7041071353,Global Hotel,8.9941836,,38.7598183
0,node/7041071354,Beklo Bet (Global),8.9953383,,38.7596352
0,node/7041071355,Tele Garage,9.000141,,38.7584812
0,node/7041071356,Riche,9.0043253,,38.7586986
0,node/7041071359,6th (Raddison Blu),9.0166957,,38.7669535
0,node/7041071360,Filweha (Hotsprings),9.017718,,38.7572645
0,node/7041071362,Filweha (Hotsprings),9.0175554,,38.7570579
0,node/7041071363,Ghion Hotel (Enterance),9.0137609,,38.7574492
0,node/7041071364,Ghion Hotel (Enterance),9.0138328,,38.7576145
0,node/7041071367,St. Joseph School,9.0098008,,38.7591876
0,node/7041071370,St. Joseph School,9.0104995,,38.7592761
0,node/7041071371,Admas University College,9.0105316,,38.7590434
0,node/7041071372,Lalibela Hotel,9.0118612,,38.7570112
0,node/7041071374,Stadium,9.0121294,,38.7560438
0,node/7041071376,Legehar,9.011849,,38.7545386
0,node/7041071377,Legehar,9.0117857,,38.7539285
0,node/7041071378,Legehar (Old Train Station),9.0109604,,38.7533069
0,node/7041071380,Mexico,9.0097755,,38.7461963
0,node/7041071382,African Union,9.0031416,,38.7414166
0,node/7041071383,Popolare,9.0053059,,38.7423863
0,node/7041071384,Guenet Hotel,9.0046908,,38.7466748
0,node/7041071385,Guenet Hotel,9.0032786,,38.74694
0,node/7041071388,Abenet,9.0214263,,38.7334947
0,node/7041071389,Lideta Condominium,9.0132791,,38.7345522
0,node/7041071390,Darmar,9.0157856,,38.7348248
0,node/7041071391,Coca Cola,9.0159169,,38.7294714
0,node/7041071392,Austria Embassy,8.9939406,,38.7278809
0,node/7041071393,Mechare Meda,8.9936591,,38.727499
0,node/7041071395,3 Kutir Mazoriya (Total),8.9925902,,38.7152417
0,node/7041071397,Minaye Building,8.995414,,38.7184074
0,node/7041071399,Old Airport (Mobil),8.9998642,,38.7191221
0,node/7041071400,Tor Hailoch,9.0099949,,38.7206897
0,node/7041071401,Keranio Mewcha,9.0133411,,38.7100309
0,node/7041071402,Holand,9.0213057,,38.7159484
0,node/7041071403,Meseret Edget,9.0245409,,38.714954
0,node/7041071404,Teklehaymanot,9.0278226,,38.7440603
0,node/7041071405,Kebele 11,9.0247481,,38.7458014
0,node/7041071406,Tewodros Square,9.0262634,,38.75166
0,node/7041071407,Tewodros Square,9.0263826,,38.7517909
0,node/7041071411,Black Lion,9.0218352,,38.7521859
0,node/7041071414,National Theatre,9.0158768,,38.751592
0,node/7041071415,National Theatre,9.0156938,,38.7513097
0,node/7041071416,A.A. Commercial College,9.0139102,,38.7494881
0,node/7041071418,A.A. Commercial College,9.0138228,,38.7495568
0,node/7041071419,Buna Ena Shay,9.0114261,,38.7490599
0,node/7041071420,Buna Ena Shay,9.0105922,,38.7479733
0,node/7041071423,Mexico Shebelle Hotel,9.0119916,,38.7468862
0,node/7041071425,TVET College (Tegbare'd),9.0105894,,38.7429038
0,node/7041071429,Federal Police (Tegbare'd),9.0103865,,38.7426638
0,node/7041071430,Lideta (Balcha Hospital),9.0109303,,38.738603
0,node/7041071431,Lideta (Balcha Hospital),9.0111161,,38.7385604
0,node/7041071432,Lideta Condominium,9.011233,,38.7377815
0,node/7041071433,Lideta Tsebel,9.0041706,,38.733822
0,node/7041071434,Dessie Hotel,9.0093091,,38.7338119
0,node/7041071435,High Court,9.0108572,,38.7342297
0,node/7041071437,Lideta High Court,9.0115829,,38.733431
0,node/7041071439,Hintsa College,9.0121559,,38.7293132
0,node/7041071441,Coca Cafe,9.0119411,,38.7292339
0,node/7041071444,Mekonenoch (Golf) Club,9.011282,,38.7265458
0,node/7041071446,Tor Hailoch Junction,9.0115616,,38.7220202
0,node/7041071447,Torhailoch,9.0119442,,38.7216866
0,node/7041071448,Tor Hailoch,9.0139112,,38.7206478
0,node/7041071449,Tor Hailoch,9.013939,,38.7209168
0,node/7041071450,Keranio Bridge,9.0194506,,38.7089411
0,node/7041071451,Medhanialem,9.0175679,,38.7049748
0,node/7041071452,Keranio Adebabay,9.0176634,,38.7006446
0,node/7041071453,Kokebe,9.0180779,,38.6994971
0,node/7041071454,Yeshi Debele,9.0195382,,38.6954056
0,node/7041071455,Yeshi Debele,9.0190748,,38.6957701
0,node/7041071456,Mariam,9.0231539,,38.6884518
0,node/7041071458,Anfo Meda,9.021983,,38.6742682
0,node/7041071459,St. Urael Church,9.0110433,,38.7752596
0,node/7041071461,Salcost Apartments (NOC),9.0104908,,38.766397
0,node/7041071462,St. Estifanos Church,9.0118738,,38.7626376
0,node/7041071464,St. Gebriel,9.0199107,,38.7675809
0,node/7041071465,Zenebewerk Hotel,9.0193852,,38.7680315
0,node/7041071466,Meles Zenawi Foundation,9.0206693,,38.7715231
0,node/7041071468,Azmari Bet (Traditional Music Club),9.0194316,,38.770643
0,node/7041071469,Kazanchis (6th),9.0166401,,38.7702335
0,node/7041071471,Hilton Hotel (Apartments),9.0196382,,38.7638714
0,node/7041071473,Women Square,9.0233468,,38.7772342
0,node/7041071474,Women Square,9.0234508,,38.7771738
0,node/7041071475,Aware Bridge,9.0244322,,38.7765755
0,node/7041071479,Arat Kilo,9.0319312,,38.7633615
0,node/7041071480,Arat Kilo,9.0321438,,38.7652099
0,node/7041071481,Bel Air,9.032458,,38.7728461
0,node/7041071482,Addis View Hotel,9.0324918,,38.7730493
0,node/7041071483,Menelik II Hospital,9.0385857,,38.7730556
0,node/7041071484,Menlik Hospital,9.0388201,,38.7719268
0,node/7041071579,Piassa Arada,9.0365871,,38.7522029
0,node/7041071580,Piassa Arada,9.0363947,,38.7524445
0,node/7041071592,Piassa Arada,9.0354239,,38.7523326
0,node/7041071594,Habtegiorgis Bridge,9.0352553,,38.7491242
0,node/7041071595,Kurtu Building,9.0343899,,38.7438917
0,node/7041071596,Kurtu Building,9.0341887,,38.7437548
0,node/7041071597,Pharmacy,9.0343321,,38.7434135
0,node/7041071598,Gojam Berenda,9.0343947,,38.737968
0,node/7041071599,Autobis Tera (3),9.0342308,,38.7337775
0,node/7041071600,Autobus Tera,9.03371,,38.7298446
0,node/7041071601,Darsema Grosery,9.0338533,,38.7294433
0,node/7041071604,Girum Hospital,9.04636,,38.7200106
0,node/7041071605,Woreda 7 TVET,9.0407262,,38.7212396
0,node/7041071606,Sefere Salam,9.0366318,,38.7219216
0,node/7041071607,Kolfe,9.037044,,38.7173824
0,node/7041071608,Abysinia Coffee,9.0373422,,38.7164487
0,node/7041071609,Degu Hotel,9.0338162,,38.7151531
0,node/7041071610,18 Mazoria,9.0335338,,38.7130781
0,node/7041071612,18 Mazoria,9.0335825,,38.7135105
0,node/7041071614,Luwkanda,9.0333303,,38.7093322
0,node/7041071615,Kolfe Secondary School,9.0340139,,38.704541
0,node/7041071616,Realstate,9.0327975,,38.6951186
0,node/7041071619,Police Tabiya,9.034058,,38.6888917
0,node/7041071620,Feli Doro (1),9.0342811,,38.6875252
0,node/7041071622,Feli Doro,9.0353789,,38.6853297
0,node/7041071628,Ras Mekonene Bridge (Seba Dereja),9.0389362,,38.7568178
0,node/7041071629,5 Kilo (History Museum),9.0385989,,38.7625491
0,node/7041071630,5 Kilo University,9.0408311,,38.761951
0,node/7041071633,Lion Zoo (PEPSI Kiosk),9.0427151,,38.7615693
0,node/7041071636,Yekatit 12 Hospital,9.0438891,,38.7603878
0,node/7041071637,Yeatit 12 Hospital,9.0436921,,38.7593176
0,node/7041071638,Red-Cross (St. George Total),9.0386136,,38.7527639
0,node/7041071639,St. George Church (Total),9.0386684,,38.7517494
0,node/7041071640,Semen Hotel,9.0436522,,38.7488778
0,node/7041071641,Semen Hotel,9.0446929,,38.7482928
0,node/7041071642,Kelemwerk,9.0486023,,38.7461719
0,node/7041071643,Kelemwerk,9.0488673,,38.7458026
0,node/7041071645,Tibeb Ediget School,9.0512494,,38.7443439
0,node/7041071646,Semen Mazegaga,9.0523631,,38.7433813
0,node/7041071647,Semen Mazagaja,9.0537306,,38.7424925
0,node/7041071648,Shegole Bank,9.0541015,,38.7200104
0,node/7041071649,Pawlos Hospital,9.0474202,,38.7277601
0,node/7041071650,Finance,9.0514832,,38.7221677
0,node/7041071651,Medhanialem (TOTAL),9.0513651,,38.7220512
0,node/7041071653,Finance,9.0528369,,38.7201878
0,node/7041071654,Finance,9.0531245,,38.7199027
0,node/7041071655,Winget Chaf,9.0544244,,38.7149847
0,node/7041071657,4 Menta Adebabay,9.0520588,,38.7088754
0,node/7041071658,Mikili Land,9.051327,,38.6987792
0,node/7041071659,Winget Adebabay,9.0571703,,38.7137033
0,node/7041071660,Awolia,9.0576087,,38.7116367
0,node/7041071661,Gulele Fana,9.0577975,,38.7067279
0,node/7041071662,Gulele Fana,9.0582376,,38.7065488
0,node/7041071663,Berchiko,9.0593548,,38.7034077
0,node/7041071665,Gebriel (Sansusi),9.0665816,,38.69045
0,node/7041071718,Bono Weha,9.057952,,38.7791204
0,node/7041071719,Mezan,9.053538,,38.7722233
0,node/7041071721,3rd Shaleka,9.0470252,,38.7690705
0,node/7041071723,6 Kilo (University),9.0461753,,38.7615547
0,node/7041071725,Meksaye Hizunan Medhanialem,9.0513004,,38.7622054
0,node/7041071726,Teferi Mekonen,9.052326,,38.7622236
0,node/7041071729,Sebseba Maekel,9.0541533,,38.7625698
0,node/7041071737,Eyesus,9.0649811,,38.7715088
0,node/7041071738,Hamle 19,9.0585516,,38.7680987
0,node/7041071740,Selassie,9.0692162,,38.7607205
0,node/7041071741,Sanba Nekersa-Shiromeda,9.0745256,,38.7590628
0,node/7041071742,Kuskoam,9.0777328,,38.7572536
0,node/7041071749,Dil Ber,9.0710894,,38.7374397
0,node/7041071753,Anbessa Garage (Shegole),9.0638294,,38.7204079
0,node/7041071754,Kebt Beret,9.0691617,,38.7182194
0,node/7041071755,Entoto Kela,9.0843712,,38.7230011
0,node/7041071758,Weserbi Realestate,9.1051152,,38.7095299
0,node/7041071759,Classy Water,9.1095355,,38.7147037
0,node/7041071760,Medret Hotel,9.1100449,,38.7158285
0,node/7041071761,Kburea,9.1176074,,38.7300979
0,node/7041071762,Kenenisa,9.1179357,,38.7304557
0,node/7041071763,Shefunea,9.1273122,,38.7395293
0,node/7041071764,Shefine,9.1277902,,38.7397834
0,node/7041071772,Doro Erbata,9.1339361,,38.7522344
0,node/7041071773,Abo Gabriel,9.1341343,,38.7524529
0,node/7041071774,Tulu Fati,9.1408321,,38.7549356
0,node/7041071775,Ashewa,9.1449015,,38.7538733
0,node/7041071776,Tabya Hotel,9.1560016,,38.7542489
0,node/7047495429,Sar Bet (Roundabout),8.9929589,,38.738359
0,node/7047495432,United Bank (Ashewa Meda),9.0286142,,38.6600221
0,node/7047495433,Sefera,8.9208064,,38.7346499
0,node/7049122264,Lafto,8.9473774,,38.744323
0,node/7049122265,Hana Mariam (2),8.935835,,38.7440895
0,node/7049122266,Haile Garment,8.9387647,,38.7345586
0,node/7049921444,Yekiber Demena Church,9.0304285,,38.8779866
0,node/7049921445,Megenagna Terminal,9.0204726,,38.8024339
0,node/7049921447,Hill Bottom (Recreation),9.0220882,,38.8759579
0,node/7049921448,Zone 8,9.0304125,,38.8775474
0,node/7049921449,Aba Kiros (Tafo) Roundabout,9.0570656,,38.8779122
0,node/7050234123,Tafo Junction,9.0566049,,38.8790275
0,node/7050327664,Megenagna Terminal,9.020626,,38.8021323
0,node/7054842410,6 Kilo,9.0476858,,38.7617178
0,node/7054842414,6 Kilo,9.0476498,,38.7617169
0,node/7055060064,Legehar (Old Train Station),9.0106346,,38.7532161
0,node/7055598734,Kotebe Gebriel,9.0359897,,38.8546711
0,node/7055598736,Ahmed Building,9.0269686,,38.8299268
0,node/7055598738,St. Mary Church,9.0363488,,38.7579049
0,node/7055598739,Piassa Arada,9.0335541,,38.7535483
0,node/7055598742,Piassa Arada,9.0327818,,38.7534018
0,node/7055598743,St. Mary Church,9.0363807,,38.7579442
0,node/7055598744,NOC End,9.0274541,,38.8307544
0,node/7056754511,Kotebe Teachers College,9.0341209,,38.8467717
0,node/7056754514,Meskelegna (Ababdo),9.0630764,,38.8732637
0,node/7056754516,Megenagna,9.020907,,38.8022361
0,node/7057002158,Atlas,9.0041945,,38.779674
0,node/7057002161,Piassa Arada,9.0329242,,38.7528717
0,node/7057002162,Ras Mekonene Bridge (Seba Dereja),9.0389386,,38.7568279
0,node/7057002163,Gibi Gebriel Church,9.0226675,,38.7626361
0,node/7057187392,Brass Clinic (Bole),8.9904207,,38.7929906
0,node/7057187393,Brass Clinic (Bole),8.9903142,,38.7932003
0,node/7062689844,St.Gorgis,9.0379471,,38.7519784
0,node/7062689845,St. George Church (2),9.0358742,,38.751629
0,node/7062689848,Piassa,9.0345896,,38.7549398
0,node/7062689850,Arat Kilo,9.0325203,,38.764362
0,node/7062689851,4 Kilo,9.0344021,,38.7630946
0,node/7062689852,Medhanialem,9.0506154,,38.7621098
0,node/7062689854,Education Bureau (6 Kilo),9.044142,,38.7635923
0,node/7062689855,Jan Meda,9.0471236,,38.7690204
0,node/7062689856,Frensaye Kela,9.0557922,,38.7742742
0,node/7062689857,Frensaye Kela,9.0551762,,38.7736282
0,node/7062689858,Abo Mazoriya,9.0569998,,38.7777387
0,node/7062689859,Gurara,9.0623294,,38.7881845
0,node/7067942461,Mamo (NFSL TVET),8.9730894,,38.7608987
0,node/7067942462,Agona Cinema,8.988213,,38.7595747
0,node/7067942463,Agona Cinema,8.9882665,,38.7597959
0,node/7067942465,Tele Garage,9.0004682,,38.7587377
0,node/7067942466,Meshualekia,9.0057314,,38.7589773
0,node/7067990019,Zerihun Building,9.0145395,,38.7824519
0,node/7067990020,6th (Raddison Blu),9.0166971,,38.7669539
0,node/7070861695,National Palace,9.026432,,38.7621456
0,node/7070861696,SNAP Building,8.9897614,,38.7872174
0,node/7070861697,Friendship,8.9908557,,38.7844888
0,node/7070861698,Heber Restaurant,8.9917592,,38.7822311
0,node/7070861699,RWANDA (Werbek House),8.992295,,38.7791533
0,node/7070861700,Wollo Sefer,8.9946542,,38.7740953
0,node/7070861701,Rwanda,8.9924,,38.7798477
0,node/7070861702,Bole Printing Press,8.9966227,,38.7723732
0,node/7070861703,Bole Printing Press,8.9976714,,38.7715908
0,node/7070861704,Mega Printing Press,8.9993469,,38.7708659
0,node/7070861705,Shewa Dabo,9.001132,,38.7697078
0,node/7070861706,Getu Commercial Center,9.0014126,,38.7697673
0,node/7070861707,Dembel City Center,9.004953,,38.7678519
0,node/7070861710,Flamingo,9.0100482,,38.7634195
0,node/7070861712,Piassa Arada,9.0358386,,38.7528459
0,node/7070861713,Anbessa Garage,9.0074376,,38.8054033
0,node/7070861714,Ayat Roundabout,9.0221276,,38.876525
0,node/7070861716,Gebriel,9.0401288,,38.8777949
0,node/7074233342,Semen Mazegaja | ሰሜን ማዘጋጃ,9.0527134,,38.7433527
0,node/7074233343,Del Ber School,9.0559007,,38.7411604
0,node/7074233344,Adisu Gebeya,9.0592088,,38.7379037
0,node/7074233345,Kelebat,9.061605,,38.7355505
0,node/7074233346,Oilibiya (Dil Ber),9.0679367,,38.7347909
0,node/7074267433,Pastor,9.0463006,,38.7301845
0,node/7074267434,Medhanialem,9.051161,,38.7228618
0,node/7074267435,Winget,9.0554455,,38.7138884
0,node/7074269464,Kela,9.0576131,,38.6101592
0,node/7074269465,Kela,9.0576152,,38.6101611
0,node/7074275407,Semen Hotel,9.0452427,,38.7481339
0,node/7074294627,Kera,8.9866969,,38.7484333
0,node/7074299254,Asko,9.0653014,,38.6922669
0,node/7074324043,Sebategna,9.0286512,,38.733098
0,node/7074324044,Autobis Tera (2),9.0317912,,38.7324012
0,node/7074324045,Autobis Tera,9.0347276,,38.7321005
0,node/7074326525,Mekanisa,8.9733512,,38.7315967
0,node/7074326526,Abo Mazoria,8.9822244,,38.7343058
0,node/7074330387,Gate 2,8.9894962,,38.8580841
0,node/7074330389,Tena Tabeya,8.9942098,,38.8605382
0,node/7074330391,Condminium (Gate),8.9984544,,38.8602323
0,node/7074330392,Gomista,9.0014062,,38.8573283
0,node/7074330394,Summit (MOHA),9.0040839,,38.8517162
0,node/7074330397,Safari,9.0106601,,38.8518265
0,node/7074330400,Alemayehu,8.999474,,38.820944
0,node/7074330401,Alemayehu,9.0005663,,38.8196821
0,node/7074330403,Condominium,9.0050845,,38.8095474
0,node/7074330407,Ethio-china,9.026612,,38.8287819
0,node/7074330409,Kara,9.0403987,,38.8643277
0,node/7074332290,Project 15,8.9654679,,38.8850641
0,node/7074332294,Kela,8.9772657,,38.8845811
0,node/7074347184,Chereta,9.0616842,,38.7010211
0,node/7074353066,Gerar,8.9813585,,38.6894082
0,node/7074374410,Jemo 3,8.9538291,,38.6959643
0,node/7074374411,Furi,8.951847,,38.6921288
0,node/7074387585,Sansusi,9.0714186,,38.6891023
0,node/7074496216,Kersa (2),9.0285405,,38.6722328
0,node/7074496217,Ashewa Meda,9.0326531,,38.6653802
0,node/7074496218,Ashewa Meda,9.0326414,,38.6653823
0,node/7074496219,United Bank (Ashewa Meda),9.0258997,,38.6569665
0,node/7074496221,St. Gebriel,9.027689,,38.6515848
0,node/7074496222,St. Gebriel,9.0276843,,38.6515743
0,node/7074496225,Gojo,9.0417975,,38.6216778
0,node/7074504387,Alem Bank,9.0010346,,38.6776598
0,node/7074504388,Ayer Tena,8.9831093,,38.6982193
0,node/7074504390,Bethel,9.0045877,,38.6944335
0,node/7074504391,Mewcha,9.0139079,,38.7053132
0,node/7074504392,Mendida,9.0149626,,38.7004735
0,node/7074525370,Mebrat Nigist Hotel,8.9700751,,38.7486994
0,node/7074541084,Lideta Kefetega Firdbet,9.0116457,,38.7326808
0,node/7074561389,Sefera Square,8.9249315,,38.7341804
0,node/7074561391,Haile Garment,8.9368661,,38.7363202
0,node/7074561392,Mebrathile (EEPCo),8.9493593,,38.7334502
0,node/7074561393,Hana Mariam,8.9309368,,38.7544146
0,node/7074561394,Hana Mariam (2),8.9361698,,38.7444615
0,node/7074561395,Meskelgna,8.95299,,38.7448233
0,node/7074585943,Piassa Arada,9.0357438,,38.7514315
0,node/7074585944,Arat Kilo,9.0324015,,38.7633143
0,node/7074599697,Beklo Bet (Global),8.9953761,,38.759835
0,node/7074691520,Dembel City Center,9.0055741,,38.7672511
0,node/7074707878,Mexico,9.010735,,38.7471393
0,node/7074707880,ERA Office (Big Mak),9.0127963,,38.7478601
0,node/7074707881,Saint Josphe School,9.0092034,,38.7591385
0,node/7074707883,St. Estifanos Church,9.0124825,,38.7628296
0,node/7074819178,Mamo (NFSL TVET),8.9725713,,38.7607684
0,node/7074841187,Kadisco,8.9310399,,38.7585063
0,node/7074841188,Kality Maseltegna,8.9339802,,38.7643672
0,node/7074921333,Teklehaimanot,9.0291868,,38.7442895
0,node/7074921334,Berbere Tera,9.0266712,,38.7406481
0,node/7075101457,Dildiy Mariam,8.9585362,,38.7498569
0,node/7075101459,Kera (Gofa Stop),8.9837158,,38.7497528
0,node/7075129253,Tor Hailoch,9.009717,,38.7208842
0,node/7075129254,Torhayloch,9.0117428,,38.7207996
0,node/7075129255,Tor Hailoch,9.0117788,,38.7222467
0,node/7076294502,Riche,9.0043941,,38.7588986
0,node/7076294503,Mebrat Condominium,8.9645236,,38.7438551
0,node/7076294504,Kadisco,8.9638868,,38.7633289
0,node/7076294505,Flamingo,9.0089349,,38.7646677
0,node/7076294507,Condminium (Gate),8.9984013,,38.8601035
0,node/7076294508,Sara Ampol (Gedera),9.0571285,,38.8738883
0,node/7076294509,Michael (2),9.0418835,,38.7325725
0,node/7076294510,Shero Meda,9.0622823,,38.7612538
0,node/7076294511,Shero Meda,9.0618175,,38.7613619
0,node/7076294512,Dil Ber,9.0716602,,38.7369836
0,node/7076294515,Shiromeda Selassie,9.0692159,,38.7607132
0,node/7076294516,Shero Meda,9.0618235,,38.7613887
0,node/7076310930,6 Kilo (Akim Genbata),9.0447597,,38.7612093
0,node/7076310931,Shero Meda,9.0626379,,38.7612397
0,node/7077424942,Medhanialem,9.0507372,,38.7619991
0,node/7077601626,Ambassador,9.0163885,,38.7551039
0,node/7077785205,Lamberet,9.0216085,,38.8139111
0,node/7077785206,Kara Condominium,9.0479009,,38.8692642
0,node/7077785207,G-7 (Meskelegna),9.0655587,,38.8676583
0,node/7077785209,Kara Condominium,9.0480304,,38.8695121
0,node/7077863009,Autobis Tera (2),9.031811,,38.7325536
0,node/7077863010,Tropical,8.9960545,,38.6833448
0,node/7077863012,Alem Bank,9.0003767,,38.6779208
0,node/7077863014,Tropical,8.9965876,,38.6830207
0,node/7077863015,Kidane Mihret,8.9923549,,38.6892387
0,node/7077863016,Bethel,9.004479,,38.6941906
0,node/7077863017,Mendida,9.0151128,,38.7004836
0,node/7077863018,Abinet,9.019638,,38.7327417
0,node/7077863019,Sebategna,9.0280905,,38.7329768
0,node/7078164250,Mexico,9.0088714,,38.7440208
0,node/7078164251,Haile Garment,8.9381825,,38.7349155
0,node/7078164254,Mekanisa,8.9729343,,38.7311018
0,node/7078164255,Abo Mazoria,8.9820586,,38.7345326
0,node/7078164256,Mexico,9.0088201,,38.7437936
0,node/7078406225,Autobis Tera (1),9.0330269,,38.7323925
0,node/7078406227,Zenebework,8.9876369,,38.7090191
0,node/7078406228,Ayer Tena,8.9822919,,38.6949214
0,node/7078406231,Kara Kore,8.9755975,,38.6817556
0,node/7078406235,Kara Kore,8.9763865,,38.6823873
0,node/7078406236,Ayer Tena (Gerar-Repi),8.9822452,,38.6939258
0,node/7078406237,Repi (Gerar),8.9795411,,38.6853377
0,node/7078406238,Zenebework (Crossing),8.9852814,,38.7051886
0,node/7078406239,3 Kutir Mazoriya (Total),8.992776,,38.715946
0,node/7078406240,Autobis Tera (1),9.0330007,,38.7322299
0,node/7080251773,Condominium,9.0049451,,38.8100534
0,node/7080251774,Goro School,8.993889,,38.8268744
0,node/7080251776,Anbessa Garage,9.0071789,,38.8056204
0,node/7080440194,Estifanos,9.0110028,,38.76366
0,node/7080440195,BAMBIS,9.0104866,,38.7690578
0,node/7080440196,St. Urael Church,9.0115088,,38.7752996
0,node/7080440197,Lex Plaza,9.0147285,,38.7823039
0,node/7080440198,22 (Haya Hulet),9.0164226,,38.7896417
0,node/7080440200,Megenagna,9.0194097,,38.8004816
0,node/7080440203,Megenagna,9.019032,,38.8005914
0,node/7080440204,Lem Hotel,9.0177169,,38.7955696
0,node/7080440205,22 (Haya Hulet),9.0162149,,38.7896635
0,node/7080440206,BAMBIS,9.0102033,,38.7694936
0,node/7080440208,Mexico,9.0104304,,38.7467585
0,node/7080527282,Mexico,9.0098462,,38.7462899
0,node/7080527284,Kera,8.9863213,,38.7487773
0,node/7080611085,Mebrat,8.96688,,38.7487535
0,node/7080611091,Mexico Shebelle Hotel,9.0120423,,38.746773
0,node/7080893992,Michael,9.0412736,,38.7322629
0,node/7080893993,Autobis Tera,9.034717,,38.732023
0,node/7080893994,Pastor,9.0460782,,38.7306587
0,node/7080893995,Winget,9.0560646,,38.713458
0,node/7080893996,Chereta,9.0613645,,38.7009781
0,node/7080894001,Sansusi,9.0715888,,38.6891732
0,node/7081034796,5 Kilo (History Museum),9.0385658,,38.7624277
0,node/7081034797,Abo Mazoriya,9.0574672,,38.7785478
0,node/7081034799,Education Bureau (6 Kilo),9.0441923,,38.7640045
0,node/7084255331,Total (Dil Ber),9.0648091,,38.732915
0,node/7084255333,Piassa Arada,9.0341775,,38.7533521
0,node/7084255334,Addisu Gebeya,9.0594855,,38.7374497
0,node/7084255335,Tsion Cafe (Addisu Gebeya),9.0638908,,38.733166
0,node/7084255336,Total (Dil Ber),9.0653883,,38.7327389
0,node/7084722454,Ummar School,9.0337517,,38.7405402
0,node/7084722456,Autobis Tera (3),9.0341036,,38.7337992
0,node/7084722457,Gojam Berenda (Tefera Buillding),9.0341305,,38.7418327
0,node/7084722458,Dej. Wube (Ras Abebe School),9.0404538,,38.7533374
0,node/7084722459,Wube Bereha,9.0440672,,38.7544994
0,node/7084722460,Menen,9.0515491,,38.7588473
0,node/7084722461,Tsehay Chora (ShiroMeda),9.0584002,,38.7598297
0,node/7084873006,Sebategna (Taem Bakery),9.0274958,,38.7332661
0,node/7084873007,Mola Maru (Jos Hansen),9.0188835,,38.7380924
0,node/7084873008,Geja Sefer (Darmar),9.0167149,,38.7382054
0,node/7084873009,Kera (Green Market),8.9856954,,38.7486804
0,node/7084873010,Kera (Mexico Stop),8.9841757,,38.7518917
0,node/7084873011,MOHA (Pepsi Factory),8.9824212,,38.7560749
0,node/7084873012,Saris (Shoa Bakery),8.9547202,,38.7635412
0,node/7084873013,Kera (Saris Stop),8.9844206,,38.7509324
0,node/7084873014,Guenet Hotel (Orbis),9.002055,,38.7469466
0,node/7084873015,St. Lideta Church,9.0111972,,38.736541
0,node/7084873016,Abenet (Joshansen),9.0192478,,38.733649
0,node/7084932737,Canada Embassy,8.9951157,,38.7373207
0,node/7084932738,Mechare Meda,8.9973163,,38.7311778
0,node/7084932739,Bisrate Gebrael,8.9892732,,38.7239615
0,node/7084932740,Zenebework (Crossing),8.9850622,,38.705264
0,node/7084932741,Ayer Tena,8.9838449,,38.6961239
0,node/7084932742,Kidane Mihret (Roundabout),8.9917639,,38.6887357
0,node/7084932743,Kidane Mihret (2),8.9910254,,38.690106
0,node/7084932745,Augusta Bridge (Tor Hailoch),9.0056187,,38.7185689
0,node/7084932747,Mexico,9.0114539,,38.7445753
0,node/7098810331,Goro Roundabout,8.9839859,,38.8285018
0,node/7098810332,Kotebe Shet',8.9678887,,38.8370059
0,node/7098810333,Bole Lemi,8.9585287,,38.8352869
0,node/7098810334,Endorro 2,8.9405669,,38.8219339
0,node/7098810335,Kilinto Right (Heniken),8.9007946,,38.8152364
0,node/7098810336,Koye Feche 4,8.8947925,,38.8240221
0,node/7098810337,Koye Feche 3,8.8925887,,38.8277372
0,node/7098810338,Koye Feche 2,8.896302,,38.8313712
0,node/7098810339,Koye Feche,8.9046728,,38.8268887
0,node/7098810340,Goro Roundabout,8.9837967,,38.8289328
0,node/7098810341,Kotebe Shet',8.9678046,,38.8374461
0,node/7098810342,Bole Lemi,8.9573187,,38.8354629
0,node/7098810343,Endorro 2,8.9393928,,38.8217947
0,node/7098810344,Endorro 1,8.9307029,,38.820007
0,node/7098810345,kilinto (Heniken Brewery),8.9005132,,38.8155747
0,node/7098833728,Gurd-shola,9.0192718,,38.8196082
0,node/7098833729,Civil Service College,9.021924,,38.8331381
0,node/7098833730,St. Michael,9.021617,,38.8400876
0,node/7098833731,Sunshine Apartments,9.0193173,,38.8524287
0,node/7098833732,Gomista,9.0019915,,38.8575794
0,node/7098833735,Hasset Photo,8.9918735,,38.8588022
0,node/7098833736,Sunshine Apartments,9.0190988,,38.8521013
0,node/7098833737,CMC (Apartments),9.0208488,,38.8504565
0,node/7098833738,St. Michael,9.0213567,,38.8401568
0,node/7102193971,Merkato,9.0337594,,38.7312293
0,node/7102193972,Mesalemia (Area Police),9.0338552,,38.7254909
0,node/7102193973,Luwkanda,9.0332635,,38.7086533
0,node/7102193974,Comprensive,9.0338494,,38.7049566
0,node/7102193975,Gefersa,9.031909,,38.642409
0,node/7102193976,Gojo (Kela),9.0563274,,38.6117467
0,node/7102193977,Gojo (Kela),9.0560454,,38.6120244
0,node/7102193978,Gefersa (2),9.0375371,,38.6265192
0,node/7102193979,Gefersa,9.0356795,,38.6329501
0,node/7102193980,Ashewa Meda (1),9.0328635,,38.6674596
0,node/7102193981,Kersa (1),9.0286003,,38.6760437
0,node/7102193982,Feli Doro (2),9.0343761,,38.687173
0,node/7102193983,Mesalemia,9.0344498,,38.7244946
0,node/7102269985,Merkato,9.0338637,,38.7312074
0,node/7103202615,Ayer Tena,8.9821491,,38.6977085
0,node/7103202616,German Bridge,8.9647174,,38.7316085
0,node/7103202617,Mebrathile (EEPCo),8.9470109,,38.7342372
0,node/7103202619,Saris Abo,8.9444277,,38.7692016
0,node/7103202620,Saris Abo,8.944353,,38.7666082
0,node/7103202621,Kality Maseltegna,8.9336411,,38.7645892
0,node/7103202622,Hana Mariam (Bridge),8.930547,,38.7550031
0,node/7103202623,Mickael Bridge,8.9653607,,38.72738
0,node/7103202625,Ayer Tena,8.9820533,,38.6976219
0,node/7104888674,Bel Air,9.0323651,,38.7729637
0,node/7105158906,CMC (Apartments),9.0211237,,38.8506098
0,node/7105158907,Tafo Condominium 2,9.0462589,,38.8774831
0,node/7105158908,Tafo Condominium 1,9.0502639,,38.8775457
0,node/7105268824,Mebrat (Lafto),8.9593839,,38.7490031
0,node/7105268825,Dildiy Mariam,8.9587047,,38.7497551
0,node/7105268826,Lafto (Mickael),8.9537745,,38.7504407
0,node/7105268828,Lafto,8.9465504,,38.7493803
0,node/7105268830,Lafto (Primary School),8.9558865,,38.7450783
0,node/7105398617,Post Office (Ambassador),9.0185243,,38.7534558
0,node/7105398618,6 Kilo,9.0462,,38.761425
0,node/7105398619,Teferi Mekonen,9.0522977,,38.7623138
0,node/7105584907,Marathon Motor (Megenagna),9.022269,,38.7999868
0,node/7105584908,Arat Kilo,9.0332665,,38.762507
0,node/7105584909,Piassa Arada,9.0341288,,38.7532588
0,node/7105584911,Arat Kilo,9.0332715,,38.7625094
0,node/7105584912,Abebe Sook,9.0289345,,38.7888307
0,node/7105840324,Abune Petros,9.0358919,,38.7492708
0,node/7105840325,Yohannes,9.0424895,,38.745898
0,node/7105840326,Arbegnoch Primary School,9.0472271,,38.7421685
0,node/7105840327,Enqulal Fabrica,9.0485317,,38.7376837
0,node/7105840330,Yohannes,9.0434044,,38.7450108
0,node/7105840331,Enqulal Fabrica,9.0481067,,38.7373533
0,node/7107670562,Sefera,8.9209077,,38.7350358
0,node/7107670563,Mebrathile (EEPCo),8.94963,,38.7332384
0,node/7107670564,Mekanisa Abo,8.9829863,,38.7341183
0,node/7107789218,Jemmo 2,8.9606298,,38.6879228
0,node/7107789219,Piassa (Downtown Cafe),9.0319297,,38.7511477
0,node/7107789220,Jemmo 2,8.9605732,,38.6878636
0,node/7108224469,Kera,8.9860956,,38.7483037
0,node/7110438104,6th (Raddison Blu),9.0166264,,38.7675202
0,node/7110438105,Kazanchis (6th),9.0171928,,38.7701955
0,node/7110438106,Aware Roundabout,9.0231177,,38.7758778
0,node/7110438107,Signal,9.0234853,,38.7815333
0,node/7110438108,Dinberwa Hospital,9.0221973,,38.7867845
0,node/7110438109,Lem Hotel,9.0212061,,38.7940254
0,node/7110438110,Lamberet (Queens),9.022362,,38.8157252
0,node/7110438111,Kotebe 01,9.0348925,,38.8281186
0,node/7110438113,Kotebe 01,9.0349074,,38.8281855
0,node/7110438114,Shola (United Bank),9.0217059,,38.7948696
0,node/7110438115,Sumeya Mosque,9.021194,,38.792498
0,node/7110438116,Signal,9.023369,,38.7815645
0,node/7110725239,Kality Gebriel,8.9104302,,38.7640618
0,node/7110725240,Addis Sefer (Overpass),8.9572931,,38.7673729
0,node/7110725241,Bole Mickael (2),8.9799499,,38.7723221
0,node/7110725242,Bole Bridge,8.9867261,,38.7903601
0,node/7110725243,MOENCO,8.9948785,,38.7957512
0,node/7110725244,Sport Academy,9.0009401,,38.7988652
0,node/7110725245,Anbessa Garage,9.0077883,,38.8030776
0,node/7110725247,Anbessa Garage,9.0076034,,38.8032793
0,node/7110725248,Emperial Hotel,9.0037859,,38.8009424
0,node/7110725250,Bole (Bora Amusement),8.9910225,,38.7947105
0,node/7110725251,Bole Mickael (2),8.9795995,,38.7721474
0,node/7110725252,Addis Sefer,8.9603711,,38.7676814
0,node/7110725253,Saris Abo,8.945759,,38.7692206
0,node/7110725254,Kality (Correctional Facility),8.9234126,,38.7648588
0,node/7110725256,Kality Meneharia,8.8959395,,38.7718808
0,node/7111821010,Arat Kilo,9.0354591,,38.7588358
0,node/7111821011,Piassa (EPPCO),9.0325113,,38.7538404
0,node/7111821013,Autobis Tera,9.0317457,,38.7374552
0,node/7111821015,Autobis Tera,9.0302352,,38.7372851
0,node/7111821016,Dinberwa Hospital (1),9.0216842,,38.7887833
0,node/7112123457,Chid Tera,9.0374493,,38.721592
0,node/7112123458,Mebrathail,9.0294949,,38.7149359
0,node/7112123459,Kolfe Keranyo,9.0173854,,38.7177803
0,node/7112123460,Keranio Bridge,9.0193846,,38.708993
0,node/7112123462,Kolfe Keranyo,9.0170237,,38.7176821
0,node/7112123463,Abysinia Coffee,9.0370321,,38.7163686
0,node/7112123464,Chid Tera,9.0376714,,38.7208971
0,node/7112215078,Old Airport (Mobil),8.9998854,,38.7188624
0,node/7112215079,Minaye (Shoa Supermarket),9.008471,,38.7196192
0,node/7112215080,Holand,9.0208524,,38.7158287
0,node/7112215081,18 Mazoria (Atena Tera),9.0361682,,38.7141478
0,node/7112215082,Atena Tera,9.0409736,,38.7125982
0,node/7112215083,Winget TVET,9.0491202,,38.7116581
0,node/7112215084,Winget,9.0555289,,38.7124575
0,node/7112280388,Winget,9.0554541,,38.7127274
0,node/7112280389,Winget TVET,9.0494004,,38.7117843
0,node/7112280390,kolfe (Atena Tera),9.0448145,,38.7122352
0,node/7112280391,Atena Tera,9.0414434,,38.712721
0,node/7112280392,18 Mazoria (Atena Tera),9.0362317,,38.7143961
0,node/7112280393,Meseret Edget,9.0244809,,38.7152453
0,node/7112280394,Augusta Bridge (Tor Hailoch),9.0056155,,38.7188519
0,node/7112648156,Mahiber Betoch,8.8596281,,38.8146269
0,node/7112648157,Project 12 Akababi,8.865212,,38.8210444
0,node/7112648158,G7 (Tulu Dimtu),8.8701237,,38.8204129
0,node/7112648159,Belay Ab Moters,8.871336,,38.7965426
0,node/7112648160,Gelan Condominium,8.8797273,,38.779459
0,node/7112648161,Kality Total,8.894811,,38.7728422
0,node/7112648162,Akaki Subcity Office (Menaheria),8.8973286,,38.770309
0,node/7112648163,Kality (Correctional Facility),8.9224149,,38.7641522
0,node/7112648164,Techtra Engineering,8.9281178,,38.7676362
0,node/7112648165,Adey Abeba,8.9572677,,38.7637599
0,node/7112648166,Kality Maseltegna,8.9323914,,38.7669427
0,node/7112648167,Wehalemat,8.9298175,,38.768315
0,node/7112648168,Awash Bank (Akaki Kality),8.8837788,,38.7768426
0,node/7112648169,Gelan Condominium,8.8799589,,38.7793211
0,node/7112648170,Belay Ab Moters,8.8716847,,38.7963837
0,node/7112648172,TAF Oil (Tulu Dimtu),8.8705655,,38.8091005
0,node/7112755338,Teklehaymanot,9.0278217,,38.7439418
0,node/7112755340,Autobis Tera,9.0314996,,38.7376384
0,node/7112755342,Autobis Tera,9.0308454,,38.7381207
0,node/7112755343,Meteorology,9.0194238,,38.7468282
0,node/7113004009,Girum Hospital,9.0462468,,38.7199737
0,node/7113004010,Ras Hailu (Medhanialem),9.0509733,,38.7211613
0,node/7113004011,Awolia,9.0572551,,38.7114101
0,node/7113004012,Bercheko Fabrica (Asko),9.0640587,,38.6983516
0,node/7113004013,Gulele,9.0598807,,38.70588
0,node/7113004014,Ras Hailu (Medhanialem),9.0507813,,38.7210939
0,node/7113004015,Woreda 7 TVET,9.040909,,38.7212829
0,node/7113004016,Chid Tera,9.0380466,,38.7213725
0,node/7113004018,Autobis Tera,9.0312199,,38.7365754
0,node/7113004020,Michael (2),9.0426217,,38.73268
0,node/7113004021,Pawlos Hospital (Saba Mosque),9.0485205,,38.7261371
0,node/7113004022,Anbessa Garage (Shegole),9.0643796,,38.7205811
0,node/7113004024,Shegole (Mender 7),9.0641379,,38.7266132
0,node/7113004026,Shegole (Mender 7),9.0641466,,38.726699
0,node/7113004027,Hassen & Hussein Mosque (Shegole),9.0589167,,38.7189551
0,node/7113004028,Shegole Bank,9.0548351,,38.7198445
0,node/7113004029,Michael,9.0409541,,38.7321449
0,node/7113158623,Eyesus,9.0652655,,38.7712666
0,node/7122983960,Wello Sefer,8.9931107,,38.7741153
0,node/7122983961,Kassech Kitfo,8.9891423,,38.7720567
0,node/7122983962,Ambasel,8.9855755,,38.7679985
0,node/7122983963,WAGGA (Singer Liquior Store),8.9840055,,38.7662234
0,node/7122983964,Wengalawit,8.9814923,,38.7635127
0,node/7122983968,Wengalawit,8.9817105,,38.7636059
0,node/7122983969,MEDCO,8.9857381,,38.7680101
0,node/7122983970,Tebaber Berta,8.98977,,38.7723942
0,node/7122983972,Wello Sefer,8.9930626,,38.7739711
0,node/7123180286,Beshale Area,9.0113972,,38.8356151
0,node/7123180287,Megenagna,9.0185063,,38.802106
0,node/7123180289,Jacros,9.0111777,,38.821148
0,node/7123180290,Safari,9.0100121,,38.8526604
0,node/7123180291,Safari (Summit),9.0116739,,38.8657082
0,node/7123180293,Safari (Summit),9.0115148,,38.8657494
0,node/7123180295,Safari,9.0099646,,38.8513684
0,node/7123180296,Beshale Area,9.011279,,38.8356503
0,node/7123180297,Gurd Shola,9.0189315,,38.8201425
0,node/7123180298,Megenagna,9.0194519,,38.803506
0,node/7123265052,Meskel Flower,8.9882804,,38.7650036
0,node/7123265053,Loza (Adot),8.9911645,,38.7659652
0,node/7123265054,Nazra Hotel,8.9934001,,38.7663984
0,node/7123265055,Yetam Hotel,8.9959487,,38.7666123
0,node/7123265056,Kebele Kibeb,8.9980982,,38.7667571
0,node/7123265061,Mulu Shewa (Gazebo),8.9999844,,38.7669271
0,node/7123265062,Kebele Kibeb,8.9979306,,38.7668423
0,node/7123265063,Yetam Hotel,8.9959132,,38.7667132
0,node/7123265064,Nazra Hotel,8.9937071,,38.7665439
0,node/7123265065,Loza (Adot),8.9910552,,38.7660467
0,node/7123265066,Meskel Flower,8.9885268,,38.7652457
0,node/7182111861,Total 3 Kuter Mazoria,8.9921561,,38.7180191
0,node/7182111862,Kera,8.9865792,,38.7468023
0,node/7214490240,4 Kilo Minilik School,9.0351361,,38.7629695
0,node/7214490241,Kality Menaheriya,8.8967488,,38.7708485
0,node/10672522047,Holeta,9.0675662,,38.497947
0,node/10672522056,Sademo,9.065884,,38.53199
0,node/10672522057,Cheshire Ethiopia,9.0712731,,38.5920589
0,node/10672721751,Delta Fuel Station,8.8504983,,38.8085926
0,node/10672739809,Sidama Awash NOC,8.8412588,,38.8243789
0,node/10672739811,Atlas Resort,8.8314833,,38.8396009
0,node/10672739815,ODDA Fuel Station,8.8447465,,38.818065
0,node/10672961242,3 Kutir (TZNA Area),8.9943894,,38.717673
0,node/10672961244,Lideta High Court,9.0117316,,38.7335924
0,node/10750378219,Ayer Tena,8.9839135,,38.7024743
0,node/10755917239,Sar Bet,8.9925223,,38.7394551
0,node/10755917241,Sar Bet,8.9924619,,38.7392871
0,node/10755917242,Kera,8.9859671,,38.7469304
0,node/10755917243,Kera,8.9900132,,38.7418629
0,node/10755917244,Sar Bet,8.995096,,38.7376124
0,node/10755917245,karl Square,8.9973975,,38.7309965
0,node/10755917246,karl Square,8.9970773,,38.7302642
0,node/10755917247,Bisrate Gebrael,8.9927368,,38.7268512
0,node/10755917248,Bisrate Gebrael,8.9914228,,38.7255644
0,node/10755917249,Bisrate Gebrael,8.9888937,,38.7226976
0,node/10755917250,Total 3 Kuter Mazoria,8.9922875,,38.7175917
0,node/10766121857,kality Meneharia,8.8967652,,38.7708737
0,node/10766121859,kality Maseltegna,8.9319554,,38.7669453
0,node/10766121860,Kadisco Roundabout,8.9632423,,38.7668102
0,node/10766121861,Bole Mickael,8.9816305,,38.7761571
0,node/10766121862,Bole Printing Press,8.9966149,,38.7721247
0,node/10766121863,Flamingo,9.0100526,,38.7634141
0,node/10766121864,St. Estifanos,9.0125659,,38.7626278
0,node/10766121865,4 Kilo (Menlik),9.035146,,38.7629874
0,node/10766121866,4 Kilo (Menlik),9.0352952,,38.7631121
0,node/10766121867,Place Parking (Gibi Gebriel),9.0214342,,38.7641345
0,node/10766121868,Flamingo,9.01014,,38.7636218
0,node/10766121869,Wollo Sefer,8.9944147,,38.7743234
0,node/10766121871,Bole Mikael,8.9812653,,38.7761469
0,node/10766121872,Mamo (Nifas Silk),8.9737518,,38.765481
0,node/10766121873,kality Maseltegna,8.9321192,,38.7670877
0,node/10766121874,kality Meneharia,8.8957067,,38.7721261
0,node/10766454593,Olympia,9.0056744,,38.7674734
0,node/10766454594,Bole Roundabout,8.9867247,,38.7908923
0,node/10768858714,German Square,8.965437,,38.7341844
0,node/10768858715,Gofa Camp,8.97192,,38.7420458
0,node/10768858718,African Union,9.003043,,38.7411322
0,node/10768858719,Autobis Tera,9.0296254,,38.7370315
0,node/10768858720,Guenet Hotel (Orbis),9.0026517,,38.7470064
0,node/10768858723,German Square,8.9651822,,38.7340469
0,node/10781643820,Lamberet Menaheria,9.0239162,,38.8198728
0,node/10781643821,Arat Kilo,9.0322896,,38.7650098
0,node/10781643822,4 kilo (Children Theatre),9.0328365,,38.7666152
0,node/10781643823,Bel Air,9.0325481,,38.7736753
0,node/10781643824,Kebena,9.0344084,,38.7768069
0,node/10781643825,Kokebe Tsebah (Kebena),9.0350794,,38.7794124
0,node/10781643826,Kenya Embassy (Kebena),9.0324942,,38.7823515
0,node/10781643827,British Embassy,9.0309005,,38.785575
0,node/10781643828,Abebe Sook,9.0289673,,38.7888226
0,node/10781643829,Shola (Yeka Court),9.0251295,,38.7947497
0,node/10781643830,Shola Abyssinia Bank,9.0232585,,38.7984062
0,node/10781643831,Megenagna (Marathon Motors),9.0224046,,38.7997354
0,node/10781643832,Megenagna,9.0208971,,38.8010368
0,node/10781643833,Megenagna (Israel Embassy),9.0208722,,38.8048559
0,node/10781643834,Lamberet Menaheria,9.0240444,,38.8199227
0,node/10781643835,Kotebe,9.0297042,,38.836729
0,node/10781643836,Kotebe,9.0304539,,38.8385612
0,node/10781643837,Kotebe Teachers College,9.0348007,,38.8490303
0,node/10781643838,Kotebe Gebriel,9.0363204,,38.8553365
0,node/10781643839,Kotebe Gebriel,9.0358505,,38.8541265
0,node/10781643840,Wessen Grocery,9.032918,,38.8443436
0,node/10781643841,Kara,9.0407203,,38.8648947
0,node/10781643842,Kara,9.0411416,,38.8653607
0,node/10781844855,Abebe Sook,9.0287927,,38.788672
0,node/10781844856,British Embassy,9.0313214,,38.7843424
0,node/10781844857,5 Kilo St. Mary,9.038677,,38.7623866
0,node/10781844858,6 Kilo University,9.0462129,,38.7614003
0,node/10781844859,6 Kilo University,9.0462072,,38.7615945
0,node/10781844860,6 Kilo (Lion Zoo),9.0430896,,38.7615002
0,node/10781844861,Kenya Embassy (Kebena),9.032679,,38.7826601
0,node/10781844862,Shola (Yeka Court),9.0250431,,38.7953847
0,node/10781844863,Megenagna (Marathon Motors),9.0225097,,38.7998471
0,node/10823916391,Yeka 03,9.0381854,,38.8773834
0,node/10842065101,Sefera Atkilt Tera,8.931276,,38.7341685
0,node/10842065103,kality Maseltegna,8.9358559,,38.7646885
0,node/10842065104,Bulgaria,8.9948043,,38.7478806
0,node/10842129005,Kality Customs,8.9379429,,38.7628904
0,node/10842129006,Germen Square,8.9644696,,38.7330813
0,node/10842129008,Hana Mariam,8.93579,,38.7441345
0,node/10842129009,Gomista,8.9373819,,38.7703639
0,node/10842129010,Nigd bank,8.948706,,38.780123
0,node/10842129011,kality Maseltegna,8.9342123,,38.7642814
0,node/10842129012,Kadisco,8.9310906,,38.7585214
0,node/10842129013,Adey abeba,8.9582797,,38.7638648
0,node/10842129015,Saris abo,8.9457865,,38.7690665
0,node/10842129016,Haile Garment,8.93876,,38.7345583
0,node/10842129017,Saris,8.9546992,,38.7635479
0,node/10842129019,Bole Cargo,8.9834477,,38.7819099
0,node/10842129020,Bulgaria,8.9944221,,38.7483448
0,node/10842129021,Kore,8.9482742,,38.7765022
0,node/10842129022,Saris Abo,8.9444276,,38.7691994
0,node/10842129023,Kality Menaheria,8.8973782,,38.7704449
0,node/10842129024,Sefera Square,8.9254109,,38.7340982
0,node/10842129025,Mexico,9.009032,,38.7463895
0,node/10842129026,Kality Gebriel,8.9092945,,38.7644698
0,node/10842129027,Derartu,8.8869211,,38.7821218
0,node/10842129028,Bole Cargo,8.9836884,,38.7818039
0,node/10842129029,Kality Total,8.8948904,,38.7729402
0,node/10842129030,Noc,8.9927142,,38.748144
0,node/10842129031,Lancha,8.9901397,,38.7590821
0,node/10842129032,Haile Garment,8.9375158,,38.7359129
0,node/10842129033,Agona,8.9880834,,38.759633
0,node/10842129034,kality Maseltegna,8.9336783,,38.76464
0,node/10842129035,Mesqelegna,8.9417644,,38.7214531
0,node/10842129037,Jemo,8.9537651,,38.6979529
0,node/10842129038,Adey abeba,8.9577771,,38.7640443
0,node/10842129040,Saris Abo,8.9448318,,38.7661797
0,node/10842129041,Mebrat hayle,8.9457862,,38.7343973
0,node/10842129042,Kadisco,8.9633984,,38.7669226
0,node/10842129043,Hana Mariam,8.9356798,,38.7453864
0,node/10842129045,Mamo (NFSL),8.9729895,,38.7609585
0,node/10842129046,Medhani alem,8.9490785,,38.7785848
0,node/10842129047,Mosque (Mesged),8.9047633,,38.7660661
0,node/10842129048,Kality Gebriel,8.9093265,,38.7645559
0,node/10842129051,Bole Roundabout,8.9859342,,38.7888143
0,node/10842129052,Wuhalimat,8.9295556,,38.7681435
0,node/10842129053,Hana Mariam,8.9361549,,38.7445142
0,node/10842129054,Bole Mickael,8.9797944,,38.7719673
0,node/10842129055,Sheger building,8.9192813,,38.7635639
0,node/10842129056,Yoseph,8.9705748,,38.7668114
0,node/10842129057,Bulgaria,8.9947898,,38.7477478
0,node/10842129058,Mebrathayil,8.9470316,,38.7342346
0,node/10842129059,Sefera Square,8.9250202,,38.7346011
0,node/10842129060,Tele Garage,9.0000494,,38.758701
0,node/10842129061,Mebrathayil,8.9469179,,38.7339445
0,node/10842129062,Haile garment,8.9376734,,38.7335906
0,node/10842129063,Meshualekia,9.0058652,,38.758986
0,node/10842129066,Adey abada,8.9571801,,38.7640108
0,node/10842129069,Menaheria (Zenebu Werk),8.9755358,,38.706617
0,node/10842129070,Adis sefer,8.9602509,,38.767446
0,node/10842129071,Kadisco,8.930883,,38.758758
0,node/10842129072,Bulgaria,8.993831,,38.7478486
0,node/10842129073,Kadisco,8.9661182,,38.7627716
0,node/10842129074,Bulbula,8.9517202,,38.7861393
0,node/10842129075,Kadisko,8.966096,,38.7629867
0,node/10842129076,Saris abo,8.9444437,,38.7700795
0,node/10842129077,Meshualekya,8.8759809,,38.7875287
0,node/10842129078,Agona,8.9871416,,38.7597928
0,node/10842129079,Gotera chaf,8.9771026,,38.7595824
0,node/10842129080,Saris,8.9528149,,38.7633358
0,node/10842129082,St. Joseph School,9.0106804,,38.7593422
0,node/10842129083,Kotari Condominium,8.9321621,,38.7338312
0,node/10842129084,Mamo,8.9732793,,38.7652695
0,node/10842129085,Saris Abo,8.9448603,,38.7664084
0,node/10842129086,Yosef,8.9705442,,38.7665547
0,node/10842129088,Kality Cheralia,8.9068482,,38.7654586
0,node/10842129089,Kality Cheralia,8.9066965,,38.7653555
0,node/10842129090,Lancha,8.9906489,,38.7593009
0,node/10842129091,Gomista,8.9375024,,38.7701062
0,node/10842129092,Haile Garment,8.9375082,,38.7331196
0,node/10842129093,Tele Garage,9.0001174,,38.7584826
0,node/10842129094,Selam Building,8.8840544,,38.7767338
0,node/10842129095,Medhani alem,8.9453322,,38.7769101
0,node/10842129096,Selam Building,8.8831855,,38.7772259
0,node/10842129097,Meshualekya,8.8759552,,38.7872182
0,node/10842129098,Saris,8.9531876,,38.7635911
0,node/10842129102,Germen adebabay,8.963723,,38.7328242
0,node/10842129103,Mamo (NFSL),8.972508,,38.7607874
0,node/10842129105,Kera,8.9875165,,38.7486365
0,node/10842129106,Agona,8.9867627,,38.7599766
0,node/10842129107,Saris abo,8.9446574,,38.7701231
0,node/10842129108,Kera,8.9860883,,38.7483211
0,node/10842129110,Gelan Condominium,8.8790966,,38.7666013
0,node/10842129111,Temenja yasi,8.9953066,,38.7596133
0,node/10842129112,Riche,9.0041803,,38.7588933
0,node/10842129113,Haile garment,8.9368154,,38.7364242
0,node/10842129114,Bole Mickael,8.9795749,,38.7720906
0,node/10842129116,Ayer Tena,8.9835322,,38.6971287
0,node/10842129117,Jemo,8.9537239,,38.6977027
0,node/10842129118,Land mark,9.0052072,,38.7467544
0,node/10842129119,Meskelegna,8.9411484,,38.7218311
0,node/10842129120,Haile Garment,8.9381771,,38.7349153
0,node/10842129121,Riche,9.0040548,,38.7586909
0,node/10842129122,Kore,8.9476648,,38.7841911
0,node/10842129124,Meshualekya,8.8770606,,38.7866845
0,node/10842129125,Bulbula,8.9518942,,38.7863461
0,node/10842129126,kality Maseltegna,8.9357353,,38.7643342
0,node/10842129129,Saris abo,8.9457601,,38.7692278
0,node/10842129131,Addis sefer,8.9603252,,38.7676873
0,node/10842129132,Hana mariam,8.9352291,,38.744852
0,node/10842129133,Kera,8.9866879,,38.7484325
0,node/10842129134,Gotera chaf,8.9757898,,38.7601404
0,node/10842129135,Akaki Subcity Office (Menaheria),8.8972852,,38.770318
0,node/10842129136,Condominium,8.9411922,,38.7717099
0,node/10842129137,Gelan Condominium,8.8789992,,38.7666701
0,node/10842129139,Wuhalimat,8.9295931,,38.7683276
0,node/10842129140,Mexico,9.0098761,,38.7461882
0,node/10845731573,Grand Anwar Mosque,9.0312472,,38.7413343
0,node/10845731574,Kebele 11,9.0247282,,38.7457773
0,node/10845731575,Guenet hotel,9.0028738,,38.7468651
0,node/10845731576,Lancia,8.9923344,,38.7589891
0,node/10845731577,Pepsi,8.9825134,,38.755826
0,node/10845731578,Lancia,8.9919399,,38.7591215
0,node/10845731579,Tekle Haimanot,9.0279893,,38.7438378
0,node/10845731580,Saris Abo,8.9441872,,38.7666459
0,node/10845731581,Legehar,9.0120319,,38.7544517
0,node/10845731582,Kera,8.9841589,,38.7522272
0,node/10845731583,Kality Customs,8.9380577,,38.7631799
0,node/10845731584,Gojam Berenda,9.0342603,,38.7378007
0,node/10845731585,Gojam Berenda,9.0343553,,38.7381021
0,node/10845731586,Derartu,8.8869148,,38.7818893
0,node/10845731587,Pepsi,8.9824223,,38.7557408
0,node/10845731588,Global Hotel,8.9943898,,38.7596457
0,node/10845731589,Sheger Building,8.9208636,,38.7637542
0,node/10845731590,Autobus Tera,9.0343246,,38.734431
0,node/10845731591,Guenet hotel,9.0027786,,38.7469738
0,node/10845731592,Tekle Haimanot,9.0279685,,38.7439714
0,node/10845731593,Beg Tera,8.9970419,,38.7476261
0,node/10845731594,Global Hotel,8.9943499,,38.7598651
0,node/10845731595,Kality Correctional,8.9223845,,38.7641252
0,node/10845731596,Cheralia Factory,8.9029367,,38.7667306
0,node/10845731597,Kebele 11,9.0246149,,38.7457421
0,node/10845731598,Grand Anwar Mosque,9.0310422,,38.7414003
0,node/10845731599,National Theatre,9.0165472,,38.7526758
0,node/10845731600,Sheger Building,8.9214902,,38.7639368
0,node/10845731601,Saris,8.95346,,38.767986
0,node/10845731602,Beg Tera,8.9968163,,38.7475303
0,node/10845731603,Sengatera,9.014753,,38.7468099
0,node/10845731604,Mexico,9.0096228,,38.746301
0,node/10845749005,Bulgaria,8.9937615,,38.7479845
0,node/10845840895,kality Meneharia,8.8956285,,38.7720203
0,node/10845840896,Ayer Tena,8.9841176,,38.6966894
0,node/10845840897,Germen adebabay,8.9637758,,38.7330269
0,node/10846106471,Kality Total,8.8948231,,38.7728316
0,node/10881147490,Bole Bridge,8.9869946,,38.7912092
0,node/10881147492,Bole Bridge,8.9867302,,38.7903563
0,node/10883106542,Autobus Tera,9.0341009,,38.7338003
0,node/10886135782,Bajaj Tera,8.907041,,38.7415025
0,node/10886135783,Chera,8.904156,,38.7479978
0,node/10886135784,Gelan Condominium,8.8772921,,38.7622377
0,node/10886135785,Total,8.8549158,,38.7845626
0,node/10886135787,Tulu Dimtu,8.8737817,,38.8197795
0,node/10886135789,Tulu Dimtu,8.8738791,,38.8202354
0,node/10886135790,G7,8.8709574,,38.820802
0,node/10886135791,Total,8.8541896,,38.7847209
0,node/10886135793,Gelan Condominium,8.8758233,,38.7630121
0,node/10886281950,Bole Bridge,8.9906055,,38.7928534
0,node/10886281951,Bole Medhanyalem,8.9955183,,38.7887705
0,node/10886281952,Edna Mall Squar,8.9973425,,38.7870108
0,node/10886281953,Adey Ababa Stadium,9.0043569,,38.7892817
0,node/10886281954,22 Mazoria,9.0150262,,38.7872566
0,node/10886281956,22 Mazoria,9.0150056,,38.787438
0,node/10886281958,Freedom,9.0082739,,38.7887083
0,node/10886281997,Werku Building,9.0069454,,38.7890587
0,node/10886281998,Adey Ababa Stadium,9.0042976,,38.7893444
0,node/10886281999,Edna Mall Squar,8.9977034,,38.7869491
0,node/10886282000,Bole Medhanyalem,8.995948,,38.7885714
0,node/10886282001,Bole Bridge,8.9906936,,38.7929596
0,node/10886427067,22 Mazoria,9.0161537,,38.7881236
0,node/10886427068,Lem Hotel,9.017758,,38.7950715
0,node/10886427069,Megenagna,9.0198841,,38.8019786
0,node/10886427070,Gurd Shola,9.0191878,,38.8200261
0,node/10886427071,Civil Servis College,9.0218654,,38.8345374
0,node/10886427072,Yetebaberut,9.0209806,,38.8536095
0,node/10886427073,Ayat,9.0214852,,38.8750186
0,node/10886427074,Civil Servis College,9.0215577,,38.8350083
0,node/10886427075,Ayat,9.0211711,,38.8737977
0,node/10886427076,Meshageria,9.0204163,,38.8598848
0,node/10886427077,Yetebaberut,9.020619,,38.8535182
0,node/10886883544,Bole Bora Amusement,8.9907378,,38.7941243
0,node/10886883546,Megenagna,9.0185543,,38.8016982
0,node/10886883547,Anbessa Garage,9.0078296,,38.8034449
0,node/10886883548,Emperial Hotel,9.0037737,,38.8009392
0,node/10886883549,Hayat Hospital,8.9950343,,38.7961015
0,node/10886883550,Bole Bora Amusement,8.9916604,,38.7949793
0,node/10886991025,Sun shine,9.0199832,,38.852562
0,node/10886991026,Megenagna,9.0200202,,38.8042842
0,node/10886991027,Meshualekia,9.021578,,38.841553
0,node/10886991028,Safari,9.0110042,,38.8522797
0,node/10886991029,Summit,9.004015,,38.8519977
0,node/10886991031,Summit,9.004282,,38.8517386
0,node/10886991032,Safari,9.010941,,38.8519018
0,node/10886991033,Sun shine,9.0199154,,38.8520834
0,node/10886991034,Meshualekia,9.021324,,38.8415391
0,node/10886991035,Michael,9.021353,,38.8392942
0,node/10886991036,Gurd Shola,9.0187135,,38.8211275
0,node/10887120325,Hayat Hospital,8.9948468,,38.7956759
0,node/10887120326,Sport Accadamy,9.0001969,,38.798384
0,node/10887120327,Emperial Hotel,9.0027661,,38.8000262
0,node/10887120328,Mulugeta Building,9.0187177,,38.8016319
0,node/10890083966,93 Mazoria,8.9603848,,38.7855121
0,node/10890083967,Kaldisco,8.9623057,,38.7863684
0,node/10890083968,Key Afer,8.9642046,,38.7872114
0,node/10890083969,Bole Bridge,8.9901774,,38.7938035
0,node/10890083974,Mulugeta Building,9.0169433,,38.8025239
0,node/10890290096,Key Afer,8.9642211,,38.7873203
0,node/10890290097,93 Mazoria,8.9604784,,38.785703
0,node/10890290098,Kebele,8.9581348,,38.7875752
0,node/10893030388,Anbessa Garage,9.0080412,,38.8031745
0,node/10893030389,Jacros,9.0035488,,38.8169267
0,node/10893030390,Alem Ayew Building,8.9993201,,38.8210973
0,node/10893030392,Goro,8.9923039,,38.8283586
0,node/10893030394,Goro,8.9917123,,38.8287738
0,node/10893030395,Goro School,8.9939213,,38.8266397
0,node/10893030396,Alem Ayew Building,8.9992455,,38.8210064
0,node/10893030397,Jacros,9.0035377,,38.8166485
0,node/10893030398,Sport Accadamy,8.9999982,,38.7986195
0,node/10893030400,Bole Bridge,8.9911487,,38.7947324
0,node/10893316186,Figa,9.0122741,,38.8336594
0,node/10893316189,Mesgid,9.0110639,,38.8366122
0,node/10893316190,Figa,9.0121764,,38.8335762
0,node/10898980600,Bole Mickael,8.984658,,38.7731313
0,node/10898980601,Ambasader,9.0162838,,38.7551282
0,node/10898980602,Dembel,9.0069448,,38.7662663
0,node/10898980603,Stadium,9.0123922,,38.7586647
0,node/10898980604,Metrology,9.0192676,,38.7466456
0,node/10898986005,Tikur Anbesa,9.0217285,,38.7476072
0,node/10898986007,Tikur Anbesa,9.0207753,,38.7476005
0,node/10898986008,Metrology,9.0188878,,38.7467207
0,node/10898986009,Ambasader,9.0164136,,38.7553118
0,node/10898986010,Stadium,9.011485,,38.760062
0,node/10898986011,Dembel,9.0038396,,38.7686303
0,node/10898986012,Bole Printing Press,8.9979213,,38.7717243
0,node/10898986014,Bole Mickael,8.9849144,,38.7734946
0,node/10899009892,Cinema Ras,9.0318094,,38.7413697
0,node/10899009893,Cinema Ras,9.0317766,,38.7414723
0,node/10899150564,Rwanda,8.992509,,38.7781683
0,node/10899150565,Shewa Dabo,9.0017627,,38.7693116
0,node/10899150566,St. Estifanos Church,9.0120704,,38.7626611
0,node/10899150567,Piassa Arada,9.0321752,,38.7511048
0,node/10899150568,Piassa Arada,9.0330229,,38.7525581
0,node/10899150569,Tewodros Square,9.0264157,,38.7517894
0,node/10899150570,Tikur Anbesa,9.0210948,,38.7522625
0,node/10899150571,Post Office,9.019064,,38.7529153
0,node/10899150572,Ghion Hotel,9.0138467,,38.7576138
0,node/10899278324,Bole Bridge,8.9885561,,38.7897689
0,node/10899278325,Friendship Building,8.9908062,,38.7840796
0,node/10899278326,Rwanda,8.9923825,,38.7798445
0,node/10899278327,Friendship Building,8.9908613,,38.7844715
0,node/10899278328,Bole Bridge,8.9887169,,38.7898626
0,node/10899524535,Anbessa Garage,9.0084115,,38.8038533
0,node/10899524536,Condominium - Gerji Mebrat hayle,9.0049309,,38.8100683
0,node/10899524537,Gerji Mebrat hayle,9.0036683,,38.814209
0,node/10899524538,Goro,8.9913434,,38.8294024
0,node/10899524539,kilinto Right,8.900477,,38.815561
0,node/10899524540,Tulu Dimtu,8.8753804,,38.8197368
0,node/10899524542,kilinto Right,8.900461,,38.8150743
0,node/10899524543,Goro,8.9912832,,38.8292469
0,node/10899524544,Gerji Mebrat hayle,9.0035919,,38.8134376
0,node/10899524545,Condominium - Gerji Mebrat hayle,9.0050654,,38.8095948
0,node/10899524547,Anbessa Garage,9.0071868,,38.8055809
0,node/10899590290,Mesgid,9.011198,,38.8364067
0,node/10899590291,Saint Georgis,8.994461,,38.8518486
0,node/10899590293,Saint Georgis,8.994389,,38.8515329
0,node/10899652823,Mebrathile,8.9493529,,38.7332958
0,node/10899652824,Gebriel Bridge,8.9556186,,38.7324445
0,node/10899652825,Mickael Bridge,8.965384,,38.7273491
0,node/10899652826,Zenebewerk,8.9727473,,38.7121031
0,node/10899652827,Chaina Camp,8.975714,,38.7055213
0,node/10899652829,Ayer Tena,8.981635,,38.6982059
0,node/10901428140,Haile Garment,8.9385233,,38.7348966
0,node/10901428141,Sefera,8.9201595,,38.7353205
0,node/10901428142,Sefera Atkilt Tera,8.9311784,,38.7337094
0,node/10901428143,Sefera,8.9208099,,38.734667
0,node/10901522017,Mesalemia,8.8870433,,38.7519617
0,node/10901522018,Chera Medhanilem,8.9032086,,38.7484085
0,node/10901522020,Haile Garment,8.935726,,38.7346387
0,node/10901522021,Chera Medhanilem,8.9034769,,38.7491293
0,node/10901522022,Mesalemia,8.8871115,,38.7524365
0,node/10901643508,Saris,8.9530332,,38.7629397
0,node/10901643510,58 Mazoria,8.9431476,,38.7540078
0,node/10901643511,Kidane Mihret Stebel,8.9405222,,38.7500946
0,node/10902267327,Mexico,9.0084289,,38.7447143
0,node/10902267330,Mexico,9.0084377,,38.7448728
0,node/10902267332,AU (Mikael) Rounrdabout,8.9990666,,38.7393711
0,node/10902267333,AU (Mikael) Rounrdabout,8.9990162,,38.7395668
0,node/10902267334,Sar Bet,8.9923567,,38.7381301
0,node/10902267335,Sar Bet,8.9923453,,38.7383324
0,node/10902267336,Abo Mazoria,8.9822679,,38.7342938
0,node/10902267337,Abo Mazoria,8.9823292,,38.7344209
0,node/10902267338,Mekanisa,8.9729293,,38.7311351
0,node/10902267339,Mekanisa,8.9728812,,38.7312498
0,node/10902267340,Gebriel Bridge,8.9555964,,38.732719
0,node/10903393900,58 Mazoria,8.9432326,,38.7539257
0,node/10903398373,Varnelo Squer,8.9487486,,38.7267004
0,node/10903398374,Jemmo 1,8.9594798,,38.7117668
0,node/10903398375,Jemmo 1,8.9585188,,38.712128
0,node/10903398376,Jemmo Medhanialem,8.9524535,,38.7161087
0,node/10903398377,Jemmo Medhanialem,8.9525568,,38.7162235
0,node/10903398378,Kebele,8.9490672,,38.7221583
0,node/10903398379,Kebele,8.9491872,,38.7221797
0,node/10903398380,Varnelo Squer,8.9488837,,38.7267159
0,node/10904734315,Sar Bet,8.9951163,,38.7373285
0,node/10904734316,Austria Embassy,8.9936468,,38.7276618
0,node/10904734318,Total 3 Kuter Mazoria,8.9922476,,38.7177291
0,node/10905160356,Autobus Tera,9.0330017,,38.7322404
0,node/10905160357,Autobus Tera,9.033026,,38.7323851
0,node/10905160358,Sebategna,9.0282768,,38.7329553
0,node/10905160359,Sebategna,9.0283274,,38.7331326
0,node/10905160360,Abenet,9.021201,,38.7333187
0,node/10905160361,Abenet,9.0196344,,38.7335682
0,node/10905160362,Darmar,9.0158211,,38.7346366
0,node/10905160363,Darmar,9.0154497,,38.7347971
0,node/10905160364,Lideta Condominium,9.0133778,,38.7343382
0,node/10905160365,Lideta Condominium,9.0133623,,38.7345056
0,node/10905160366,Dessie Hotel,9.0094187,,38.7337879
0,node/10905160367,Dessie Hotel,9.0093029,,38.7339331
0,node/10905160368,Lideta,9.0046165,,38.7337058
0,node/10905160369,Lideta,9.0041332,,38.7338158
0,node/10905160370,AU (Mikael) Rounrdabout,9.0001611,,38.7393722
0,node/10905160371,AU (Mikael) Rounrdabout,8.9999889,,38.7400667
0,node/10905641592,Kera,8.9839514,,38.7518897
0,node/10905771998,Jemmo 1,8.9606229,,38.7123799
0,node/10905771999,Jemmo Mickael,8.9688439,,38.7216431
0,node/10905772000,Metrology,9.0192423,,38.7468034
0,node/10905772001,karl Square,8.9969985,,38.7304143
0,node/10905772002,Bisrate Gebrael,8.9883364,,38.7227062
0,node/10905772003,Jemmo Mickael,8.9687533,,38.7218663
0,node/10905772004,Jemmo 1,8.9604031,,38.7124299
0,node/10905866700,Noc,8.9493317,,38.6701812
0,node/10905876026,Alem Gena,8.9339514,,38.6639521
0,node/10905876027,Alem Gena,8.933851,,38.6640124
0,node/10905876029,Noc,8.9493415,,38.670031
0,node/10905876030,Jemmo 3 Squer,8.9538566,,38.6965362
0,node/10905876031,Jemmo 3 Squer,8.9552123,,38.697557
0,node/10905982178,Post Office,9.0220649,,38.7520387
0,node/10905982179,Germen Square,8.9652918,,38.732839
0,node/10905982180,Germen Square,8.9664306,,38.7325545
0,node/10906020778,Gofa,8.9717027,,38.7418952
0,node/10906020779,Gofa,8.9716231,,38.7419996
0,node/10906074341,Ayer Tena,8.9816221,,38.6979766
0,node/10906074342,Germen Square,8.9644965,,38.7320917
0,node/10906074343,Germen Square,8.9646595,,38.732112
0,node/10907679395,Mesked,8.9883638,,38.6922765
0,node/10907679396,Kidane Mihret,8.9913917,,38.6893136
0,node/10907679398,Tropical,8.9958978,,38.683541
0,node/10907679399,Alem Bank,9.0003808,,38.677926
0,node/10907679400,Alem Bank,9.0010321,,38.6776565
0,node/10907679401,Tropical,8.9957016,,38.6841485
0,node/10907679402,Kidane Mihret,8.9915373,,38.689491
0,node/10907679403,Mesked,8.9884696,,38.6925125
0,node/10907679404,Chaina Camp,8.9757717,,38.7060819
0,node/10907725405,Zenebewerk,8.9730472,,38.7121867
0,node/10907725406,Mickael Bridge,8.9655559,,38.7275949
0,node/10907781477,Germen Square,8.9648278,,38.7333383
0,node/10907781478,Kera,8.9844811,,38.7500865
0,node/10907781479,Kera,8.9842955,,38.750364
0,node/10907781480,Gofa Gebriel,8.9770976,,38.7490157
0,node/10907781481,Gofa Gebriel,8.9770919,,38.7491174
0,node/10908143594,Mekanisa Abo,8.9832814,,38.7343726
0,node/10908143595,Mekanisa Abo,8.9830621,,38.7341531
0,node/10908143596,Mexico,9.0088673,,38.7440188
0,node/10908143597,Mexico,9.0088181,,38.7438
0,node/10908191497,Tewodros Square,9.0263912,,38.7516402
0,node/10908191498,Mekanisa,8.9739466,,38.7321651
0,node/10908191499,Mekanisa,8.9738507,,38.7322539
0,node/10908191500,Post Office,9.0187971,,38.7524753
0,node/10908661149,Mebrathile,8.9493572,,38.7334477
0,node/10909186645,Coca Cola,9.0159317,,38.729496
0,node/10909186646,Merab Hotel,9.0294352,,38.735361
0,node/10909186647,Abenet,9.0213907,,38.7334955
0,node/10909186648,Merab Hotel,9.0293588,,38.7353749
0,node/10909186649,Kolfe Keranyo,9.016555,,38.7180312
0,node/10909186650,Holand,9.0203575,,38.7159578
0,node/10909186651,Holand,9.0204824,,38.7162551
0,node/10909186652,Kolfe Keranyo,9.017036,,38.7176312
0,node/10909186653,Kolfe Keranyo,9.0171583,,38.7179346
0,node/10909186654,Torhayloch,9.0122446,,38.7202541
0,node/10909186655,Torhayloch,9.0120497,,38.7202419
0,node/10909186657,Keranio Mewcha,9.0134653,,38.7097752
0,node/10909186658,Keranio Mewcha,9.0133225,,38.7097861
0,node/10909186659,Mewcha,9.0140592,,38.7049946
0,node/10909186660,Mewcha,9.0139288,,38.7050058
0,node/10909186661,Mendida,9.0153205,,38.6994498
0,node/10909186662,Mendida,9.0151509,,38.6995858
0,node/10909186663,Betel,9.0037697,,38.6937692
0,node/10909186664,Betel,9.0036921,,38.6937746
0,node/10909186665,Alem Bank,9.0017481,,38.6775777
0,node/10909186666,Alem Bank,9.0016995,,38.677633
0,node/10911198617,Zenebewerk,8.9868549,,38.7080844
0,node/10911198618,Zenebewerk,8.9867824,,38.7081829
0,node/10911198619,Ayer Tena,8.9838366,,38.6961361
0,node/10911242345,Mexico Shebelle Hotel,9.0114518,,38.7446969
0,node/10911242346,Mexico Shebelle Hotel,9.0114526,,38.7445773
0,node/10911242347,Lideta,9.0117415,,38.7336365
0,node/10911242348,Lideta,9.0115482,,38.7336469
0,node/10911242349,Alem Bank,9.001869,,38.6772002
0,node/10911242350,Alem Bank,9.0018954,,38.6769434
0,node/10911695404,Ayer Tena,8.9834957,,38.7007283
0,node/10911717876,Betel,9.0044227,,38.6943792
0,node/10911717877,Betel,9.0043939,,38.6942024
0,node/10911725505,Ayer Tena,8.9831049,,38.6982237
0,node/10912835918,Zenebewerk,8.9879977,,38.7080303
0,node/10912835920,Zenebewerk,8.9880219,,38.7079594
0,node/10913852032,Mebrat Haile,9.0295143,,38.714679
0,node/10913852033,Mebrat Haile,9.0294826,,38.7149385
0,node/10913852034,18 Mazoria,9.0334554,,38.7146172
0,node/10913852035,18 Mazoria,9.0334598,,38.714468
0,node/10913863174,Abenet,9.0196268,,38.7327435
0,node/10913863175,Abenet,9.0194053,,38.7327231
0,node/10913863176,Coca Cola,9.0159095,,38.7296372
0,node/10913863177,Torhayloch,9.0117875,,38.7222401
0,node/10913863178,Torhayloch,9.0096837,,38.7208808
0,node/10913863179,Augusta Bridge,9.0056583,,38.7185634
0,node/10913863180,Augusta Bridge,9.0055925,,38.7188581
0,node/10913863181,Old Airport,9.0000925,,38.7188599
0,node/10913863182,Old Airport,8.9998426,,38.7191188
0,node/10913863183,3 Kutir Mazoriya (Total),8.9932525,,38.7170227
0,node/10913863184,3 Kutir Mazoriya (Total),8.9926315,,38.7158494
0,node/10913974717,Kara Kore,8.9756363,,38.6817486
0,node/10913974718,Kara Kore,8.9754096,,38.6814462
0,node/10913974719,Gerar,8.9813701,,38.6894126
0,node/10913974720,Gerar,8.9813486,,38.6894421
0,node/10913974721,Ayer Tena,8.9829716,,38.6982009
0,node/10914160973,Mexico,9.0116587,,38.746198
0,node/10914160974,Mexico,9.0102476,,38.7438026
0,node/10914160976,Zenebewerk,8.987734,,38.708928
0,node/10914160977,Zenebewerk,8.9849086,,38.7049751
0,node/10914680945,Zenebewerk Meneharia,8.9853381,,38.7053463
0,node/10914680946,Zenebewerk Meneharia,8.9852574,,38.7056363
0,node/10914784456,Atena Tera,9.0417169,,38.71237
0,node/10914784457,Atena Tera,9.0414427,,38.7127192
0,node/10915613002,Tekle Haimanot,9.028352,,38.7426711
0,node/10915613003,Tekle Haimanot,9.0281855,,38.742622
0,node/10915905485,Asko,9.0658063,,38.6937551
0,node/10915905486,Asko,9.065919,,38.6937141
0,node/10915905487,Chereta,9.0612502,,38.7010467
0,node/10915905488,Chereta,9.0612523,,38.7011727
0,node/10915905489,Gulele Fana,9.0575666,,38.7069671
0,node/10915905490,Gulele Fana,9.0576638,,38.7070447
0,node/10915905491,Awolia,9.0572628,,38.7114229
0,node/10915905492,Awolia,9.0576104,,38.7116493
0,node/10915905493,Winget,9.0555179,,38.7124522
0,node/10915905494,Winget,9.0554488,,38.7127252
0,node/10918141989,Kokebe,9.018116,,38.6993091
0,node/10918141990,Kokebe,9.0178995,,38.6991634
0,node/10918141991,Yeshi Debele,9.0188526,,38.6969603
0,node/10918141992,Yeshi Debele,9.0185806,,38.6972043
0,node/10918141993,Keranio Adebabay,9.0177704,,38.7017975
0,node/10918141994,Keranio Adebabay,9.0176839,,38.7006617
0,node/10918141995,Medhanalem,9.0178222,,38.7049143
0,node/10918141996,Medhanalem,9.0175512,,38.7047128
0,node/10918245686,Torhayloch,9.0115804,,38.7208703
0,node/10918245687,Torhayloch,9.0099639,,38.720685
0,node/10918314820,Torhayloch,9.0114229,,38.7225031
0,node/10918339958,Torhayloch,9.0128836,,38.7206095
0,node/10922141942,Legehar,9.0118511,,38.7544283
0,node/10923884107,Zebera,9.0691686,,38.7174162
0,node/10923884109,Addisu Gebeya,9.0630022,,38.7350114
0,node/10923884110,Addisu Gebeya,9.0625854,,38.7352489
0,node/10923884111,Bera Tera,9.0670589,,38.725597
0,node/10923884112,Zebera,9.0689759,,38.7174444
0,node/10923941250,Addisu Gebeya,9.0594889,,38.7374564
0,node/10923941251,Addisu Gebeya,9.059208,,38.7379019
0,node/10923941252,Semen Mazegaga,9.0528165,,38.7431266
0,node/10923941253,Semen Mazegaga,9.0528691,,38.7432318
0,node/10923941254,Shola,9.0483987,,38.7461562
0,node/10923941255,Shola,9.0484505,,38.7462522
0,node/10923941256,Semen Hotel,9.0446634,,38.7483104
0,node/10923941257,Semen Hotel,9.0446029,,38.7485012
0,node/10923941258,Yohanes,9.0425995,,38.745274
0,node/10923941259,Yohanes,9.0425158,,38.7453414
0,node/10923941260,Eritrea Hotel,9.0346843,,38.7394065
0,node/10923941261,Eritrea Hotel,9.0347991,,38.7393526
0,node/10924087993,Medhanalem,9.0552727,,38.7517928
0,node/10924087994,Medhanalem,9.0552441,,38.7518851
0,node/10924087995,Chelote,9.0520868,,38.7497489
0,node/10924087996,Chelote,9.0521299,,38.7496604
0,node/10924087997,Shola,9.0479898,,38.746423
0,node/10924087998,Shola,9.0480732,,38.7465175
0,node/10924088002,St. George Church,9.0385287,,38.7516855
0,node/10924088003,St. George Church,9.0385651,,38.7518109
0,node/10924088004,Piassa,9.0365922,,38.7521881
0,node/10924116805,Piassa,9.0341764,,38.7533491
0,node/10924116806,Kechenie,9.0650022,,38.7492165
0,node/10924116808,Kechenie,9.0652677,,38.7497807
0,node/10924211089,Shegole,9.0639755,,38.7268465
0,node/10924211090,Shegole,9.0640548,,38.7269586
0,node/10924211093,Rufael,9.0590346,,38.7274953
0,node/10924211094,Rufael,9.0590438,,38.7274376
0,node/10924211095,Tureta Deldy,9.0544658,,38.7329754
0,node/10924211096,Tureta Deldy,9.054531,,38.7330307
0,node/10924211097,Enqulal Fabrica,9.0492619,,38.7377403
0,node/10924211098,Enqulal Fabrica,9.0492678,,38.7378298
0,node/10924212637,Ras Desta,9.0444679,,38.7440337
0,node/10924212638,Ras Desta,9.0444022,,38.7439161
0,node/10924212640,Sebara Babur,9.0375917,,38.7483682
0,node/10924212641,Abune Petros,9.0358617,,38.749271
0,node/10924212642,Abune Petros,9.0359205,,38.7494119
0,node/10924212643,Yohanes,9.04258,,38.7458165
0,node/10924212644,Yohanes,9.0426863,,38.7459326
0,node/10924342466,Shola Abyssinia Bank,9.0230837,,38.79823
0,node/10924342467,British Embassy,9.0307347,,38.7854804
0,node/10924342468,Menelik II Hospital,9.0385889,,38.7730468
0,node/10924342469,Menlik Hospital,9.0385052,,38.7728666
0,node/10924342470,6 Kilo,9.0437871,,38.761858
0,node/10924342471,6 Kilo,9.0453786,,38.7613161
0,node/10924981547,Piassa,9.0352542,,38.7527884
0,node/10924981836,Kazanchis,9.0168504,,38.7714084
0,node/10924981837,Kazanchis,9.0167816,,38.7712817
0,node/10924981839,Meneharya,9.0199981,,38.767286
0,node/10924981840,6 Kilo,9.0462061,,38.7614317
0,node/10924981841,6 Kilo,9.046202,,38.7615616
0,node/10925096455,6 Kilo (Lion Zoo),9.0430636,,38.7613028
0,node/10925096457,Medhanalem,9.0509212,,38.7621679
0,node/10925096458,Shiromeda,9.0609308,,38.7616364
0,node/10925096459,Shiromeda,9.0610296,,38.7618074
0,node/10925161777,Abune Petros,9.0350989,,38.7493321
0,node/10925161778,Abune Petros,9.0353615,,38.7492809
0,node/10925161780,St. George Total,9.0385895,,38.7526253
0,node/10925161781,Raguel Church,9.0338335,,38.7411822
0,node/10925161782,Raguel Church,9.0340374,,38.7413278
0,node/10925161783,Piassa,9.0352768,,38.7491307
0,node/10925161784,Piassa,9.0350881,,38.749266
0,node/10925195639,Mexico,9.0115722,,38.7462619
0,node/10925695034,Winget,9.0572967,,38.7130281
0,node/10925695035,Winget,9.0576478,,38.7136024
0,node/10925835130,Shegole,9.0630668,,38.7201372
0,node/10925835131,Shegole,9.0630578,,38.7201639
0,node/10925835153,Medhanalem,9.051016,,38.7226821
0,node/10925835154,Medhanalem,9.0512021,,38.7228048
0,node/10925835155,Pawlos Hospital,9.047368,,38.7275912
0,node/10925835156,Pawlos Hospital,9.0474739,,38.7277025
0,node/10925835157,Pastor,9.0462435,,38.7306013
0,node/10925835158,Pastor,9.0460773,,38.7305979
0,node/10925835159,Michael,9.041653,,38.7324674
0,node/10925835160,Michael,9.0418749,,38.732621
0,node/10925835161,Autobus Tera,9.0356953,,38.731876
0,node/10925835162,Autobus Tera,9.0357033,,38.731937
0,node/10925946103,Summit Condominiums,8.9844426,,38.8548285
0,node/10925946104,Summit Condominiums,8.9909634,,38.8525995
0,node/10925966505,Meshageria,9.0206981,,38.8598883
0,node/10925966506,Derartu Adebabay,9.0212039,,38.8751635
0,node/10925966507,Derartu Adebabay,9.0215357,,38.8751433
0,node/10925966508,Gebreal,9.0403679,,38.8773377
0,node/10925966509,Gebreal,9.0402783,,38.8778174
0,node/10925966510,Aba Kiros,9.0556843,,38.8778648
0,node/10925966511,Aba Kiros,9.0561259,,38.8785325
0,node/10926028111,Bole Arabsa,8.9732139,,38.8903446
0,node/10926028112,Bole Arabsa,8.9726241,,38.8904396
0,node/10926028113,Maseltegna,8.9932453,,38.8850892
0,node/10926028114,Maseltegna,8.9932023,,38.8854551
0,node/10926028115,Sun shine,9.0100814,,38.8780839
0,node/10926028116,Sun shine,9.0100956,,38.8779385
0,node/10926028117,Ayat,9.0215285,,38.8770142
0,node/10926040103,Mariam,8.9875932,,38.8848989
0,node/10926040104,Mariam,8.9875847,,38.8852531
0,node/10926074605,Ayat,9.0212341,,38.8767405
0,node/10926094674,Summit Condominiums,8.9910294,,38.8529201
0,node/10926094675,Megenagna,9.0195894,,38.8033659
0,node/10926817920,Megenagna,9.0203394,,38.8038784
0,node/10926817921,Tafo Square,9.057063,,38.8779123
0,node/10926817922,Tafo Square,9.0566681,,38.8780073
0,node/10926849848,Sun shine,9.0021737,,38.8763861
0,node/10926849849,Summit Chafe,9.0011674,,38.8537813
0,node/10926849850,Summit Chafe,9.0015569,,38.8537842
0,node/10926849851,Goro,8.9918731,,38.8299549
0,node/10926849852,Goro,8.9917492,,38.8303339
0,node/10926896755,Se'alite Mihret,9.0194791,,38.8256621
0,node/10926896756,Se'alite Mihret,9.0198404,,38.8254269
0,node/10926896757,Ayat Chefe Condominium,9.0109362,,38.8944977
0,node/10926896758,Ayat Chefe Condominium,9.0113892,,38.8946434
0,node/10928177661,Ayat,9.0207778,,38.8758009
0,node/10928876312,Summit Condominiums,8.9846036,,38.854445
0,node/10928876313,Summit Condominiums,8.9844416,,38.8548242
0,node/10929299420,Tewodros Square,9.0273248,,38.751565
0,node/10929299421,Tewodros Square,9.0273553,,38.7517149
0,node/10929299422,Tikur Anbesa,9.0209798,,38.7480915
0,node/10929337801,Mexico,9.0105347,,38.7449001
0,node/10929337802,Stadium,9.0119557,,38.7559408
0,node/10929337803,Stadium,9.0121328,,38.7559437
0,node/10929412718,Megenagna,9.0195364,,38.8009614
0,node/10929412719,Megenagna,9.0190569,,38.8005907
0,node/10929412721,22 Mazoria,9.0155693,,38.787267
0,node/10929694820,Lem Hotel,9.0211986,,38.7940688
0,node/10929694821,Lem Hotel,9.0210828,,38.7939939
0,node/10929694822,Signal,9.0235014,,38.7815067
0,node/10929694823,Signal,9.0233755,,38.781471
0,node/10929694824,Abuare Gebeya,9.0280712,,38.7718347
0,node/10929694825,Abuare Gebeya,9.0279894,,38.7718123
0,node/10929694826,Tewodros Square,9.0270034,,38.7520638
0,node/10929694827,Tewodros Square,9.0268625,,38.7520149
0,node/10929694828,Tekle Haimanot,9.0285216,,38.744541
0,node/10929694829,Tekle Haimanot,9.0284531,,38.74454
0,node/10929694830,Megenagna,9.020064,,38.8009431
0,node/10929694831,Megenagna,9.0200336,,38.8005994
0,node/10929752934,Torhayloch,9.0127448,,38.7209032
0,node/10931788261,Megenagna,9.0225048,,38.7998465
0,node/10931788262,Megenagna,9.021325,,38.8010821
0,node/10931809323,Kotebe,9.0303308,,38.8385778
0,node/10931809324,Se'alite Mihret,9.0284671,,38.8331547
0,node/10931809325,Se'alite Mihret,9.0283689,,38.833187
0,node/10931809326,Lamberet,9.0216042,,38.8139293
0,node/10931809327,Lamberet,9.0214909,,38.813953
0,node/10931809328,Kara,9.0404534,,38.8642169
0,node/10931809329,Kara,9.0404001,,38.864319
0,node/10931809330,Megenagna,9.0216983,,38.8015712
0,node/10931850027,Megenagna,9.0224128,,38.799743
0,node/10931850028,Kokebe Tsebah (Kebena),9.0344299,,38.7799581
0,node/10931884718,4 Kilo,9.036142,,38.7628341
0,node/10931884719,Ferensay,9.0571169,,38.7769686
0,node/10931884720,Ferensay,9.0570142,,38.7769596
0,node/10931884721,Mezan,9.0535366,,38.7722195
0,node/10931884722,Mezan,9.0535794,,38.7721316
0,node/10931884723,Jan Meda,9.0470261,,38.7690665
0,node/10931884724,Jan Meda,9.0471196,,38.7690208
0,node/10931937848,Megenagna,9.0180915,,38.8021444
0,node/10931937849,Kadisco,8.9633989,,38.766754
0,node/10931995346,Kebena,9.0347501,,38.776629
0,node/10932040828,6 Kilo,9.0435664,,38.7618099
0,node/10932040829,St. George Total,9.0386325,,38.7526555
0,node/10932040830,St. George Total,9.038614,,38.7527659
0,node/10932115661,Lem Hotel,9.017586,,38.7950974
0,node/10932115662,Lamberet,9.0239221,,38.8198719
0,node/10932115666,Mexico,9.0107374,,38.7471612
0,node/10932115667,Mexico,9.0104411,,38.7467607
0,node/10933668851,Shola Gebeya,9.0249902,,38.796095
0,node/10933668852,Shola Gebeya,9.0253078,,38.7963986
0,node/10933668868,Beg Tera,9.0290044,,38.8021516
0,node/10933668869,Beg Tera,9.0289126,,38.802143
0,node/10933668870,Zebera,9.0315916,,38.8093843
0,node/10933668871,Zebera,9.0314928,,38.8094344
0,node/10933668873,Kidane Mihret,9.0355162,,38.818742
0,node/10933668874,Kidane Mihret,9.0355971,,38.8186176
0,node/10933970678,St. Urael Church,9.0113969,,38.7750759
0,node/10933970679,St. Urael Church,9.0110384,,38.7752362
0,node/10934121405,Atlas,9.004269,,38.7797684
0,node/10934121406,Atlas,9.0041884,,38.779678
0,node/10934121407,St. Urael Church,9.0103387,,38.7748368
0,node/10934121408,St. Urael Church,9.0104642,,38.7749361
0,node/10934142102,Kera,8.9843274,,38.7518505
0,node/10934142103,Kera,8.9840695,,38.7515846
0,node/10934274056,4 Kilo,9.0324426,,38.7632997
0,node/10934274058,St. Estifanos,9.012454,,38.762845
0,node/10934274059,Buna Ena Shay,9.0109591,,38.7482685
0,node/10934274060,Buna Ena Shay,9.0106827,,38.748215
0,node/10936313832,4 Kilo,9.032283,,38.7645933
0,node/10936313833,4 Kilo,9.0323383,,38.7648081
0,node/10936490562,Sebategna,9.0289759,,38.7321818
0,node/10936490563,Sebategna,9.028913,,38.7322093
0,node/10936490564,Amanuel Total,9.0258457,,38.7211312
0,node/10936490565,Amanuel Total,9.0258301,,38.721144
0,node/10936621813,Winget,9.0576027,,38.7131944
0,node/10936724096,Enqulal Fabrica,9.0486146,,38.7375414
0,node/10936724097,Enqulal Fabrica,9.0485559,,38.7377157
0,node/10937101933,karl Square,8.9975486,,38.731079
0,node/10937167108,6 Kilo,9.0442105,,38.7610795
0,node/10937167109,6 Kilo,9.0442026,,38.7614376
0,node/10937209934,Kera,8.9877236,,38.7484685
0,node/10937271651,Kechenie,9.0652788,,38.7497785
0,node/10961301939,Mesalemia,9.033877,,38.7252968
0,node/10961301940,Mesalemia,9.0339779,,38.7255313
0,node/10961301941,Merkato,9.0338527,,38.7312096
0,node/10961301942,Merkato,9.0337645,,38.7312282
0,node/10961408041,Tekle Haimanot,9.028926,,38.7433286
0,node/10961408042,Abuare Roundabout,9.0264526,,38.7757907
0,node/10961408043,Abuare Roundabout,9.0265186,,38.7759091
0,node/10961408397,Keranio Adebabay,9.0178983,,38.7007101
0,node/10961408398,Mendida,9.014972,,38.7004401
0,node/10961408399,Mendida,9.0151204,,38.7004576
0,node/10963292174,Bole Medhanyalem,8.9983425,,38.7860616
0,node/10963292175,Bole Medhanyalem,8.9984526,,38.7862416
0,node/10963817572,Weybla Mariam,9.0231558,,38.688451
0,node/10963817573,Weybla Mariam,9.0233344,,38.6882249
0,node/10963932669,22 Mazoria,9.0159879,,38.7889432
0,node/10964879159,Bisrate Gebrael,8.9884101,,38.7226406
0,node/10970584167,Luwkanda,9.0333084,,38.7086432
0,node/10970584168,Luwkanda,9.0332835,,38.7086485
0,node/10970584169,18 Mazoria,9.0335266,,38.7126753
0,node/10970584170,18 Mazoria,9.0335023,,38.7126794
0,node/10970584171,Abysinia Coffee,9.0372905,,38.7164132
0,node/10970584172,Abysinia Coffee,9.037294,,38.7164416
0,node/10970748190,18 Mazoria,9.0337305,,38.7149465
0,node/10970748192,4 Menta Adebabay,9.0515413,,38.7087797
0,node/10970748193,4 Menta Adebabay,9.0514981,,38.7088057
0,node/10970748194,Tero Mosque,9.0503697,,38.7058937
0,node/10970748195,Tero Mosque,9.0503743,,38.7058901
0,node/10970823802,Sebategna,9.0294218,,38.7327781
0,node/10970823803,Sebategna,9.0294686,,38.732906
0,node/10970829160,Piassa Arada,9.0350955,,38.7492677
0,node/10970912911,Piassa Arada,9.033556,,38.7535518
0,node/10970912912,Rufael,9.0542225,,38.6992026
0,node/10970912913,Rufael,9.0542148,,38.6992201
0,node/10973319411,Selefia Mosque,8.9922493,,38.6737826
0,node/10973319412,Selefia Mosque,8.9922388,,38.6737682
0,node/10973319413,Piassa Arada,9.0343357,,38.7498429
0,node/10973319414,Piassa Arada,9.0343492,,38.749831
0,node/10973319416,Shiromeda,9.0610285,,38.7606274
0,node/10973319417,Shiromeda,9.0610076,,38.760666
0,node/10973446898,Akaki Gebeya,8.8697296,,38.7886493
0,node/10973446899,Akaki Gebeya,8.8697306,,38.7886284
0,node/10973446900,Meshualekya,8.8769296,,38.7864676
0,node/10973631794,Mebrathayil,8.9482942,,38.734517
0,node/10973631795,Mebrathayil,8.9481457,,38.7344951
0,node/10973631797,Lafto,8.9473757,,38.7443373
0,node/10973672014,Yeshi Total,8.8667554,,38.798935
0,node/10973929780,Megenagna,9.0206661,,38.8028464
0,node/10973929781,Biretabret,9.0339313,,38.8234705
0,node/10973929783,Hanna Mariam,9.0375694,,38.8316053
0,node/10973929784,Hanna Mariam,9.037593,,38.8316071
0,node/10973929786,Kotebe Teachers College,9.0374618,,38.8388573
0,node/10973929787,Kotebe Gebriel,9.0390977,,38.8505525
0,node/10973929788,Kotebe Gebriel,9.039072,,38.8505551
0,node/10973960231,Kotebe,9.0357328,,38.8279461
0,node/10973960232,Kotebe,9.035744,,38.8279666
0,node/10973960233,Kebena,9.0343234,,38.7769466
0,node/10974036529,Yeka Abado,9.0637787,,38.8735567
0,node/10974036530,Yeka Abado,9.0638007,,38.8734371
0,node/10989247669,Taxi Tera,8.9948109,,38.8092174
0,node/10989247670,Bole Bridge,8.9888698,,38.7945353
0,node/10989247671,Summit,9.0048732,,38.8517594
0,node/10989247672,Summit,9.0050343,,38.8520615
0,node/10989247673,Medhanalem,9.0005807,,38.838022
0,node/10989247674,Medhanalem,9.0002413,,38.8382224
0,node/10989306740,Bole Mickael,8.9791887,,38.7737291
0,node/10989306742,Bole Mickael,8.979439,,38.7732491
0,node/10989306744,Riventy,8.9647488,,38.798111
0,node/10989306745,Riventy,8.9647649,,38.7981165
0,node/10989322788,Lomi Meda,9.0437261,,38.6991226
0,node/10989322789,Philiphs,9.0423415,,38.7046602
0,node/10989322790,Philiphs,9.0423523,,38.7046599
0,node/10989322793,Atena Tera,9.0417345,,38.7116329
0,node/10989322794,Atena Tera,9.0417198,,38.7116327
0,node/10989352901,Atena Tera,9.0418861,,38.7128543
0,node/10989352903,Atena Tera,9.0419946,,38.7136815
0,node/10989352904,Kolfe,9.037404,,38.7169566
0,node/10989388405,Kolfe,9.0373552,,38.7170428
0,node/10989388406,Chid Tera,9.0376969,,38.7213864
0,node/10989388407,Chid Tera,9.0375624,,38.7215618
0,node/10989495135,Tourist Hotel,9.0339795,,38.760933
0,node/10989495136,Tourist Hotel,9.0331899,,38.7627083
0,node/10989495137,St. George Church,9.0365466,,38.7522109
0,node/10989495138,St. George Church,9.0365649,,38.7524292
0,node/10989606497,Amanuel Church,9.0280891,,38.723026
0,node/10989606498,Amanuel Church,9.0280827,,38.7230514
0,node/10989606501,Mesalemia,9.0330957,,38.7246409
0,node/10989606502,Mesalemia,9.0330994,,38.7246228
0,node/10989606503,Coca Cola,9.0170151,,38.729182
0,node/10989606504,Coca Cola,9.0169029,,38.7293902
0,node/10989700748,Tikur Anbesa,9.0216869,,38.7477611
0,node/10989700750,Tikur Anbesa,9.0214822,,38.7476433
0,node/10989765272,Megenagna,9.0198621,,38.8028176
0,node/10991706244,Tourist Hotel,9.0331305,,38.7619614
0,node/10991706246,Ambasader,9.018399,,38.7538719
0,node/10991706247,Ambasader,9.0182782,,38.7539744
0,node/10991763449,Manen,9.0515112,,38.7588533
0,node/10991763450,Manen,9.0515112,,38.7588598
0,node/10992050085,Selam Building,8.883961,,38.776766
0,node/10992073740,Saris Abo,8.944348,,38.7693473
0,node/10992247910,Selam Building,8.883111,,38.7772664
0,node/10992247911,Gelan Condominium,8.8801893,,38.768463
0,node/10992247913,Gelan Condominium,8.8801651,,38.7684764
0,node/10994789635,Breta bret,8.8738823,,38.7887302
0,node/10994942333,Akaki CBE,8.867782,,38.7888076
0,node/10994942334,Akaki CBE,8.8679415,,38.7887141
0,node/10995013009,Mexico,9.0098456,,38.7462885
0,node/10995013010,Lafto,8.9470636,,38.7443751
0,node/10995013013,Lafto (Mickael),8.9537702,,38.7504178
0,node/10995113524,Woyira Sefer,9.0051854,,38.7070388
0,node/10995113525,Woyira Sefer,9.0050595,,38.7068721
0,node/10996939227,Total 3 Kutir mazoria,8.9932233,,38.7170312
0,node/10997112356,Mebrat,8.9671943,,38.7486669
0,node/10997112357,Mebrat,8.9671522,,38.7487468
0,node/10997112358,Biharetsege,8.9621911,,38.7515775
0,node/10997112359,Biharetsege,8.9622089,,38.7515885
0,node/10997112361,Adey Abeba,8.9576758,,38.7631284
0,node/10997112362,Adey Abeba,8.9576954,,38.7631332
0,node/10997112364,Gofa Gebriel,8.9758799,,38.7488713
0,node/10997112365,Gofa Gebriel,8.9758721,,38.7489751
0,node/10997125769,Abenet,9.0196301,,38.7332825
0,node/10997242295,Weleta,8.963665,,38.6708623
0,node/10997242296,Weleta,8.9636677,,38.6708779
0,node/10997242298,Weleta Tele,8.9666342,,38.6731812
0,node/10997242299,Repi Highschool,8.9764681,,38.6774372
0,node/10997242300,Repi Highschool,8.9765185,,38.6774017
0,node/10997243557,Sara Ampol,9.0576594,,38.8741609
0,node/10997243558,Sara Ampol,9.0575648,,38.874351
0,node/10997243559,Kara Condominium,9.0480764,,38.8693718
0,node/10997243560,Kara Condominium,9.0480356,,38.8695015
0,node/10997360870,Torhayloch,9.0107982,,38.7207531
0,node/10997382833,Mexico,9.0114511,,38.7447026
0,node/10997382834,Mexico,9.0114533,,38.7445835
0,node/10997495133,Mexico,9.01285,,38.7440492
0,node/10997495134,Mexico,9.01282,,38.74405
0,node/10997495135,Darmar,9.0163639,,38.7345884
0,node/10998041498,Piassa Arada,9.0329801,,38.7545702
0,node/10998041499,Piassa Arada,9.0334582,,38.7537202
0,node/10998041503,Shola,9.025295,,38.7949306
0,node/10998041504,Shola,9.0251357,,38.7947575
0,node/11033818190,Kality Meneharia,8.8954024,,38.7722516
0,node/11033818192,Kality Maseltegna,8.9361073,,38.7642175
0,node/11033818193,AU (Mikael) Rounrdabout,8.9994656,,38.7406449
0,node/11033818195,Mexico,9.0089885,,38.7438741
0,node/11033818196,Mexico,9.0089241,,38.7440373
0,node/11033818197,Bulgaria Mazoria,8.9945922,,38.7474194
0,node/11033818199,Autobis Tera,9.0316048,,38.7373077
0,node/11033818200,Autobis Tera,9.0299591,,38.7377146
0,node/11033903482,Kera,8.9864921,,38.7483364
0,node/11034015157,Saris Abo,8.9450004,,38.7661144
0,node/11034015158,Piassa Arada,9.0331054,,38.7522899
0,node/11034015159,Piassa Arada,9.0321742,,38.7511155
0,node/11034031010,Autobis Tera,9.03055,,38.7370369
0,node/11034031011,Shero Meda,9.0626384,,38.7612633
0,node/11034031012,Tsehay Chora (ShiroMeda),9.0583756,,38.7598757
0,node/11034031013,Abune Petros,9.0351037,,38.7493262
0,node/11034054993,Kuskoam,9.0777204,,38.7572407
0,node/11034209866,Arat Kilo,9.0321373,,38.7654122
0,node/11034280233,Kara Kore,8.9753965,,38.6806691
0,node/11034280234,Ayer Tena,8.9825611,,38.6960927
0,node/11034280236,Kara Kore,8.9753861,,38.6805349
0,node/11034427397,Lion Zoo (PEPSI Kiosk),9.0426561,,38.7614325
0,node/11034427398,Abo Mazoriya,9.0571131,,38.777181
0,node/11034427399,Yeha,9.0608545,,38.7835816
0,node/11034427400,Gurara,9.0622785,,38.7880233
0,node/11034427401,Gurara,9.0624066,,38.7888027
0,node/11034511605,Saris,8.9535755,,38.7634093
0,node/11034511606,Saris,8.9535945,,38.7636248
0,node/11034611751,Autobis Tera,9.0296904,,38.7371486
0,node/11034647605,Megenagna,9.0221498,,38.8004821
0,node/11035234709,Torhailoch,9.0115667,,38.7220211
0,node/11035240260,Chid Tera,9.0376857,,38.7214866
0,node/11035502832,Ayer Tena,8.9837379,,38.6971291
0,node/11035502833,Ayer Tena,8.9836981,,38.7015659
0,node/11035532608,Bisrate Gebrael,8.9914198,,38.7255627
0,node/11035607129,Zenebewerk Hotel,9.0191017,,38.7682089
0,node/11035607130,Estifanos,9.0107497,,38.7636411
0,node/11035607131,Lideta Condominium,9.0109263,,38.7386025
0,node/11035662205,Zenebework,8.9882771,,38.7080773
0,node/11035734852,Darmar,9.0165403,,38.7377271
0,node/11035734855,Hana Maryam,8.9270084,,38.7418753
0,node/11035818337,Bercheko Condominium,9.058672,,38.700756
0,node/11035914858,Alem Gena,8.9231915,,38.6529741
0,node/11035914859,Noc,8.9494175,,38.6701962
0,node/11035914860,Noc,8.9490541,,38.6699835
0,node/11035914861,Welete Tele,8.9665643,,38.6732105
0,node/11035914862,Welete,8.9635929,,38.6708945
0,node/11035914863,Weleta,8.9641803,,38.6707668
0,node/11035914864,Weleta Tele,8.9666144,,38.6731872
