stop_lat,stop_id,parent_station,stop_lon,stop_name,location_type
9.0210263001,way/604046026,,38.8504558,C.M.C,0
9.0209365501,way/604046027,,38.85044875,C.M.C,0
9.0206309001,way/604046028,,38.86039005,Meri,0
9.0205342501,way/604046029,,38.86039745,Meri,0
9.0212283001,way/604046052,,38.8717948,Ayat,0
9.0211369001,way/604046053,,38.87179745,Ayat,0
9.0213594001,way/758915882,,38.8426211,St. Michael,0
9.0214511001,way/758915883,,38.8426345,St. Michael,0
9.0208269001,way/758919087,,38.8284090499,Management Institute,0
9.0209051001,way/758919088,,38.8283603999,Management Institute,0
9.0216842501,way/758919089,,38.83479945,Civil Service College,0
9.0217686501,way/758919090,,38.83479775,Civil Service College,0
9.0104366001,way/758922739,,38.76879995,Bambis,0
9.0103406001,way/758922740,,38.76877485,Bambis,0
9.01099095,way/758922741,,38.77470515,St. Urael,0
9.0148321501,way/758922742,,38.7832101499,Hayahulet 2,0
9.0149132501,way/758922743,,38.7832128499,Hayahulet 2,0
9.0161997001,way/758922744,,38.7893457,Hayahulet 1,0
9.0162805001,way/758922745,,38.7893058,Hayahulet 1,0
9.0178812001,way/758922746,,38.7959009999,Lem Hotel,0
9.0179702501,way/758922747,,38.7958714999,Lem Hotel,0
9.0196319001,way/758922751,,38.8026662,Megenagna,0
9.0201812501,way/758922752,,38.81016615,Gurd Sholla 2,0
9.0202704501,way/758922753,,38.8101826,Gurd Sholla 2,0
9.0190550501,way/758922754,,38.8199118,Gurd Sholla 1,0
9.0191373501,way/758922755,,38.8199363,Gurd Sholla 1,0
9.0114466001,way/758926923,,38.7228792001,Tor Hailoch,0
9.0113509001,way/758926924,,38.7228400001,Tor Hailoch,0
9.0120903001,way/758926925,,38.72925215,Cocacola,0
9.0120082001,way/758926926,,38.72924475,Cocacola,0
9.0113260501,way/758926927,,38.7358812,St. Lideta,0
9.0114191001,way/758926928,,38.735902,St. Lideta,0
9.0104883001,way/758926929,,38.74251165,Tegbared,0
9.0105720501,way/758926930,,38.74252605,Tegbared,0
9.0110042001,way/758926931,,38.7486780499,Mexico,0
9.0111035001,way/758926932,,38.7486304499,Mexico,0
9.0118976001,way/758926933,,38.75364485,Leghar,0
9.0118055501,way/758926934,,38.7536616,Leghar,0
9.0119426001,way/758926935,,38.75765945,Stadium,0
9.0120396501,way/758926936,,38.75768125,Stadium,0
9.0109756501,way/758926937,,38.7633918,St. Estifanos,0
9.0110528501,way/758926938,,38.7634133,St. Estifanos,0
9.0341520001,way/759354435,,38.7383589,Gojam Berenda,0
9.0342421001,way/759354436,,38.73838775,Gojam Berenda,0
9.0345698501,way/759354437,,38.7469346,Atikilt Tera,0
9.0346634001,way/759354438,,38.7469217,Atikilt Tera,0
8.938011,way/759359409,,38.7631070001,Kality,0
8.93795435,way/759359410,,38.7630034001,Kality,0
8.94501825,way/759359411,,38.7663008501,Abo Junction,0
8.9449765,way/759359412,,38.7662190501,Abo Junction,0
8.9519971333,way/759359413,,38.7634466333,Saris,0
8.9519912333,way/759359414,,38.7633591333,Saris,0
8.9567954,way/759359415,,38.76388145,Adey Abeba,0
8.9568021,way/759359416,,38.76379965,Adey Abeba,0
8.9903485,way/759359417,,38.75926535,Lancha,0
8.9903366,way/759359418,,38.75916345,Lancha,0
8.9952452,way/759359419,,38.7598284334,Temenja Yazh,0
8.9952399,way/759359420,,38.7597271667,Temenja Yazh,0
9.0005732,way/759359421,,38.7587088,Riche,0
9.00058575,way/759359422,,38.7586096,Riche,0
9.00485825,way/759359423,,38.7588805,Meshwalekya,0
9.00486215,way/759359424,,38.7587524,Meshwalekya,0
9.0154149,way/759359425,,38.73475,Darmar,0
9.01542485,way/759359426,,38.73466315,Darmar,0
9.0212786,way/759359427,,38.73335125,Abnet,0
9.0212687,way/759359428,,38.73341865,Abnet,0
9.0283819,way/759359429,,38.73298775,Sebategna,0
9.0284011,way/759359430,,38.7330763,Sebategna,0
9.0340910501,way/759359431,,38.7329878,Autobus Tera,0
9.0340079501,way/759359432,,38.7329908,Autobus Tera,0
8.9731988,way/759365358,,38.7607979501,Nifas Silk 2,0
8.97316965,way/759365359,,38.7606849501,Nifas Silk 2,0
8.9657149,way/759365360,,38.7629963,Nifas Silk 1,0
8.96571355,way/759365361,,38.7628904,Nifas Silk 1,0
9.0165395,node/847244293,,38.7525538,Beherawi Theatre,0
9.0209237,node/847244423,,38.7521415,Black Lion,0
9.0344007,node/4832025024,,38.7632408,4 Kilo,0
9.0223057,node/4884374622,,38.8158571,Lamberet Terminal (Bus),0
8.9929728,node/5248250425,,38.738182,Sar Bet (Roundabout),0
9.0164409,node/5330678521,,38.7553162,Ambassador,0
9.0120276,node/5736089088,,38.7570321,Stadium,0
9.0295451,node/6251054285,,38.7146778,Mebrathail,0
9.0654733,node/6307600909,,38.6928185,Asko,0
8.9976331,node/6373574986,,38.7718334,Bole Printing Press,0
9.0331479,node/6728583386,,38.7516761,Arada,0
9.0167914,node/6728599185,,38.771456,Kazanchis,0
9.0094665,node/6814022390,,38.7444332,Mexico,0
8.9644773,node/6967142984,,38.7438796,Mebrat Condominium,0
8.9673396,node/6967165728,,38.7486643,Mebrat,0
8.9771232,node/6967179322,,38.7491221,Gofa Gebriel,0
8.9825519,node/6967179323,,38.7498599,Kera (Gofa Road),0
9.0277111,node/6967225474,,38.7516602,Tewodros Square,0
8.9655968,node/6967234177,,38.732897,German Square,0
8.9899905,node/6967281153,,38.7859995,Friendship Building,0
9.0319356,node/6967281241,,38.7512565,Piassa (Downtown Cafe),0
9.0330123,node/6967281242,,38.7526242,Piassa Arada (2),0
9.0418236,node/6967318740,,38.6217166,Gojo,0
9.0203188,node/7022361366,,38.8026673,Megenagna Terminal,0
8.9885373,node/7022397409,,38.7897496,Bole Millenium,0
8.9887535,node/7022397410,,38.789886,Bole Millenium,0
8.9937973,node/7022397411,,38.8267584,Goro School,0
8.9842788,node/7022397413,,38.8569434,Summit Condominiums,0
8.9842364,node/7022397414,,38.857122,Summit Condominiums,0
8.9720161,node/7022397416,,38.8906061,Bole Arabsa,0
8.9732168,node/7022397417,,38.8903477,Bole Arabsa,0
9.0561038,node/7022397418,,38.8785675,Aba Kiros Roundabout,0
9.0689298,node/7022397420,,38.875565,Yeka Abado,0
9.0688377,node/7022397421,,38.8756232,Yeka Abado,0
9.0626109,node/7037142410,,38.7894476,Gurara,0
9.026427,node/7037142414,,38.7757967,Abuare Roundabout,0
9.026504,node/7037142415,,38.7759255,Abuare Roundabout,0
9.0224201,node/7037142417,,38.8000289,Marathon Motor (Megenagna),0
9.060739,node/7037142419,,38.7836264,Yeha,0
9.0608445,node/7037142420,,38.7839285,Tena Tabya,0
9.0598571,node/7037142421,,38.7811505,Biret Dildiy (Bono Wuha),0
9.0599927,node/7037142422,,38.7810894,Bret Dildy (Bono Wuha),0
9.0042786,node/7037142423,,38.7797667,Atlas,0
8.9983386,node/7037142424,,38.7860596,Bole Medhanialem,0
8.9984556,node/7037142426,,38.7862428,Bole Medhanialem,0
9.0098865,node/7037142427,,38.800549,24,0
9.0221273,node/7037142428,,38.7866932,Dinberwa Hospital,0
9.0345238,node/7037142430,,38.7802113,Kokebe Tsebah School,0
9.034441,node/7037142431,,38.7799476,Kokebe Tsebah School,0
9.031876,node/7037142433,,38.7839469,Belgium Embassy,0
9.0311083,node/7037142434,,38.784892,British Embassy,0
9.0309087,node/7037142435,,38.7855544,British Embassy,0
9.0287538,node/7037142436,,38.7887162,Abebe Sook,0
9.0250779,node/7037142438,,38.7952986,Shola Gebeya,0
9.0244101,node/7037142439,,38.7961373,Yeka Michael,0
9.0180934,node/7037142441,,38.8021491,Megenagna,0
9.0182711,node/7037142442,,38.8017521,Megenagna,0
8.8869301,node/7037142443,,38.7818835,Derartu,0
8.8857405,node/7037142444,,38.7838224,Gelan Condominium,0
8.8844269,node/7037142445,,38.785591,08 Adarash,0
8.8768791,node/7037142446,,38.7865961,Meshuwalekia Akaki,0
8.8738843,node/7037142448,,38.7887478,Akaki Beretaberet,0
8.870907,node/7037142450,,38.8207065,G7 (Tulu Dimtu),0
8.8552763,node/7037142454,,38.8042339,Tulu Dimtu,0
8.8556159,node/7037142455,,38.8041524,Tulu Dimtu,0
8.8597556,node/7037142456,,38.7961539,Akaki Korkoro,0
8.8688691,node/7037142459,,38.8051915,Tulu Dimtu (Taf Gas Station),0
8.8722685,node/7037142460,,38.8136608,Arsema,0
8.8722281,node/7037142461,,38.8140262,Selam Sefer (Tapela Gar),0
8.8747821,node/7037142462,,38.8201689,Tulu Dimtu Adebabay,0
8.8658608,node/7037142464,,38.8218482,Project 12 Akababi,0
8.8592154,node/7037142465,,38.8148895,Mahiber Betoch,0
8.9869933,node/7037142466,,38.7912061,Bole Dildiy,0
9.02034,node/7037142467,,38.8000136,Megenagna / Zefmesh,0
9.0213214,node/7037142469,,38.8010735,Megenagna,0
9.0217137,node/7037142470,,38.8015921,Megenagna,0
9.0215363,node/7037142471,,38.8100422,Abysinia Cafe Area,0
9.0213396,node/7037142472,,38.810853,Abysinia Cafe Area,0
9.0196778,node/7037142474,,38.8132781,Century Mall,0
9.0187352,node/7037142475,,38.8215105,Gurd-shola,0
9.0239816,node/7037142476,,38.8192066,Menaheria,0
9.0238758,node/7037142477,,38.8192354,Menaheria,0
9.003632,node/7037142479,,38.814876,Gerji Mebrat Haile,0
9.0037638,node/7037142483,,38.8132574,Gerji Mebrat Haile,0
9.0253421,node/7037142484,,38.8251916,Lamberet,0
9.0258842,node/7037183485,,38.8271787,Lamberet Area,0
9.0260507,node/7037183486,,38.8273076,Lamberet Area,0
9.0259969,node/7037183487,,38.8271189,Lamberet Area,0
8.9913503,node/7037183490,,38.8294063,Yerer Goro,0
8.9913192,node/7037183491,,38.8292171,Yerer Goro,0
9.020263,node/7037183492,,38.8265756,Se'alite Mihret Church,0
9.0203852,node/7037183493,,38.82686,Management Institute,0
9.0203048,node/7037183494,,38.8273219,Sealite Mihret,0
9.0216167,node/7037183495,,38.8342032,Civil Service College,0
9.021312,node/7037183496,,38.8414217,St. Michael,0
9.0215489,node/7037183497,,38.8425033,St. Micheal Church,0
9.0283709,node/7037183498,,38.8331954,Salite Mihret,0
9.0285264,node/7037183499,,38.8333256,Hillside (Ethio-China Mebrathaile),0
9.030459,node/7037183501,,38.838592,Wessen Michael,0
9.0330948,node/7037183504,,38.8442968,Wessen,0
9.033228,node/7037183505,,38.8445812,Wessen,0
9.0330982,node/7037183507,,38.8446898,Wessen (Mariam),0
9.0342084,node/7037183508,,38.8466963,Kotebe Teachers College,0
9.0357649,node/7037183509,,38.8533863,Yabem Hotel,0
9.036101,node/7037183510,,38.8545188,Kotebe Gebriel,0
9.0201901,node/7037183513,,38.8526027,Yetebaberut,0
9.0207031,node/7037183515,,38.8539074,Yetebaberut,0
9.0207092,node/7037183516,,38.8603565,Meri,0
9.0205124,node/7037183518,,38.8610727,Meri (Yetebaberut),0
9.0208331,node/7037183519,,38.8686047,Ayat,0
9.0210633,node/7037183520,,38.8678248,Ayat Zone 2,0
9.0379427,node/7037183521,,38.8606002,Kara (Turn),0
9.0401552,node/7037183523,,38.8640163,Medhanalem Church,0
9.0106828,node/7037183525,,38.852259,Safari,0
9.0043876,node/7037183527,,38.8520658,Summit (MOHA),0
8.9955228,node/7037183528,,38.8513132,Saint Georgis,0
8.9941038,node/7037183529,,38.860685,Tena Tabeya,0
8.9894728,node/7037183532,,38.8582866,Gate 2,0
8.9846055,node/7037183533,,38.8544474,Summit Condominiums,0
9.0213287,node/7037183535,,38.8719812,Ayat Train Station,0
9.0211208,node/7037183536,,38.872594,CMC,0
9.0212396,node/7037183537,,38.8767684,Ayat Square,0
9.0216916,node/7037183538,,38.8862575,Feres Bet,0
9.0170704,node/7037183539,,38.8946069,Police Tabia,0
9.0222555,node/7037183540,,38.891209,Tsebel,0
9.0219034,node/7037183541,,38.8902931,Bono Meskid,0
9.0113906,node/7037183542,,38.8946677,Ayat Chefe Condominium,0
9.0109368,node/7037183543,,38.8944878,Ayat Chefe Condominium,0
9.0023517,node/7037183545,,38.8767662,Nebu Mikael,0
8.9965746,node/7037183546,,38.8851706,Ayat Adebabay Hulet (2),0
8.9963324,node/7037183547,,38.8855436,Bole Arabsa (3),0
8.9841602,node/7037183548,,38.8851362,Bole Arabsa (2),0
8.9733148,node/7037183550,,38.8902717,Bole Arabsa,0
8.9654075,node/7037183551,,38.8849449,St. Gebereal,0
9.0354891,node/7037183552,,38.877919,Yeka Condominium 1,0
9.0381306,node/7037183554,,38.8777819,Tafo Gebrael,0
9.0505157,node/7037183555,,38.8779667,Tafo Condominium 1,0
9.0425957,node/7037183557,,38.8773973,Tafo Mebrathail,0
9.0427743,node/7037183558,,38.877866,Tafo Mebrathail,0
9.0465834,node/7037183559,,38.8779122,Tafo Condominium 2,0
9.0501511,node/7037183562,,38.8705589,Kara Condominium,0
9.0666282,node/7037183563,,38.8647703,Yeka Abado,0
9.0571811,node/7037183565,,38.8737753,Sara Ampol (Gedera),0
9.0580264,node/7037183567,,38.8742538,Sara Ampol,0
9.0606875,node/7037183569,,38.8812971,Aba Kiros,0
9.0630654,node/7037183570,,38.8841651,Makefafeya,0
9.0670494,node/7037183571,,38.8892044,Gari Tera,0
9.0707009,node/7037183572,,38.8938058,CCD,0
9.0718221,node/7037183573,,38.8952147,140,0
9.0818058,node/7037183574,,38.9074861,Legedadi Mission,0
9.0821737,node/7037183575,,38.90832,Legedadi Mission,0
8.8832064,node/7041052894,,38.7771628,Selam Building,0
8.8910809,node/7041052895,,38.7768265,Gojo Hotel,0
8.8958596,node/7041052896,,38.7717913,Kality Meneharia,0
8.9029458,node/7041052897,,38.7668359,Cheralia Factory,0
8.9029223,node/7041052898,,38.7667452,Cheralia Factory,0
8.9113422,node/7041052900,,38.7638335,Kality Gebriel,0
8.9124672,node/7041052901,,38.7633323,Kality Prison,0
8.928137,node/7041052912,,38.7416641,Hana Maryam,0
8.9274906,node/7041052914,,38.6590102,Tabelew,0
8.9230001,node/7041052916,,38.6526472,Alem Gena,0
8.9229882,node/7041052917,,38.652656,Alem Gena,0
8.9683942,node/7041052927,,38.73129,Mekanisa (Old Revenues Office),0
8.9656974,node/7041052928,,38.7327236,German Square,0
8.9556239,node/7041052932,,38.7324437,Gebriel Bridge,0
8.955596,node/7041052934,,38.7327233,Gebriel Bridge,0
8.9469471,node/7041052935,,38.7339608,Mebrathile (EEPCo),0
8.9790248,node/7041052936,,38.7341955,Mekanisa School,0
8.9785916,node/7041052937,,38.7339384,Abo,0
8.973373,node/7041052938,,38.7246092,Sheged Hotel,0
8.9673959,node/7041052939,,38.720836,Jemo Michael,0
8.966996,node/7041052940,,38.7209392,Jemo Michael,0
8.9614893,node/7041052942,,38.7152564,Jemo YBP (All Mart),0
8.9606358,node/7041052944,,38.7123763,Jemo 1,0
8.9604074,node/7041052945,,38.7124284,Jemo 1,0
8.9595125,node/7041052946,,38.7084697,Mestawet Fabrica,0
8.958513,node/7041052948,,38.7059934,Mestawet Fabrica,0
8.9564,node/7041052949,,38.6992718,Jemo 3,0
8.9556244,node/7041052950,,38.6985348,Jemo 3,0
8.9866742,node/7041052951,,38.7077567,Zenebework,0
8.9611777,node/7041052952,,38.6713097,Welete Maryam,0
8.9657858,node/7041052953,,38.7272059,Mickael Bridge,0
8.9813447,node/7041052954,,38.689429,Gerar,0
8.9793804,node/7041052955,,38.6852022,Repi (Gerar),0
8.9773403,node/7041052957,,38.7220154,Gebre Kirstos,0
8.9884304,node/7041052958,,38.7228933,Bisrate Gebrael,0
8.9753751,node/7041052959,,38.7488548,Gofa Gebriel (2),0
8.9822682,node/7041052965,,38.7560783,MOHA (Pepsi Factory),0
8.9555778,node/7041052966,,38.7743852,Addis Sefer (Gebriel),0
8.9555403,node/7041052967,,38.77441,Addis Sefer (Gebriel),0
8.9762662,node/7041052969,,38.7600125,Gotera (Oilibiya),0
8.976182,node/7041052970,,38.7598239,Gotera (Oilibiya),0
8.9697308,node/7041052975,,38.7620577,St. Joseph Church,0
8.9659447,node/7041052977,,38.7627885,kadisco Building,0
8.965927,node/7041052978,,38.762999,kadisco Building,0
8.9637596,node/7041052979,,38.7630788,Kadisco,0
8.9583017,node/7041052980,,38.7640609,Adey Abeba,0
8.9582595,node/7041052982,,38.7638459,Adey Abeba,0
8.9528662,node/7041071286,,38.7635583,Saris (CBE),0
8.9527596,node/7041071287,,38.7633266,Saris (CBE/Shoa Bakery),0
8.9450003,node/7041071289,,38.7661044,Abo Junction,0
8.9450733,node/7041071290,,38.7663069,Abo Junction,0
8.9380959,node/7041071291,,38.763132,Customs (Train Station),0
8.9323275,node/7041071295,,38.766627,Kality Maseltegna,0
8.9298185,node/7041071296,,38.7681616,Wehalemat,0
8.9331651,node/7041071297,,38.775077,Werku Sefer,0
8.9950292,node/7041071342,,38.7478244,Bulgaria Mazoria,0
8.9971703,node/7041071344,,38.7475059,Begtera,0
8.9990638,node/7041071347,,38.7394459,AU (Mikael) Rounrdabout,0
8.9990569,node/7041071348,,38.7395945,AU (Mikael) Rounrdabout,0
8.9937942,node/7041071350,,38.7478465,Bulgaria,0
8.9941475,node/7041071352,,38.7595772,Global Hotel,0
8.9941836,node/7041071353,,38.7598183,Global Hotel,0
8.9953383,node/7041071354,,38.7596352,Beklo Bet (Global),0
9.000141,node/7041071355,,38.7584812,Tele Garage,0
9.0043253,node/7041071356,,38.7586986,Riche,0
9.0166957,node/7041071359,,38.7669535,6th (Raddison Blu),0
9.017718,node/7041071360,,38.7572645,Filweha (Hotsprings),0
9.0175554,node/7041071362,,38.7570579,Filweha (Hotsprings),0
9.0138328,node/7041071364,,38.7576145,Ghion Hotel (Enterance),0
9.0098008,node/7041071367,,38.7591876,St. Joseph School,0
9.0104995,node/7041071370,,38.7592761,St. Joseph School,0
9.0105316,node/7041071371,,38.7590434,Admas University College,0
9.0118612,node/7041071372,,38.7570112,Lalibela Hotel,0
9.0121294,node/7041071374,,38.7560438,Stadium,0
9.011849,node/7041071376,,38.7545386,Legehar,0
9.0117857,node/7041071377,,38.7539285,Legehar,0
9.0109604,node/7041071378,,38.7533069,Legehar (Old Train Station),0
9.0097755,node/7041071380,,38.7461963,Mexico,0
9.0031416,node/7041071382,,38.7414166,African Union,0
9.0053059,node/7041071383,,38.7423863,Popolare,0
9.0046908,node/7041071384,,38.7466748,Guenet Hotel,0
9.0032786,node/7041071385,,38.74694,Guenet Hotel,0
9.0210743,node/7041071386,,38.7488977,Tikur Anbessa Hospital,0
9.0175836,node/7041071387,,38.7464631,Goma Quteba,0
9.0214263,node/7041071388,,38.7334947,Abenet,0
9.0132791,node/7041071389,,38.7345522,Lideta Condominium,0
9.0157856,node/7041071390,,38.7348248,Darmar,0
8.9939406,node/7041071392,,38.7278809,Austria Embassy,0
8.9936591,node/7041071393,,38.727499,Mechare Meda,0
8.9925902,node/7041071395,,38.7152417,3 Kutir Mazoriya (Total),0
8.995414,node/7041071397,,38.7184074,Minaye Building,0
8.9998642,node/7041071399,,38.7191221,Old Airport (Mobil),0
9.0099949,node/7041071400,,38.7206897,Tor Hailoch,0
9.0133411,node/7041071401,,38.7100309,Keranio Mewcha,0
9.0213057,node/7041071402,,38.7159484,Holand,0
9.0245409,node/7041071403,,38.714954,Meseret Edget,0
9.0278226,node/7041071404,,38.7440603,Teklehaymanot,0
9.0247481,node/7041071405,,38.7458014,Kebele 11,0
9.0262634,node/7041071406,,38.75166,Tewodros Square,0
9.0263826,node/7041071407,,38.7517909,Tewodros Square,0
9.0218352,node/7041071411,,38.7521859,Black Lion,0
9.0158768,node/7041071414,,38.751592,National Theatre,0
9.0156938,node/7041071415,,38.7513097,National Theatre,0
9.0139102,node/7041071416,,38.7494881,A.A. Commercial College,0
9.0138228,node/7041071418,,38.7495568,A.A. Commercial College,0
9.0114261,node/7041071419,,38.7490599,Buna Ena Shay,0
9.0105922,node/7041071420,,38.7479733,Buna Ena Shay,0
9.0119916,node/7041071423,,38.7468862,Mexico Shebelle Hotel,0
9.0105894,node/7041071425,,38.7429038,TVET College (Tegbare'd),0
9.0103865,node/7041071429,,38.7426638,Federal Police (Tegbare'd),0
9.0109303,node/7041071430,,38.738603,Lideta (Balcha Hospital),0
9.0111161,node/7041071431,,38.7385604,Lideta (Balcha Hospital),0
9.011233,node/7041071432,,38.7377815,Lideta Condominium,0
9.0041706,node/7041071433,,38.733822,Lideta Tsebel,0
9.0093091,node/7041071434,,38.7338119,Dessie Hotel,0
9.0108572,node/7041071435,,38.7342297,High Court,0
9.0115829,node/7041071437,,38.733431,Lideta High Court,0
9.0121559,node/7041071439,,38.7293132,Hintsa College,0
9.0119411,node/7041071441,,38.7292339,Coca Cafe,0
9.011282,node/7041071444,,38.7265458,Mekonenoch (Golf) Club,0
9.0115616,node/7041071446,,38.7220202,Tor Hailoch Junction,0
9.0119442,node/7041071447,,38.7216866,Torhailoch,0
9.0139112,node/7041071448,,38.7206478,Tor Hailoch,0
9.013939,node/7041071449,,38.7209168,Tor Hailoch,0
9.0194506,node/7041071450,,38.7089411,Keranio Bridge,0
9.0175679,node/7041071451,,38.7049748,Medhanialem,0
9.0176634,node/7041071452,,38.7006446,Keranio Adebabay,0
9.0180779,node/7041071453,,38.6994971,Kokebe,0
9.0195382,node/7041071454,,38.6954056,Yeshi Debele,0
9.0190748,node/7041071455,,38.6957701,Yeshi Debele,0
9.0231539,node/7041071456,,38.6884518,Mariam,0
9.021983,node/7041071458,,38.6742682,Anfo Meda,0
9.0110433,node/7041071459,,38.7752596,St. Urael Church,0
9.0104908,node/7041071461,,38.766397,Salcost Apartments (NOC),0
9.0118738,node/7041071462,,38.7626376,St. Estifanos Church,0
9.0199107,node/7041071464,,38.7675809,St. Gebriel,0
9.0193852,node/7041071465,,38.7680315,Zenebewerk Hotel,0
9.0206693,node/7041071466,,38.7715231,Meles Zenawi Foundation,0
9.0194316,node/7041071468,,38.770643,Azmari Bet (Traditional Music Club),0
9.0166401,node/7041071469,,38.7702335,Kazanchis (6th),0
9.0196382,node/7041071471,,38.7638714,Hilton Hotel (Apartments),0
9.0233468,node/7041071473,,38.7772342,Women Square,0
9.0234508,node/7041071474,,38.7771738,Women Square,0
9.0244322,node/7041071475,,38.7765755,Aware Bridge,0
9.0319312,node/7041071479,,38.7633615,Arat Kilo,0
9.0321438,node/7041071480,,38.7652099,Arat Kilo,0
9.032458,node/7041071481,,38.7728461,Bel Air,0
9.0324918,node/7041071482,,38.7730493,Addis View Hotel,0
9.0385857,node/7041071483,,38.7730556,Menelik II Hospital,0
9.0388201,node/7041071484,,38.7719268,Menlik Hospital,0
9.0365871,node/7041071579,,38.7522029,Piassa Arada,0
9.0363947,node/7041071580,,38.7524445,Piassa Arada,0
9.035363,node/7041071592,,38.7523164,Piassa Arada,0
9.0352553,node/7041071594,,38.7491242,Habtegiorgis Bridge,0
9.0343899,node/7041071595,,38.7438917,Kurtu Building,0
9.0341887,node/7041071596,,38.7437548,Kurtu Building,0
9.0343321,node/7041071597,,38.7434135,Pharmacy,0
9.0343947,node/7041071598,,38.737968,Gojam Berenda,0
9.0342308,node/7041071599,,38.7337775,Autobis Tera (3),0
9.03371,node/7041071600,,38.7298446,Autobus Tera,0
9.0338533,node/7041071601,,38.7294433,Darsema Grosery,0
9.0408355,node/7041071602,,38.7101875,Millenium School,0
9.04636,node/7041071604,,38.7200106,Girum Hospital,0
9.0407262,node/7041071605,,38.7212396,Woreda 7 TVET,0
9.0366318,node/7041071606,,38.7219216,Sefere Salam,0
9.037044,node/7041071607,,38.7173824,Kolfe,0
9.0373422,node/7041071608,,38.7164487,Abysinia Coffee,0
9.0338162,node/7041071609,,38.7151531,Degu Hotel,0
9.0335338,node/7041071610,,38.7130781,18 Mazoria,0
9.0335825,node/7041071612,,38.7135105,18 Mazoria,0
9.0333303,node/7041071614,,38.7093322,Luwkanda,0
9.0340139,node/7041071615,,38.704541,Comprensive,0
9.0327975,node/7041071616,,38.6951186,Realstate,0
9.034058,node/7041071619,,38.6888917,Police Tabiya,0
9.0342811,node/7041071620,,38.6875252,Feli Doro (1),0
9.0353789,node/7041071622,,38.6853297,Feli Doro,0
9.0328103,node/7041071623,,38.7505925,Arada,0
9.0389362,node/7041071628,,38.7568178,Ras Mekonene Bridge (Seba Dereja),0
9.0385989,node/7041071629,,38.7625491,5 Kilo (History Museum),0
9.0408311,node/7041071630,,38.761951,5 Kilo University,0
9.0427151,node/7041071633,,38.7615693,Lion Zoo (PEPSI Kiosk),0
9.0438891,node/7041071636,,38.7603878,Yekatit 12 Hospital,0
9.0436921,node/7041071637,,38.7593176,Yeatit 12 Hospital,0
9.0386136,node/7041071638,,38.7527639,Red-Cross (St. George Total),0
9.0386684,node/7041071639,,38.7517494,St. George Church (Total),0
9.0436522,node/7041071640,,38.7488778,Semen Hotel,0
9.0446929,node/7041071641,,38.7482928,Semen Hotel,0
9.0486023,node/7041071642,,38.7461719,Kelemwerk,0
9.0488673,node/7041071643,,38.7458026,Kelemwerk,0
9.0512494,node/7041071645,,38.7443439,Tibeb Ediget School,0
9.0523631,node/7041071646,,38.7433813,Semen Mazegaga,0
9.0537306,node/7041071647,,38.7424925,Semen Mazagaja,0
9.0541015,node/7041071648,,38.7200104,Shegole Bank,0
9.0474202,node/7041071649,,38.7277601,Pawlos Hospital,0
9.0514832,node/7041071650,,38.7221677,Finance,0
9.0513651,node/7041071651,,38.7220512,Medhanialem (TOTAL),0
9.0528369,node/7041071653,,38.7201878,Finance,0
9.0531245,node/7041071654,,38.7199027,Finance,0
9.0544244,node/7041071655,,38.7149847,Winget Chaf,0
9.051327,node/7041071658,,38.6987792,Mikili Land,0
9.0571703,node/7041071659,,38.7137033,Winget Adebabay,0
9.0576087,node/7041071660,,38.7116367,Awolia,0
9.0577975,node/7041071661,,38.7067279,Gulele Fana,0
9.0582376,node/7041071662,,38.7065488,Gulele Fana,0
9.0593548,node/7041071663,,38.7034077,Berchiko,0
9.0665816,node/7041071665,,38.69045,Gebriel (Sansusi),0
9.057952,node/7041071718,,38.7791204,Bono Weha,0
9.053538,node/7041071719,,38.7722233,Mezan,0
9.0470252,node/7041071721,,38.7690705,3rd Shaleka,0
9.0461753,node/7041071723,,38.7615547,6 Kilo (University),0
9.0513004,node/7041071725,,38.7622054,Meksaye Hizunan Medhanialem,0
9.052326,node/7041071726,,38.7622236,Teferi Mekonen,0
9.0541533,node/7041071729,,38.7625698,Sebseba Maekel,0
9.0649811,node/7041071737,,38.7715088,Eyesus,0
9.0585516,node/7041071738,,38.7680987,Hamle 19,0
9.0692162,node/7041071740,,38.7607205,Selassie,0
9.0745256,node/7041071741,,38.7590628,Sanba Nekersa-Shiromeda,0
9.0777328,node/7041071742,,38.7572536,Kuskoam,0
9.0710894,node/7041071749,,38.7374397,Dil Ber,0
9.0638294,node/7041071753,,38.7204079,Anbessa Garage (Shegole),0
9.0691617,node/7041071754,,38.7182194,Kebt Beret,0
9.0843712,node/7041071755,,38.7230011,Entoto Kela,0
9.1051152,node/7041071758,,38.7095299,Weserbi Realestate,0
9.1095355,node/7041071759,,38.7147037,Classy Water,0
9.1100449,node/7041071760,,38.7158285,Medret Hotel,0
9.1176074,node/7041071761,,38.7300979,Kburea,0
9.1179357,node/7041071762,,38.7304557,Kenenisa,0
9.1273122,node/7041071763,,38.7395293,Shefunea,0
9.1277902,node/7041071764,,38.7397834,Shefine,0
9.1339361,node/7041071772,,38.7522344,Doro Erbata,0
9.1341343,node/7041071773,,38.7524529,Abo Gabriel,0
9.1408321,node/7041071774,,38.7549356,Tulu Fati,0
9.1449015,node/7041071775,,38.7538733,Ashewa,0
9.1560016,node/7041071776,,38.7542489,Tabya Hotel,0
8.9929589,node/7047495429,,38.738359,Sar Bet (Roundabout),0
9.0286142,node/7047495432,,38.6600221,United Bank (Ashewa Meda),0
8.9208064,node/7047495433,,38.7346499,Sefera,0
8.9473774,node/7049122264,,38.744323,Lafto,0
8.935835,node/7049122265,,38.7440895,Hana Mariam (2),0
8.9387647,node/7049122266,,38.7345586,Haile Garment,0
9.0304285,node/7049921444,,38.8779866,Yekiber Demena Church,0
9.0204726,node/7049921445,,38.8024339,Megenagna Terminal,0
9.0220882,node/7049921447,,38.8759579,Hill Bottom (Recreation),0
9.0304125,node/7049921448,,38.8775474,Zone 8,0
9.0570656,node/7049921449,,38.8779122,Aba Kiros (Tafo) Roundabout,0
9.0566049,node/7050234123,,38.8790275,Tafo Junction,0
9.020626,node/7050327664,,38.8021323,Megenagna Terminal,0
9.0476858,node/7054842410,,38.7617178,6 Kilo,0
9.0476498,node/7054842414,,38.7617169,6 Kilo,0
9.0106346,node/7055060064,,38.7532161,Legehar (Old Train Station),0
9.0359897,node/7055598734,,38.8546711,Kotebe Gebriel,0
9.0269686,node/7055598736,,38.8299268,Ahmed Building,0
9.0363488,node/7055598738,,38.7579049,St. Mary Church,0
9.0335541,node/7055598739,,38.7535483,Piassa Arada,0
9.0327818,node/7055598742,,38.7534018,Piassa Arada,0
9.0363807,node/7055598743,,38.7579442,St. Mary Church,0
9.0274541,node/7055598744,,38.8307544,NOC End,0
9.0341209,node/7056754511,,38.8467717,Kotebe Teachers College,0
9.0630764,node/7056754514,,38.8732637,Meskelegna (Ababdo),0
9.020907,node/7056754516,,38.8022361,Megenagna,0
9.0041945,node/7057002158,,38.779674,Atlas,0
9.0329242,node/7057002161,,38.7528717,Piassa Arada,0
9.0389386,node/7057002162,,38.7568279,Ras Mekonene Bridge (Seba Dereja),0
9.0226675,node/7057002163,,38.7626361,Gibi Gebriel Church,0
8.9904207,node/7057187392,,38.7929906,Brass Clinic (Bole),0
8.9903142,node/7057187393,,38.7932003,Brass Clinic (Bole),0
9.0379471,node/7062689844,,38.7519784,St.Gorgis,0
9.0358742,node/7062689845,,38.751629,St. George Church (2),0
9.0345896,node/7062689848,,38.7549398,Piassa,0
9.0325203,node/7062689850,,38.764362,Arat Kilo,0
9.0344021,node/7062689851,,38.7630946,4 Kilo,0
9.0506154,node/7062689852,,38.7621098,Medhanialem,0
9.044142,node/7062689854,,38.7635923,Education Bureau (6 Kilo),0
9.0471236,node/7062689855,,38.7690204,Jan Meda,0
9.0557922,node/7062689856,,38.7742742,Frensaye Kela,0
9.0551762,node/7062689857,,38.7736282,Frensaye Kela,0
9.0569998,node/7062689858,,38.7777387,Abo Mazoriya,0
9.0623294,node/7062689859,,38.7881845,Gurara,0
8.9730894,node/7067942461,,38.7608987,Mamo (NFSL TVET),0
8.988213,node/7067942462,,38.7595747,Agona Cinema,0
8.9882665,node/7067942463,,38.7597959,Agona Cinema,0
9.0004682,node/7067942465,,38.7587377,Tele Garage,0
9.0145395,node/7067990019,,38.7824519,Zerihun Building,0
9.0166971,node/7067990020,,38.7669539,6th (Raddison Blu),0
9.026432,node/7070861695,,38.7621456,National Palace,0
8.9897614,node/7070861696,,38.7872174,SNAP Building,0
8.9908557,node/7070861697,,38.7844888,Friendship,0
8.9917592,node/7070861698,,38.7822311,Heber Restaurant,0
8.992295,node/7070861699,,38.7791533,RWANDA (Werbek House),0
8.9924,node/7070861701,,38.7798477,Rwanda,0
8.9966227,node/7070861702,,38.7723732,Bole Printing Press,0
8.9976714,node/7070861703,,38.7715908,Bole Printing Press,0
8.9993469,node/7070861704,,38.7708659,Mega Printing Press,0
9.001132,node/7070861705,,38.7697078,Shewa Dabo,0
9.0014126,node/7070861706,,38.7697673,Getu Commercial Center,0
9.004953,node/7070861707,,38.7678519,Dembel City Center,0
9.0100482,node/7070861710,,38.7634195,Flamingo,0
9.0358386,node/7070861712,,38.7528459,Piassa Arada,0
9.0074376,node/7070861713,,38.8054033,Anbessa Garage,0
9.0221276,node/7070861714,,38.876525,Ayat Roundabout,0
9.0401288,node/7070861716,,38.8777949,Gebriel,0
9.0527134,node/7074233342,,38.7433527,Semen Mazegaja | ሰሜን ማዘጋጃ,0
9.0559007,node/7074233343,,38.7411604,Del Ber School,0
9.0592088,node/7074233344,,38.7379037,Adisu Gebeya,0
9.061605,node/7074233345,,38.7355505,Kelebat,0
9.0679367,node/7074233346,,38.7347909,Oilibiya (Dil Ber),0
9.0463006,node/7074267433,,38.7301845,Pastor,0
9.051161,node/7074267434,,38.7228618,Medhanialem,0
9.0554455,node/7074267435,,38.7138884,Winget,0
9.0576131,node/7074269464,,38.6101592,Kela,0
9.0576152,node/7074269465,,38.6101611,Kela,0
9.0452427,node/7074275407,,38.7481339,Semen Hotel,0
8.9866969,node/7074294627,,38.7484333,Kera,0
9.0653014,node/7074299254,,38.6922669,Asko,0
9.0286512,node/7074324043,,38.733098,Sebategna,0
9.0317912,node/7074324044,,38.7324012,Autobis Tera (2),0
9.0347276,node/7074324045,,38.7321005,Autobis Tera,0
8.9733512,node/7074326525,,38.7315967,Mekanisa,0
8.9822244,node/7074326526,,38.7343058,Abo Mazoria,0
8.9894962,node/7074330387,,38.8580841,Gate 2,0
8.9942098,node/7074330389,,38.8605382,Tena Tabeya,0
8.9984544,node/7074330391,,38.8602323,Condminium (Gate),0
9.0014062,node/7074330392,,38.8573283,Gomista,0
9.0040839,node/7074330394,,38.8517162,Summit (MOHA),0
9.0106601,node/7074330397,,38.8518265,Safari,0
8.999474,node/7074330400,,38.820944,Alemayehu,0
9.0005663,node/7074330401,,38.8196821,Alemayehu,0
9.0050845,node/7074330403,,38.8095474,Condominium,0
9.026612,node/7074330407,,38.8287819,Ethio-china,0
9.0403987,node/7074330409,,38.8643277,Kara,0
8.9654679,node/7074332290,,38.8850641,Project 15,0
8.9772657,node/7074332294,,38.8845811,Kela,0
9.0616842,node/7074347184,,38.7010211,Chereta,0
8.9813585,node/7074353066,,38.6894082,Gerar,0
9.0714186,node/7074387585,,38.6891023,Sansusi,0
9.0285405,node/7074496216,,38.6722328,Kersa (2),0
9.0326531,node/7074496217,,38.6653802,Ashewa Meda,0
9.0326414,node/7074496218,,38.6653823,Ashewa Meda,0
9.0258997,node/7074496219,,38.6569665,United Bank (Ashewa Meda),0
9.027689,node/7074496221,,38.6515848,St. Gebriel,0
9.0276843,node/7074496222,,38.6515743,St. Gebriel,0
9.0417975,node/7074496225,,38.6216778,Gojo,0
9.0010346,node/7074504387,,38.6776598,Alem Bank,0
8.9831093,node/7074504388,,38.6982193,Ayer Tena,0
9.0045877,node/7074504390,,38.6944335,Bethel,0
9.0149626,node/7074504392,,38.7004735,Mendida,0
8.9700751,node/7074525370,,38.7486994,Mebrat Nigist Hotel,0
9.0116457,node/7074541084,,38.7326808,Lideta Kefetega Firdbet,0
8.9368661,node/7074561391,,38.7363202,Haile Garment,0
8.9493593,node/7074561392,,38.7334502,Mebrathile (EEPCo),0
8.9309368,node/7074561393,,38.7544146,Hana Mariam,0
8.9361698,node/7074561394,,38.7444615,Hana Mariam (2),0
8.95299,node/7074561395,,38.7448233,Meskelgna,0
9.0357438,node/7074585943,,38.7514315,Piassa Arada,0
9.0324015,node/7074585944,,38.7633143,Arat Kilo,0
8.9953761,node/7074599697,,38.759835,Beklo Bet (Global),0
9.0055741,node/7074691520,,38.7672511,Dembel City Center,0
9.010735,node/7074707878,,38.7471393,Mexico,0
9.0127963,node/7074707880,,38.7478601,ERA Office (Big Mak),0
9.0092034,node/7074707881,,38.7591385,Saint Josphe School,0
9.0124825,node/7074707883,,38.7628296,St. Estifanos Church,0
8.9725713,node/7074819178,,38.7607684,Mamo (NFSL TVET),0
8.9339802,node/7074841188,,38.7643672,Kality Maseltegna,0
8.9585362,node/7075101457,,38.7498569,Dildiy Mariam,0
8.9837158,node/7075101459,,38.7497528,Kera (Gofa Stop),0
9.009717,node/7075129253,,38.7208842,Tor Hailoch,0
9.0117428,node/7075129254,,38.7207996,Torhayloch,0
9.0117788,node/7075129255,,38.7222467,Tor Hailoch,0
9.0043941,node/7076294502,,38.7588986,Riche,0
8.9645236,node/7076294503,,38.7438551,Mebrat Condominium,0
8.9638868,node/7076294504,,38.7633289,Kadisco,0
9.0089349,node/7076294505,,38.7646677,Flamingo,0
8.9984013,node/7076294507,,38.8601035,Condminium (Gate),0
9.0571285,node/7076294508,,38.8738883,Sara Ampol (Gedera),0
9.0418835,node/7076294509,,38.7325725,Michael (2),0
9.0622823,node/7076294510,,38.7612538,Shero Meda,0
9.0618175,node/7076294511,,38.7613619,Shero Meda,0
9.0716602,node/7076294512,,38.7369836,Dil Ber,0
9.0745282,node/7076294514,,38.7590251,Sanba Nekrsa,0
9.0692159,node/7076294515,,38.7607132,Shiromeda Selassie,0
9.0618235,node/7076294516,,38.7613887,Shero Meda,0
9.0447597,node/7076310930,,38.7612093,6 Kilo (Akim Genbata),0
9.0626379,node/7076310931,,38.7612397,Shero Meda,0
9.0507372,node/7077424942,,38.7619991,Medhanialem,0
9.0163885,node/7077601626,,38.7551039,Ambassador,0
9.0216085,node/7077785205,,38.8139111,Lamberet,0
9.0479009,node/7077785206,,38.8692642,Kara Condominium,0
9.0480304,node/7077785209,,38.8695121,Kara Condominium,0
9.031811,node/7077863009,,38.7325536,Autobis Tera (2),0
8.9960545,node/7077863010,,38.6833448,Tropical,0
9.0003767,node/7077863012,,38.6779208,Alem Bank,0
8.9965876,node/7077863014,,38.6830207,Tropical,0
8.9923549,node/7077863015,,38.6892387,Kidane Mihret,0
9.004479,node/7077863016,,38.6941906,Bethel,0
9.0151128,node/7077863017,,38.7004836,Mendida,0
9.019638,node/7077863018,,38.7327417,Abinet,0
9.0280905,node/7077863019,,38.7329768,Sebategna,0
9.0088714,node/7078164250,,38.7440208,Mexico,0
8.9381825,node/7078164251,,38.7349155,Haile Garment,0
8.9729343,node/7078164254,,38.7311018,Mekanisa,0
8.9820586,node/7078164255,,38.7345326,Abo Mazoria,0
9.0088201,node/7078164256,,38.7437936,Mexico,0
9.0330269,node/7078406225,,38.7323925,Autobis Tera (1),0
8.9876369,node/7078406227,,38.7090191,Zenebework,0
8.9822919,node/7078406228,,38.6949214,Ayer Tena,0
8.9755975,node/7078406231,,38.6817556,Kara Kore,0
8.9763865,node/7078406235,,38.6823873,Kara Kore,0
8.9822452,node/7078406236,,38.6939258,Ayer Tena (Gerar-Repi),0
8.9795411,node/7078406237,,38.6853377,Repi (Gerar),0
8.9852814,node/7078406238,,38.7051886,Zenebework (Crossing),0
8.992776,node/7078406239,,38.715946,3 Kutir Mazoriya (Total),0
9.0330007,node/7078406240,,38.7322299,Autobis Tera (1),0
9.0049451,node/7080251773,,38.8100534,Condominium,0
8.993889,node/7080251774,,38.8268744,Goro School,0
9.0071789,node/7080251776,,38.8056204,Anbessa Garage,0
9.0110028,node/7080440194,,38.76366,Estifanos,0
9.0104866,node/7080440195,,38.7690578,BAMBIS,0
9.0115088,node/7080440196,,38.7752996,St. Urael Church,0
9.0147285,node/7080440197,,38.7823039,Lex Plaza,0
9.0164226,node/7080440198,,38.7896417,22 (Haya Hulet),0
9.0194097,node/7080440200,,38.8004816,Megenagna,0
9.019032,node/7080440203,,38.8005914,Megenagna,0
9.0177169,node/7080440204,,38.7955696,Lem Hotel,0
9.0162149,node/7080440205,,38.7896635,22 (Haya Hulet),0
9.0102033,node/7080440206,,38.7694936,BAMBIS,0
9.0104304,node/7080440208,,38.7467585,Mexico,0
9.0098462,node/7080527282,,38.7462899,Mexico,0
8.9863213,node/7080527284,,38.7487773,Kera,0
8.96688,node/7080611085,,38.7487535,Mebrat,0
9.0120423,node/7080611091,,38.746773,Mexico Shebelle Hotel,0
9.0412736,node/7080893992,,38.7322629,Michael,0
9.034717,node/7080893993,,38.732023,Autobis Tera,0
9.0460782,node/7080893994,,38.7306587,Pastor,0
9.0560646,node/7080893995,,38.713458,Winget,0
9.0613645,node/7080893996,,38.7009781,Chereta,0
9.0715888,node/7080894001,,38.6891732,Sansusi,0
9.0385658,node/7081034796,,38.7624277,5 Kilo (History Museum),0
9.0574672,node/7081034797,,38.7785478,Abo Mazoriya,0
9.0441923,node/7081034799,,38.7640045,Education Bureau (6 Kilo),0
9.0648091,node/7084255331,,38.732915,Total (Dil Ber),0
9.0341775,node/7084255333,,38.7533521,Piassa Arada,0
9.0594855,node/7084255334,,38.7374497,Addisu Gebeya,0
9.0638908,node/7084255335,,38.733166,Tsion Cafe (Addisu Gebeya),0
9.0653883,node/7084255336,,38.7327389,Total (Dil Ber),0
9.0337517,node/7084722454,,38.7405402,Ummar School,0
9.0341036,node/7084722456,,38.7337992,Autobis Tera (3),0
9.0341305,node/7084722457,,38.7418327,Gojam Berenda (Tefera Buillding),0
9.0404538,node/7084722458,,38.7533374,Dej. Wube (Ras Abebe School),0
9.0440672,node/7084722459,,38.7544994,Wube Bereha,0
9.0515491,node/7084722460,,38.7588473,Menen,0
9.0584002,node/7084722461,,38.7598297,Tsehay Chora (ShiroMeda),0
9.0274958,node/7084873006,,38.7332661,Sebategna (Taem Bakery),0
9.0188835,node/7084873007,,38.7380924,Mola Maru (Jos Hansen),0
9.0167149,node/7084873008,,38.7382054,Geja Sefer (Darmar),0
8.9856954,node/7084873009,,38.7486804,Kera (Green Market),0
8.9841757,node/7084873010,,38.7518917,Kera (Mexico Stop),0
8.9824212,node/7084873011,,38.7560749,MOHA (Pepsi Factory),0
8.9547202,node/7084873012,,38.7635412,Saris (Shoa Bakery),0
8.9844206,node/7084873013,,38.7509324,Kera (Saris Stop),0
9.002055,node/7084873014,,38.7469466,Guenet Hotel (Orbis),0
9.0111972,node/7084873015,,38.736541,St. Lideta Church,0
9.0192478,node/7084873016,,38.733649,Abenet (Joshansen),0
8.9951157,node/7084932737,,38.7373207,Canada Embassy,0
8.9973163,node/7084932738,,38.7311778,Mechare Meda,0
8.9892732,node/7084932739,,38.7239615,Bisrate Gebrael,0
8.9850622,node/7084932740,,38.705264,Zenebework (Crossing),0
8.9838697,node/7084932741,,38.6960209,Ayer Tena,0
8.9917639,node/7084932742,,38.6887357,Kidane Mihret (Roundabout),0
8.9910254,node/7084932743,,38.690106,Kidane Mihret (2),0
9.0056187,node/7084932745,,38.7185689,Augusta Bridge (Tor Hailoch),0
9.0114539,node/7084932747,,38.7445753,Mexico,0
8.9839859,node/7098810331,,38.8285018,Goro Roundabout,0
8.9678887,node/7098810332,,38.8370059,Kotebe Shet',0
8.9585287,node/7098810333,,38.8352869,Bole Lemi,0
8.9405669,node/7098810334,,38.8219339,Endorro 2,0
8.9007946,node/7098810335,,38.8152364,Kilinto Right (Heniken),0
8.8947925,node/7098810336,,38.8240221,Koye Feche 4,0
8.8925887,node/7098810337,,38.8277372,Koye Feche 3,0
8.896302,node/7098810338,,38.8313712,Koye Feche 2,0
8.9837967,node/7098810340,,38.8289328,Goro Roundabout,0
8.9678046,node/7098810341,,38.8374461,Kotebe Shet',0
8.9573187,node/7098810342,,38.8354629,Bole Lemi,0
8.9393928,node/7098810343,,38.8217947,Endorro 2,0
8.9307029,node/7098810344,,38.820007,Endorro 1,0
8.9005132,node/7098810345,,38.8155747,kilinto (Heniken Brewery),0
9.0192718,node/7098833728,,38.8196082,Gurd-shola,0
9.021924,node/7098833729,,38.8331381,Civil Service College,0
9.021617,node/7098833730,,38.8400876,St. Michael,0
9.0193173,node/7098833731,,38.8524287,Sunshine Apartments,0
9.0019915,node/7098833732,,38.8575794,Gomista,0
8.9918735,node/7098833735,,38.8588022,Hasset Photo,0
9.0190988,node/7098833736,,38.8521013,Sunshine Apartments,0
9.0208488,node/7098833737,,38.8504565,CMC (Apartments),0
9.0213567,node/7098833738,,38.8401568,St. Michael,0
9.0337594,node/7102193971,,38.7312293,Merkato,0
9.0338552,node/7102193972,,38.7254909,Mesalemia (Area Police),0
9.0332635,node/7102193973,,38.7086533,Luwkanda,0
9.0338494,node/7102193974,,38.7049566,Comprensive,0
9.031909,node/7102193975,,38.642409,Gefersa,0
9.0563274,node/7102193976,,38.6117467,Gojo (Kela),0
9.0560454,node/7102193977,,38.6120244,Gojo (Kela),0
9.0375371,node/7102193978,,38.6265192,Gefersa (2),0
9.0356795,node/7102193979,,38.6329501,Gefersa,0
9.0328635,node/7102193980,,38.6674596,Ashewa Meda (1),0
9.0286003,node/7102193981,,38.6760437,Kersa (1),0
9.0343761,node/7102193982,,38.687173,Feli Doro (2),0
9.0344498,node/7102193983,,38.7244946,Mesalemia,0
9.0338637,node/7102269985,,38.7312074,Merkato,0
8.9821491,node/7103202615,,38.6977085,Ayer Tena,0
8.9647174,node/7103202616,,38.7316085,German Bridge,0
8.9470109,node/7103202617,,38.7342372,Mebrathile (EEPCo),0
8.9444277,node/7103202619,,38.7692016,Saris Abo,0
8.944353,node/7103202620,,38.7666082,Saris Abo,0
8.9336411,node/7103202621,,38.7645892,Kality Maseltegna,0
8.930547,node/7103202622,,38.7550031,Hana Mariam (Bridge),0
8.9653607,node/7103202623,,38.72738,Mickael Bridge,0
8.9820533,node/7103202625,,38.6976219,Ayer Tena,0
9.0323651,node/7104888674,,38.7729637,Bel Air,0
9.0211237,node/7105158906,,38.8506098,CMC (Apartments),0
9.0462589,node/7105158907,,38.8774831,Tafo Condominium 2,0
9.0502639,node/7105158908,,38.8775457,Tafo Condominium 1,0
8.9593839,node/7105268824,,38.7490031,Mebrat (Lafto),0
8.9587047,node/7105268825,,38.7497551,Dildiy Mariam,0
8.9537745,node/7105268826,,38.7504407,Lafto (Mickael),0
8.9465504,node/7105268828,,38.7493803,Lafto,0
8.9558865,node/7105268830,,38.7450783,Lafto (Primary School),0
9.0185243,node/7105398617,,38.7534558,Post Office (Ambassador),0
9.0461705,node/7105398618,,38.7614232,6 Kilo (University),0
9.0522977,node/7105398619,,38.7623138,Teferi Mekonen,0
9.022269,node/7105584907,,38.7999868,Marathon Motor (Megenagna),0
9.0332665,node/7105584908,,38.762507,Arat Kilo,0
9.0341288,node/7105584909,,38.7532588,Piassa Arada,0
9.0332715,node/7105584911,,38.7625094,Arat Kilo,0
9.0289345,node/7105584912,,38.7888307,Abebe Sook,0
9.0358919,node/7105840324,,38.7492708,Abune Petros,0
9.0424895,node/7105840325,,38.745898,Yohannes,0
9.0472271,node/7105840326,,38.7421685,Arbegnoch Primary School,0
9.0485317,node/7105840327,,38.7376837,Enqulal Fabrica,0
9.0434044,node/7105840330,,38.7450108,Yohannes,0
9.0481067,node/7105840331,,38.7373533,Enqulal Fabrica,0
8.9209077,node/7107670562,,38.7350358,Sefera,0
8.94963,node/7107670563,,38.7332384,Mebrathile (EEPCo),0
8.9829863,node/7107670564,,38.7341183,Mekanisa Abo,0
8.9606298,node/7107789218,,38.6879228,Jemmo 2,0
9.0319297,node/7107789219,,38.7511477,Piassa (Downtown Cafe),0
8.9605732,node/7107789220,,38.6878636,Jemmo 2,0
8.9860956,node/7108224469,,38.7483037,Kera,0
9.0166264,node/7110438104,,38.7675202,6th (Raddison Blu),0
9.0171928,node/7110438105,,38.7701955,Kazanchis (6th),0
9.0231177,node/7110438106,,38.7758778,Aware Roundabout,0
9.0234853,node/7110438107,,38.7815333,Signal,0
9.0221973,node/7110438108,,38.7867845,Dinberwa Hospital,0
9.0212061,node/7110438109,,38.7940254,Lem Hotel,0
9.022362,node/7110438110,,38.8157252,Lamberet (Queens),0
9.0348925,node/7110438111,,38.8281186,Kotebe 01,0
9.0349074,node/7110438113,,38.8281855,Kotebe 01,0
9.0217059,node/7110438114,,38.7948696,Shola (United Bank),0
9.021194,node/7110438115,,38.792498,Sumeya Mosque,0
9.023369,node/7110438116,,38.7815645,Signal,0
8.9104302,node/7110725239,,38.7640618,Kality Gebriel,0
8.9572931,node/7110725240,,38.7673729,Addis Sefer (Overpass),0
8.9799499,node/7110725241,,38.7723221,Bole Mickael (2),0
8.9867261,node/7110725242,,38.7903601,Bole Bridge,0
8.9948785,node/7110725243,,38.7957512,MOENCO,0
9.0009401,node/7110725244,,38.7988652,Sport Academy,0
9.0077883,node/7110725245,,38.8030776,Anbessa Garage,0
9.0158283,node/7110725246,,38.8026698,IVECO,0
9.0076034,node/7110725247,,38.8032793,Anbessa Garage,0
9.0037859,node/7110725248,,38.8009424,Emperial Hotel,0
8.9950941,node/7110725249,,38.7961036,MOENCO,0
8.9910443,node/7110725250,,38.7946816,Bole (Bora Amusement),0
8.9795995,node/7110725251,,38.7721474,Bole Mickael (2),0
8.9603711,node/7110725252,,38.7676814,Addis Sefer,0
8.9458024,node/7110725253,,38.7692055,Saris Abo,0
8.9234126,node/7110725254,,38.7648588,Kality (Correctional Facility),0
8.8959395,node/7110725256,,38.7718808,Kality Meneharia,0
9.0354591,node/7111821010,,38.7588358,Arat Kilo,0
9.0325113,node/7111821011,,38.7538404,Piassa (EPPCO),0
9.0317457,node/7111821013,,38.7374552,Autobis Tera,0
9.0301828,node/7111821015,,38.7373348,Autobis Tera,0
9.0216842,node/7111821016,,38.7887833,Dinberwa Hospital (1),0
9.0374493,node/7112123457,,38.721592,Chid Tera,0
9.0294949,node/7112123458,,38.7149359,Mebrathail,0
9.0173854,node/7112123459,,38.7177803,Kolfe Keranyo,0
9.0193846,node/7112123460,,38.708993,Keranio Bridge,0
9.0170237,node/7112123462,,38.7176821,Kolfe Keranyo,0
9.0370321,node/7112123463,,38.7163686,Abysinia Coffee,0
9.0376714,node/7112123464,,38.7208971,Chid Tera,0
8.9998854,node/7112215078,,38.7188624,Old Airport (Mobil),0
9.008471,node/7112215079,,38.7196192,Minaye (Shoa Supermarket),0
9.0208524,node/7112215080,,38.7158287,Holand,0
9.0361682,node/7112215081,,38.7141478,18 Mazoria (Atena Tera),0
9.0409736,node/7112215082,,38.7125982,Atena Tera,0
9.0491202,node/7112215083,,38.7116581,Winget TVET,0
9.0555289,node/7112215084,,38.7124575,Winget,0
9.0494004,node/7112280389,,38.7117843,Winget TVET,0
9.0448145,node/7112280390,,38.7122352,kolfe (Atena Tera),0
9.0414434,node/7112280391,,38.712721,Atena Tera,0
9.0362317,node/7112280392,,38.7143961,18 Mazoria (Atena Tera),0
9.0244809,node/7112280393,,38.7152453,Meseret Edget,0
9.0056155,node/7112280394,,38.7188519,Augusta Bridge (Tor Hailoch),0
8.8596281,node/7112648156,,38.8146269,Mahiber Betoch,0
8.865212,node/7112648157,,38.8210444,Project 12 Akababi,0
8.8701237,node/7112648158,,38.8204129,G7 (Tulu Dimtu),0
8.871336,node/7112648159,,38.7965426,Belay Ab Moters,0
8.8797285,node/7112648160,,38.7794514,Gelan Condominium,0
8.894811,node/7112648161,,38.7728422,Kality Total,0
8.8973286,node/7112648162,,38.770309,Akaki Subcity Office (Menaheria),0
8.9224149,node/7112648163,,38.7641522,Kality (Correctional Facility),0
8.9281178,node/7112648164,,38.7676362,Techtra Engineering,0
8.9572677,node/7112648165,,38.7637599,Adey Abeba,0
8.9323914,node/7112648166,,38.7669427,Kality Maseltegna,0
8.9298175,node/7112648167,,38.768315,Wehalemat,0
8.8837788,node/7112648168,,38.7768426,Awash Bank (Akaki Kality),0
8.8799589,node/7112648169,,38.7793211,Gelan Condominium,0
8.8716847,node/7112648170,,38.7963837,Belay Ab Moters,0
8.8705655,node/7112648172,,38.8091005,TAF Oil (Tulu Dimtu),0
8.9580023,node/7112755336,,38.7723166,Addis Sefer (NFSL W09),0
8.9590585,node/7112755337,,38.7710152,Addis Sefer,0
9.0278217,node/7112755338,,38.7439418,Teklehaymanot,0
9.0314996,node/7112755340,,38.7376384,Autobis Tera,0
9.0308454,node/7112755342,,38.7381207,Autobis Tera,0
9.0194238,node/7112755343,,38.7468282,Meteorology,0
9.0148435,node/7112755344,,38.7468427,Sengatera,0
8.9587021,node/7112755345,,38.7706049,Addis Sefer,0
9.0462468,node/7113004009,,38.7199737,Girum Hospital,0
9.0509733,node/7113004010,,38.7211613,Ras Hailu (Medhanialem),0
9.0572551,node/7113004011,,38.7114101,Awolia,0
9.0640587,node/7113004012,,38.6983516,Bercheko Fabrica (Asko),0
9.0598807,node/7113004013,,38.70588,Gulele,0
9.0507813,node/7113004014,,38.7210939,Ras Hailu (Medhanialem),0
9.040909,node/7113004015,,38.7212829,Woreda 7 TVET,0
9.0380466,node/7113004016,,38.7213725,Chid Tera,0
9.0312199,node/7113004018,,38.7365754,Autobis Tera,0
9.0426217,node/7113004020,,38.73268,Michael (2),0
9.0485205,node/7113004021,,38.7261371,Pawlos Hospital (Saba Mosque),0
9.0643796,node/7113004022,,38.7205811,Anbessa Garage (Shegole),0
9.0641379,node/7113004024,,38.7266132,Shegole (Mender 7),0
9.0641466,node/7113004026,,38.726699,Shegole (Mender 7),0
9.0589167,node/7113004027,,38.7189551,Hassen & Hussein Mosque (Shegole),0
9.0548351,node/7113004028,,38.7198445,Shegole Bank,0
9.0409541,node/7113004029,,38.7321449,Michael,0
9.0652655,node/7113158623,,38.7712666,Eyesus,0
8.9931107,node/7122983960,,38.7741153,Wello Sefer,0
8.9891423,node/7122983961,,38.7720567,Kassech Kitfo,0
8.9855755,node/7122983962,,38.7679985,Ambasel,0
8.9840055,node/7122983963,,38.7662234,WAGGA (Singer Liquior Store),0
8.9814923,node/7122983964,,38.7635127,Wengalawit,0
8.9817105,node/7122983968,,38.7636059,Wengalawit,0
8.9857381,node/7122983969,,38.7680101,MEDCO,0
8.98977,node/7122983970,,38.7723942,Tebaber Berta,0
8.9930626,node/7122983972,,38.7739711,Wello Sefer,0
9.0113972,node/7123180286,,38.8356151,Beshale Area,0
9.0185063,node/7123180287,,38.802106,Megenagna,0
9.0111777,node/7123180289,,38.821148,Jacros,0
9.0100121,node/7123180290,,38.8526604,Safari,0
9.0116739,node/7123180291,,38.8657082,Safari (Summit),0
9.0115148,node/7123180293,,38.8657494,Safari (Summit),0
9.0099646,node/7123180295,,38.8513684,Safari,0
9.011279,node/7123180296,,38.8356503,Beshale Area,0
9.0189315,node/7123180297,,38.8201425,Gurd Shola,0
9.0194519,node/7123180298,,38.803506,Megenagna,0
8.9882804,node/7123265052,,38.7650036,Meskel Flower,0
8.9911645,node/7123265053,,38.7659652,Loza (Adot),0
8.9934001,node/7123265054,,38.7663984,Nazra Hotel,0
8.9959487,node/7123265055,,38.7666123,Yetam Hotel,0
8.9980982,node/7123265056,,38.7667571,Kebele Kibeb,0
8.9999844,node/7123265061,,38.7669271,Mulu Shewa (Gazebo),0
8.9979306,node/7123265062,,38.7668423,Kebele Kibeb,0
8.9959132,node/7123265063,,38.7667132,Yetam Hotel,0
8.9937071,node/7123265064,,38.7665439,Nazra Hotel,0
8.9910552,node/7123265065,,38.7660467,Loza (Adot),0
8.9885268,node/7123265066,,38.7652457,Meskel Flower,0
8.9921561,node/7182111861,,38.7180191,Total 3 Kuter Mazoria,0
8.9865792,node/7182111862,,38.7468023,Kera,0
9.0351361,node/7214490240,,38.7629695,4 Kilo Minilik School,0
8.8967488,node/7214490241,,38.7708485,Kality Menaheriya,0
8.8504983,node/10672721751,,38.8085926,Delta Fuel Station,0
8.8412588,node/10672739809,,38.8243789,Sidama Awash NOC,0
8.8314833,node/10672739811,,38.8396009,Atlas Resort,0
8.8447465,node/10672739815,,38.818065,ODDA Fuel Station,0
8.9943894,node/10672961242,,38.717673,3 Kutir (TZNA Area),0
9.0117316,node/10672961244,,38.7335924,Lideta High Court,0
8.9839135,node/10750378219,,38.7024743,Ayer Tena,0
8.9925223,node/10755917239,,38.7394551,Sar Bet,0
8.9924619,node/10755917241,,38.7392871,Sar Bet,0
8.9859671,node/10755917242,,38.7469304,Kera,0
8.9900132,node/10755917243,,38.7418629,Kera,0
8.995096,node/10755917244,,38.7376124,Sar Bet,0
8.9973975,node/10755917245,,38.7309965,karl Square,0
8.9970773,node/10755917246,,38.7302642,karl Square,0
8.9927368,node/10755917247,,38.7268512,Bisrate Gebrael,0
8.9914228,node/10755917248,,38.7255644,Bisrate Gebrael,0
8.9888937,node/10755917249,,38.7226976,Bisrate Gebrael,0
8.9922875,node/10755917250,,38.7175917,Total 3 Kuter Mazoria,0
8.8967652,node/10766121857,,38.7708737,kality Meneharia,0
8.9319554,node/10766121859,,38.7669453,kality Maseltegna,0
8.9632423,node/10766121860,,38.7668102,Kadisco Roundabout,0
8.9816305,node/10766121861,,38.7761571,Bole Mickael,0
8.9966149,node/10766121862,,38.7721247,Bole Printing Press,0
9.0100526,node/10766121863,,38.7634141,Flamingo,0
9.0125659,node/10766121864,,38.7626278,St. Estifanos,0
9.035146,node/10766121865,,38.7629874,4 Kilo (Menlik),0
9.0352952,node/10766121866,,38.7631121,4 Kilo (Menlik),0
9.0214342,node/10766121867,,38.7641345,Place Parking (Gibi Gebriel),0
9.01014,node/10766121868,,38.7636218,Flamingo,0
8.9944147,node/10766121869,,38.7743234,Wollo Sefer,0
8.9812653,node/10766121871,,38.7761469,Bole Mikael,0
8.9737518,node/10766121872,,38.765481,Mamo (Nifas Silk),0
8.9321192,node/10766121873,,38.7670877,kality Maseltegna,0
8.8957067,node/10766121874,,38.7721261,kality Meneharia,0
9.0056744,node/10766454593,,38.7674734,Olympia,0
8.9867247,node/10766454594,,38.7908923,Bole Roundabout,0
9.003043,node/10768858718,,38.7411322,African Union,0
9.0296176,node/10768858719,,38.7370362,Autobis Tera,0
9.0026517,node/10768858720,,38.7470064,Guenet Hotel (Orbis),0
8.9651822,node/10768858723,,38.7340469,German Square,0
9.0239162,node/10781643820,,38.8198728,Lamberet Menaheria,0
9.0322896,node/10781643821,,38.7650098,Arat Kilo,0
9.0328365,node/10781643822,,38.7666152,4 kilo (Children Theatre),0
9.0325481,node/10781643823,,38.7736753,Bel Air,0
9.0344084,node/10781643824,,38.7768069,Kebena,0
9.0350794,node/10781643825,,38.7794124,Kokebe Tsebah (Kebena),0
9.0324942,node/10781643826,,38.7823515,Kenya Embassy (Kebena),0
9.0309005,node/10781643827,,38.785575,British Embassy,0
9.0289673,node/10781643828,,38.7888226,Abebe Sook,0
9.0251295,node/10781643829,,38.7947497,Shola (Yeka Court),0
9.0232585,node/10781643830,,38.7984062,Shola Abyssinia Bank,0
9.0224046,node/10781643831,,38.7997354,Megenagna (Marathon Motors),0
9.0208971,node/10781643832,,38.8010368,Megenagna,0
9.0208722,node/10781643833,,38.8048559,Megenagna (Israel Embassy),0
9.0240444,node/10781643834,,38.8199227,Lamberet Menaheria,0
9.0297042,node/10781643835,,38.836729,Kotebe,0
9.0304539,node/10781643836,,38.8385612,Kotebe,0
9.0348007,node/10781643837,,38.8490303,Kotebe Teachers College,0
9.0363204,node/10781643838,,38.8553365,Kotebe Gebriel,0
9.0358505,node/10781643839,,38.8541265,Kotebe Gebriel,0
9.032918,node/10781643840,,38.8443436,Wessen Grocery,0
9.0407203,node/10781643841,,38.8648947,Kara,0
9.0411416,node/10781643842,,38.8653607,Kara,0
9.0287927,node/10781844855,,38.788672,Abebe Sook,0
9.0313214,node/10781844856,,38.7843424,British Embassy,0
9.038677,node/10781844857,,38.7623866,5 Kilo St. Mary,0
9.0462129,node/10781844858,,38.7614003,6 Kilo University,0
9.0462072,node/10781844859,,38.7615945,6 Kilo University,0
9.0430896,node/10781844860,,38.7615002,6 Kilo (Lion Zoo),0
9.032679,node/10781844861,,38.7826601,Kenya Embassy (Kebena),0
9.0250431,node/10781844862,,38.7953847,Shola (Yeka Court),0
9.0225097,node/10781844863,,38.7998471,Megenagna (Marathon Motors),0
9.0381854,node/10823916391,,38.8773834,Yeka 03,0
8.931276,node/10842065101,,38.7341685,Sefera Atkilt Tera,0
8.9358559,node/10842065103,,38.7646885,kality Maseltegna,0
8.9948043,node/10842065104,,38.7478806,Bulgaria,0
8.9379429,node/10842129005,,38.7628904,Kality Customs,0
8.9644696,node/10842129006,,38.7330813,Germen Square,0
8.93579,node/10842129008,,38.7441345,Hana Mariam,0
8.9373819,node/10842129009,,38.7703639,Gomista,0
8.948706,node/10842129010,,38.780123,Nigd bank,0
8.9342123,node/10842129011,,38.7642814,kality Maseltegna,0
8.9310906,node/10842129012,,38.7585214,Kadisco,0
8.9582797,node/10842129013,,38.7638648,Adey abeba,0
8.9457865,node/10842129015,,38.7690665,Saris abo,0
8.93876,node/10842129016,,38.7345583,Haile Garment,0
8.9546992,node/10842129017,,38.7635479,Saris,0
8.9834477,node/10842129019,,38.7819099,Bole Cargo,0
8.9944221,node/10842129020,,38.7483448,Bulgaria,0
8.9482742,node/10842129021,,38.7765022,Kore,0
8.9444276,node/10842129022,,38.7691994,Saris Abo,0
8.8973782,node/10842129023,,38.7704449,Kality Menaheria,0
8.9254109,node/10842129024,,38.7340982,Sefera Square,0
9.009032,node/10842129025,,38.7463895,Mexico,0
8.9092945,node/10842129026,,38.7644698,Kality Gebriel,0
8.8869211,node/10842129027,,38.7821218,Derartu,0
8.9836884,node/10842129028,,38.7818039,Bole Cargo,0
8.8948904,node/10842129029,,38.7729402,Kality Total,0
8.9927142,node/10842129030,,38.748144,Noc,0
8.9901397,node/10842129031,,38.7590821,Lancha,0
8.9375158,node/10842129032,,38.7359129,Haile Garment,0
8.9880834,node/10842129033,,38.759633,Agona,0
8.9336549,node/10842129034,,38.7646465,kality Maseltegna,0
8.9417644,node/10842129035,,38.7214531,Mesqelegna,0
8.9537651,node/10842129037,,38.6979529,Jemo,0
8.9577771,node/10842129038,,38.7640443,Adey abeba,0
8.9448318,node/10842129040,,38.7661797,Saris Abo,0
8.9457862,node/10842129041,,38.7343973,Mebrat hayle,0
8.9633984,node/10842129042,,38.7669226,Kadisco,0
8.9356798,node/10842129043,,38.7453864,Hana Mariam,0
8.9729895,node/10842129045,,38.7609585,Mamo (NFSL),0
8.9490785,node/10842129046,,38.7785848,Medhani alem,0
8.9047633,node/10842129047,,38.7660661,Mosque (Mesged),0
8.9093265,node/10842129048,,38.7645559,Kality Gebriel,0
8.9859342,node/10842129051,,38.7888143,Bole Roundabout,0
8.9295556,node/10842129052,,38.7681435,Wuhalimat,0
8.9361549,node/10842129053,,38.7445142,Hana Mariam,0
8.9797944,node/10842129054,,38.7719673,Bole Mickael,0
8.9192813,node/10842129055,,38.7635639,Sheger building,0
8.9705748,node/10842129056,,38.7668114,Yoseph,0
8.9947898,node/10842129057,,38.7477478,Bulgaria,0
8.9470316,node/10842129058,,38.7342346,Mebrathayil,0
8.9250202,node/10842129059,,38.7346011,Sefera Square,0
9.0000494,node/10842129060,,38.758701,Tele Garage,0
8.9469179,node/10842129061,,38.7339445,Mebrathayil,0
8.9376734,node/10842129062,,38.7335906,Haile garment,0
9.0058652,node/10842129063,,38.758986,Meshualekia,0
8.9571801,node/10842129066,,38.7640108,Adey abada,0
8.9755358,node/10842129069,,38.706617,Menaheria (Zenebu Werk),0
8.9602509,node/10842129070,,38.767446,Adis sefer,0
8.930883,node/10842129071,,38.758758,Kadisco,0
8.993831,node/10842129072,,38.7478486,Bulgaria,0
8.9661182,node/10842129073,,38.7627716,Kadisco,0
8.9517202,node/10842129074,,38.7861393,Bulbula,0
8.966096,node/10842129075,,38.7629867,Kadisko,0
8.9444437,node/10842129076,,38.7700795,Saris abo,0
8.8758561,node/10842129077,,38.7874349,Meshualekya,0
8.9871416,node/10842129078,,38.7597928,Agona,0
8.9771026,node/10842129079,,38.7595824,Gotera chaf,0
8.9528149,node/10842129080,,38.7633358,Saris,0
9.0106804,node/10842129082,,38.7593422,St. Joseph School,0
8.9321621,node/10842129083,,38.7338312,Kotari Condominium,0
8.9732793,node/10842129084,,38.7652695,Mamo,0
8.9448603,node/10842129085,,38.7664084,Saris Abo,0
8.9705442,node/10842129086,,38.7665547,Yosef,0
8.9068482,node/10842129088,,38.7654586,Kality Cheralia,0
8.9066965,node/10842129089,,38.7653555,Kality Cheralia,0
8.9906489,node/10842129090,,38.7593009,Lancha,0
8.9375024,node/10842129091,,38.7701062,Gomista,0
8.9375082,node/10842129092,,38.7331196,Haile Garment,0
9.0001174,node/10842129093,,38.7584826,Tele Garage,0
8.8840683,node/10842129094,,38.7767083,Selam Building,0
8.9453322,node/10842129095,,38.7769101,Medhani alem,0
8.8832033,node/10842129096,,38.7771627,Selam Building,0
8.8758518,node/10842129097,,38.7872182,Meshualekya,0
8.9531876,node/10842129098,,38.7635911,Saris,0
8.963723,node/10842129102,,38.7328242,Germen adebabay,0
8.972508,node/10842129103,,38.7607874,Mamo (NFSL),0
8.9875165,node/10842129105,,38.7486365,Kera,0
8.9867627,node/10842129106,,38.7599766,Agona,0
8.9446574,node/10842129107,,38.7701231,Saris abo,0
8.9860883,node/10842129108,,38.7483211,Kera,0
8.8790966,node/10842129110,,38.7666013,Gelan Condominium,0
8.9953066,node/10842129111,,38.7596133,Temenja yasi,0
9.0041803,node/10842129112,,38.7588933,Riche,0
8.9368154,node/10842129113,,38.7364242,Haile garment,0
8.9795749,node/10842129114,,38.7720906,Bole Mickael,0
8.9835322,node/10842129116,,38.6971287,Ayer Tena,0
8.9537239,node/10842129117,,38.6977027,Jemo,0
9.0052072,node/10842129118,,38.7467544,Land mark,0
8.9411484,node/10842129119,,38.7218311,Meskelegna,0
8.9381771,node/10842129120,,38.7349153,Haile Garment,0
9.0040548,node/10842129121,,38.7586909,Riche,0
8.9476648,node/10842129122,,38.7841911,Kore,0
8.8770203,node/10842129124,,38.7866008,Meshualekya,0
8.9518942,node/10842129125,,38.7863461,Bulbula,0
8.9357353,node/10842129126,,38.7643342,kality Maseltegna,0
8.9457601,node/10842129129,,38.7692278,Saris abo,0
8.9603252,node/10842129131,,38.7676873,Addis sefer,0
8.9352291,node/10842129132,,38.744852,Hana mariam,0
8.9866879,node/10842129133,,38.7484325,Kera,0
8.9757898,node/10842129134,,38.7601404,Gotera chaf,0
8.8972852,node/10842129135,,38.770318,Akaki Subcity Office (Menaheria),0
8.9411922,node/10842129136,,38.7717099,Condominium,0
8.8789992,node/10842129137,,38.7666701,Gelan Condominium,0
8.9295931,node/10842129139,,38.7683276,Wuhalimat,0
9.0098761,node/10842129140,,38.7461882,Mexico,0
9.0312472,node/10845731573,,38.7413343,Grand Anwar Mosque,0
9.0247282,node/10845731574,,38.7457773,Kebele 11,0
9.0028738,node/10845731575,,38.7468651,Guenet hotel,0
8.9923344,node/10845731576,,38.7589891,Lancia,0
8.9825134,node/10845731577,,38.755826,Pepsi,0
8.9919399,node/10845731578,,38.7591215,Lancia,0
9.0279893,node/10845731579,,38.7438378,Tekle Haimanot,0
8.9441872,node/10845731580,,38.7666459,Saris Abo,0
9.0120319,node/10845731581,,38.7544517,Legehar,0
8.9841589,node/10845731582,,38.7522272,Kera,0
8.9380577,node/10845731583,,38.7631799,Kality Customs,0
9.0342603,node/10845731584,,38.7378007,Gojam Berenda,0
9.0343553,node/10845731585,,38.7381021,Gojam Berenda,0
8.8869148,node/10845731586,,38.7818893,Derartu,0
8.9824223,node/10845731587,,38.7557408,Pepsi,0
8.9943898,node/10845731588,,38.7596457,Global Hotel,0
8.9208636,node/10845731589,,38.7637542,Sheger Building,0
9.0343246,node/10845731590,,38.734431,Autobus Tera,0
9.0027786,node/10845731591,,38.7469738,Guenet hotel,0
9.0279685,node/10845731592,,38.7439714,Tekle Haimanot,0
8.9970419,node/10845731593,,38.7476261,Beg Tera,0
8.9943499,node/10845731594,,38.7598651,Global Hotel,0
8.9223845,node/10845731595,,38.7641252,Kality Correctional,0
8.9029367,node/10845731596,,38.7667306,Cheralia Factory,0
9.0246149,node/10845731597,,38.7457421,Kebele 11,0
9.0310422,node/10845731598,,38.7414003,Grand Anwar Mosque,0
9.0165472,node/10845731599,,38.7526758,National Theatre,0
8.95346,node/10845731601,,38.767986,Saris,0
8.9968163,node/10845731602,,38.7475303,Beg Tera,0
9.014753,node/10845731603,,38.7468099,Sengatera,0
9.0096228,node/10845731604,,38.746301,Mexico,0
8.9937615,node/10845749005,,38.7479845,Bulgaria,0
8.8956285,node/10845840895,,38.7720203,kality Meneharia,0
8.9841307,node/10845840896,,38.6966586,Ayer Tena,0
8.9637758,node/10845840897,,38.7330269,Germen adebabay,0
8.8948231,node/10846106471,,38.7728316,Kality Total,0
8.9869946,node/10881147490,,38.7912092,Bole Bridge,0
8.9867302,node/10881147492,,38.7903563,Bole Bridge,0
9.0341009,node/10883106542,,38.7338003,Autobus Tera,0
8.907041,node/10886135782,,38.7415025,Bajaj Tera,0
8.904156,node/10886135783,,38.7479978,Chera,0
8.8772921,node/10886135784,,38.7622377,Gelan Condominium,0
8.8549158,node/10886135785,,38.7845626,Total,0
8.8737817,node/10886135787,,38.8197795,Tulu Dimtu,0
8.8738791,node/10886135789,,38.8202354,Tulu Dimtu,0
8.8709574,node/10886135790,,38.820802,G7,0
8.8541896,node/10886135791,,38.7847209,Total,0
8.8758233,node/10886135793,,38.7630121,Gelan Condominium,0
8.9906055,node/10886281950,,38.7928534,Bole Bridge,0
8.9955183,node/10886281951,,38.7887705,Bole Medhanyalem,0
8.9973425,node/10886281952,,38.7870108,Edna Mall Squar,0
9.0043569,node/10886281953,,38.7892817,Adey Ababa Stadium,0
9.0150262,node/10886281954,,38.7872566,22 Mazoria,0
9.0150056,node/10886281956,,38.787438,22 Mazoria,0
9.0082739,node/10886281958,,38.7887083,Freedom,0
9.0069454,node/10886281997,,38.7890587,Werku Building,0
9.0042976,node/10886281998,,38.7893444,Adey Ababa Stadium,0
8.9977034,node/10886281999,,38.7869491,Edna Mall Squar,0
8.995948,node/10886282000,,38.7885714,Bole Medhanyalem,0
8.9906936,node/10886282001,,38.7929596,Bole Bridge,0
9.0161537,node/10886427067,,38.7881236,22 Mazoria,0
9.017758,node/10886427068,,38.7950715,Lem Hotel,0
9.0198841,node/10886427069,,38.8019786,Megenagna,0
9.0191878,node/10886427070,,38.8200261,Gurd Shola,0
9.0218654,node/10886427071,,38.8345374,Civil Servis College,0
9.0209806,node/10886427072,,38.8536095,Yetebaberut,0
9.0214852,node/10886427073,,38.8750186,Ayat,0
9.0215577,node/10886427074,,38.8350083,Civil Servis College,0
9.0211711,node/10886427075,,38.8737977,Ayat,0
9.0204163,node/10886427076,,38.8598848,Meshageria,0
9.020619,node/10886427077,,38.8535182,Yetebaberut,0
8.9907378,node/10886883544,,38.7941243,Bole Bora Amusement,0
9.0185543,node/10886883546,,38.8016982,Megenagna,0
9.0078296,node/10886883547,,38.8034449,Anbessa Garage,0
9.0037737,node/10886883548,,38.8009392,Emperial Hotel,0
8.9950343,node/10886883549,,38.7961015,Hayat Hospital,0
8.9916604,node/10886883550,,38.7949793,Bole Bora Amusement,0
9.0199832,node/10886991025,,38.852562,Sun shine,0
9.0200202,node/10886991026,,38.8042842,Megenagna,0
9.021578,node/10886991027,,38.841553,Meshualekia,0
9.0110042,node/10886991028,,38.8522797,Safari,0
9.004015,node/10886991029,,38.8519977,Summit,0
9.004282,node/10886991031,,38.8517386,Summit,0
9.010941,node/10886991032,,38.8519018,Safari,0
9.0199154,node/10886991033,,38.8520834,Sun shine,0
9.021324,node/10886991034,,38.8415391,Meshualekia,0
9.021353,node/10886991035,,38.8392942,Michael,0
9.0187135,node/10886991036,,38.8211275,Gurd Shola,0
8.9948468,node/10887120325,,38.7956759,Hayat Hospital,0
9.0001969,node/10887120326,,38.798384,Sport Accadamy,0
9.0027661,node/10887120327,,38.8000262,Emperial Hotel,0
9.0187177,node/10887120328,,38.8016319,Mulugeta Building,0
8.9603848,node/10890083966,,38.7855121,93 Mazoria,0
8.9623057,node/10890083967,,38.7863684,Kaldisco,0
8.9642046,node/10890083968,,38.7872114,Key Afer,0
8.9901774,node/10890083969,,38.7938035,Bole Bridge,0
8.9642211,node/10890290096,,38.7873203,Key Afer,0
8.9604784,node/10890290097,,38.785703,93 Mazoria,0
8.9581348,node/10890290098,,38.7875752,Kebele,0
9.0080412,node/10893030388,,38.8031745,Anbessa Garage,0
9.0035488,node/10893030389,,38.8169267,Jacros,0
8.9993201,node/10893030390,,38.8210973,Alem Ayew Building,0
8.9923039,node/10893030392,,38.8283586,Goro,0
8.9917123,node/10893030394,,38.8287738,Goro,0
8.9939213,node/10893030395,,38.8266397,Goro School,0
8.9992455,node/10893030396,,38.8210064,Alem Ayew Building,0
9.0035377,node/10893030397,,38.8166485,Jacros,0
8.9999982,node/10893030398,,38.7986195,Sport Accadamy,0
8.9911487,node/10893030400,,38.7947324,Bole Bridge,0
9.0122741,node/10893316186,,38.8336594,Figa,0
9.0110639,node/10893316189,,38.8366122,Mesgid,0
9.0121764,node/10893316190,,38.8335762,Figa,0
8.984658,node/10898980600,,38.7731313,Bole Mickael,0
9.0162838,node/10898980601,,38.7551282,Ambasader,0
9.0069448,node/10898980602,,38.7662663,Dembel,0
9.0123922,node/10898980603,,38.7586647,Stadium,0
9.0192676,node/10898980604,,38.7466456,Metrology,0
9.0217285,node/10898986005,,38.7476072,Tikur Anbesa,0
9.0207753,node/10898986007,,38.7476005,Tikur Anbesa,0
9.0188878,node/10898986008,,38.7467207,Metrology,0
9.0164136,node/10898986009,,38.7553118,Ambasader,0
9.011485,node/10898986010,,38.760062,Stadium,0
9.0038396,node/10898986011,,38.7686303,Dembel,0
8.9979213,node/10898986012,,38.7717243,Bole Printing Press,0
8.9849144,node/10898986014,,38.7734946,Bole Mickael,0
9.0318094,node/10899009892,,38.7413697,Cinema Ras,0
9.0317766,node/10899009893,,38.7414723,Cinema Ras,0
8.992509,node/10899150564,,38.7781683,Rwanda,0
9.0017627,node/10899150565,,38.7693116,Shewa Dabo,0
9.0120704,node/10899150566,,38.7626611,St. Estifanos Church,0
9.0321752,node/10899150567,,38.7511048,Piassa Arada,0
9.0330229,node/10899150568,,38.7525581,Piassa Arada,0
9.0264157,node/10899150569,,38.7517894,Tewodros Square,0
9.0210948,node/10899150570,,38.7522625,Tikur Anbesa,0
9.019064,node/10899150571,,38.7529153,Post Office,0
9.0138467,node/10899150572,,38.7576138,Ghion Hotel,0
8.9885561,node/10899278324,,38.7897689,Bole Bridge,0
8.9908062,node/10899278325,,38.7840796,Friendship Building,0
8.9923825,node/10899278326,,38.7798445,Rwanda,0
8.9908613,node/10899278327,,38.7844715,Friendship Building,0
8.9887169,node/10899278328,,38.7898626,Bole Bridge,0
9.0084115,node/10899524535,,38.8038533,Anbessa Garage,0
9.0049309,node/10899524536,,38.8100683,Condominium - Gerji Mebrat hayle,0
9.0036683,node/10899524537,,38.814209,Gerji Mebrat hayle,0
8.9913434,node/10899524538,,38.8294024,Goro,0
8.900477,node/10899524539,,38.815561,kilinto Right,0
8.875391,node/10899524540,,38.8197599,Tulu Dimtu,0
8.900461,node/10899524542,,38.8150743,kilinto Right,0
8.9912832,node/10899524543,,38.8292469,Goro,0
9.0035919,node/10899524544,,38.8134376,Gerji Mebrat hayle,0
9.0050654,node/10899524545,,38.8095948,Condominium - Gerji Mebrat hayle,0
9.0071868,node/10899524547,,38.8055809,Anbessa Garage,0
9.011198,node/10899590290,,38.8364067,Mesgid,0
8.994461,node/10899590291,,38.8518486,Saint Georgis,0
8.994389,node/10899590293,,38.8515329,Saint Georgis,0
8.9493529,node/10899652823,,38.7332958,Mebrathile,0
8.9556186,node/10899652824,,38.7324445,Gebriel Bridge,0
8.965384,node/10899652825,,38.7273491,Mickael Bridge,0
8.9727473,node/10899652826,,38.7121031,Zenebewerk,0
8.975714,node/10899652827,,38.7055213,Chaina Camp,0
8.981635,node/10899652829,,38.6982059,Ayer Tena,0
8.9385233,node/10901428140,,38.7348966,Haile Garment,0
8.9201595,node/10901428141,,38.7353205,Sefera,0
8.9311784,node/10901428142,,38.7337094,Sefera Atkilt Tera,0
8.9208099,node/10901428143,,38.734667,Sefera,0
8.8870433,node/10901522017,,38.7519617,Mesalemia,0
8.9032086,node/10901522018,,38.7484085,Chera Medhanilem,0
8.935726,node/10901522020,,38.7346387,Haile Garment,0
8.9034769,node/10901522021,,38.7491293,Chera Medhanilem,0
8.8871115,node/10901522022,,38.7524365,Mesalemia,0
8.9530332,node/10901643508,,38.7629397,Saris,0
8.9431476,node/10901643510,,38.7540078,58 Mazoria,0
8.9405222,node/10901643511,,38.7500946,Kidane Mihret Stebel,0
9.0084289,node/10902267327,,38.7447143,Mexico,0
9.0084377,node/10902267330,,38.7448728,Mexico,0
8.9990666,node/10902267332,,38.7393711,AU (Mikael) Rounrdabout,0
8.9990162,node/10902267333,,38.7395668,AU (Mikael) Rounrdabout,0
8.9923567,node/10902267334,,38.7381301,Sar Bet,0
8.9923453,node/10902267335,,38.7383324,Sar Bet,0
8.9822679,node/10902267336,,38.7342938,Abo Mazoria,0
8.9823292,node/10902267337,,38.7344209,Abo Mazoria,0
8.9729293,node/10902267338,,38.7311351,Mekanisa,0
8.9728812,node/10902267339,,38.7312498,Mekanisa,0
8.9555964,node/10902267340,,38.732719,Gebriel Bridge,0
8.9432326,node/10903393900,,38.7539257,58 Mazoria,0
8.9487486,node/10903398373,,38.7267004,Varnelo Squer,0
8.9594798,node/10903398374,,38.7117668,Jemmo 1,0
8.9585188,node/10903398375,,38.712128,Jemmo 1,0
8.9524535,node/10903398376,,38.7161087,Jemmo Medhanialem,0
8.9525568,node/10903398377,,38.7162235,Jemmo Medhanialem,0
8.9490672,node/10903398378,,38.7221583,Kebele,0
8.9491872,node/10903398379,,38.7221797,Kebele,0
8.9488837,node/10903398380,,38.7267159,Varnelo Squer,0
8.9951163,node/10904734315,,38.7373285,Sar Bet,0
8.9936468,node/10904734316,,38.7276618,Austria Embassy,0
8.9922476,node/10904734318,,38.7177291,Total 3 Kuter Mazoria,0
9.0330017,node/10905160356,,38.7322404,Autobus Tera,0
9.033026,node/10905160357,,38.7323851,Autobus Tera,0
9.0282768,node/10905160358,,38.7329553,Sebategna,0
9.0283274,node/10905160359,,38.7331326,Sebategna,0
9.021201,node/10905160360,,38.7333187,Abenet,0
9.0196344,node/10905160361,,38.7335682,Abenet,0
9.0158211,node/10905160362,,38.7346366,Darmar,0
9.0154497,node/10905160363,,38.7347971,Darmar,0
9.0133778,node/10905160364,,38.7343382,Lideta Condominium,0
9.0133623,node/10905160365,,38.7345056,Lideta Condominium,0
9.0094187,node/10905160366,,38.7337879,Dessie Hotel,0
9.0093029,node/10905160367,,38.7339331,Dessie Hotel,0
9.0046165,node/10905160368,,38.7337058,Lideta,0
9.0041332,node/10905160369,,38.7338158,Lideta,0
9.0001611,node/10905160370,,38.7393722,AU (Mikael) Rounrdabout,0
8.9999889,node/10905160371,,38.7400667,AU (Mikael) Rounrdabout,0
8.9839514,node/10905641592,,38.7518897,Kera,0
8.9606229,node/10905771998,,38.7123799,Jemmo 1,0
8.9688439,node/10905771999,,38.7216431,Jemmo Mickael,0
9.0192423,node/10905772000,,38.7468034,Metrology,0
8.9969985,node/10905772001,,38.7304143,karl Square,0
8.9883364,node/10905772002,,38.7227062,Bisrate Gebrael,0
8.9687533,node/10905772003,,38.7218663,Jemmo Mickael,0
8.9604031,node/10905772004,,38.7124299,Jemmo 1,0
8.9493317,node/10905866700,,38.6701812,Noc,0
8.9339514,node/10905876026,,38.6639521,Alem Gena,0
8.933851,node/10905876027,,38.6640124,Alem Gena,0
8.9493415,node/10905876029,,38.670031,Noc,0
8.9538566,node/10905876030,,38.6965362,Jemmo 3 Squer,0
8.9552123,node/10905876031,,38.697557,Jemmo 3 Squer,0
9.0220649,node/10905982178,,38.7520387,Post Office,0
8.9652918,node/10905982179,,38.732839,Germen Square,0
8.9664306,node/10905982180,,38.7325545,Germen Square,0
8.9717027,node/10906020778,,38.7418952,Gofa,0
8.9716231,node/10906020779,,38.7419996,Gofa,0
8.9816221,node/10906074341,,38.6979766,Ayer Tena,0
8.9644965,node/10906074342,,38.7320917,Germen Square,0
8.9646595,node/10906074343,,38.732112,Germen Square,0
8.9883474,node/10907679395,,38.6922537,Mesked,0
8.9913753,node/10907679396,,38.6892908,Kidane Mihret,0
8.9958978,node/10907679398,,38.683541,Tropical,0
9.0003808,node/10907679399,,38.677926,Alem Bank,0
9.0010321,node/10907679400,,38.6776565,Alem Bank,0
8.9957016,node/10907679401,,38.6841485,Tropical,0
8.9915373,node/10907679402,,38.689491,Kidane Mihret,0
8.9884696,node/10907679403,,38.6925125,Mesked,0
8.9757717,node/10907679404,,38.7060819,Chaina Camp,0
8.9730472,node/10907725405,,38.7121867,Zenebewerk,0
8.9655559,node/10907725406,,38.7275949,Mickael Bridge,0
8.9648278,node/10907781477,,38.7333383,Germen Square,0
8.9844811,node/10907781478,,38.7500865,Kera,0
8.9842955,node/10907781479,,38.750364,Kera,0
8.9770976,node/10907781480,,38.7490157,Gofa Gebriel,0
8.9770919,node/10907781481,,38.7491174,Gofa Gebriel,0
8.9832814,node/10908143594,,38.7343726,Mekanisa Abo,0
8.9830621,node/10908143595,,38.7341531,Mekanisa Abo,0
9.0088673,node/10908143596,,38.7440188,Mexico,0
9.0088181,node/10908143597,,38.7438,Mexico,0
9.0263912,node/10908191497,,38.7516402,Tewodros Square,0
8.9739466,node/10908191498,,38.7321651,Mekanisa,0
8.9738507,node/10908191499,,38.7322539,Mekanisa,0
9.0187971,node/10908191500,,38.7524753,Post Office,0
8.9493572,node/10908661149,,38.7334477,Mebrathile,0
9.0159317,node/10909186645,,38.729496,Coca Cola,0
9.0294352,node/10909186646,,38.735361,Merab Hotel,0
9.0213907,node/10909186647,,38.7334955,Abenet,0
9.0293588,node/10909186648,,38.7353749,Merab Hotel,0
9.016555,node/10909186649,,38.7180312,Kolfe Keranyo,0
9.0203575,node/10909186650,,38.7159578,Holand,0
9.0204824,node/10909186651,,38.7162551,Holand,0
9.017036,node/10909186652,,38.7176312,Kolfe Keranyo,0
9.0171583,node/10909186653,,38.7179346,Kolfe Keranyo,0
9.0122446,node/10909186654,,38.7202541,Torhayloch,0
9.0120497,node/10909186655,,38.7202419,Torhayloch,0
9.0134653,node/10909186657,,38.7097752,Keranio Mewcha,0
9.0133225,node/10909186658,,38.7097861,Keranio Mewcha,0
9.0140592,node/10909186659,,38.7049946,Mewcha,0
9.0139288,node/10909186660,,38.7050058,Mewcha,0
9.0153041,node/10909186661,,38.699427,Mendida,0
9.0151509,node/10909186662,,38.6995858,Mendida,0
9.0037697,node/10909186663,,38.6937692,Betel,0
9.0036921,node/10909186664,,38.6937746,Betel,0
9.0017481,node/10909186665,,38.6775777,Alem Bank,0
9.0016995,node/10909186666,,38.677633,Alem Bank,0
8.9868549,node/10911198617,,38.7080844,Zenebewerk,0
8.9867824,node/10911198618,,38.7081829,Zenebewerk,0
8.9838764,node/10911198619,,38.6960194,Ayer Tena,0
9.0114518,node/10911242345,,38.7446969,Mexico Shebelle Hotel,0
9.0114526,node/10911242346,,38.7445773,Mexico Shebelle Hotel,0
9.0117415,node/10911242347,,38.7336365,Lideta,0
9.0115482,node/10911242348,,38.7336469,Lideta,0
9.001869,node/10911242349,,38.6772002,Alem Bank,0
9.0018954,node/10911242350,,38.6769434,Alem Bank,0
8.9834957,node/10911695404,,38.7007283,Ayer Tena,0
9.0044227,node/10911717876,,38.6943792,Betel,0
9.0043775,node/10911717877,,38.6941796,Betel,0
8.9831049,node/10911725505,,38.6982237,Ayer Tena,0
8.9879977,node/10912835918,,38.7080303,Zenebewerk,0
8.9880219,node/10912835920,,38.7079594,Zenebewerk,0
9.0295143,node/10913852032,,38.714679,Mebrat Haile,0
9.0294826,node/10913852033,,38.7149385,Mebrat Haile,0
9.0334554,node/10913852034,,38.7146172,18 Mazoria,0
9.0334598,node/10913852035,,38.714468,18 Mazoria,0
9.0196268,node/10913863174,,38.7327435,Abenet,0
9.0194053,node/10913863175,,38.7327231,Abenet,0
9.0159095,node/10913863176,,38.7296372,Coca Cola,0
9.0117875,node/10913863177,,38.7222401,Torhayloch,0
9.0096837,node/10913863178,,38.7208808,Torhayloch,0
9.0056583,node/10913863179,,38.7185634,Augusta Bridge,0
9.0055925,node/10913863180,,38.7188581,Augusta Bridge,0
9.0000925,node/10913863181,,38.7188599,Old Airport,0
8.9998426,node/10913863182,,38.7191188,Old Airport,0
8.9932525,node/10913863183,,38.7170227,3 Kutir Mazoriya (Total),0
8.9926315,node/10913863184,,38.7158494,3 Kutir Mazoriya (Total),0
8.9756363,node/10913974717,,38.6817486,Kara Kore,0
8.9754096,node/10913974718,,38.6814462,Kara Kore,0
8.9813701,node/10913974719,,38.6894126,Gerar,0
8.9813486,node/10913974720,,38.6894421,Gerar,0
8.9829716,node/10913974721,,38.6982009,Ayer Tena,0
9.0116587,node/10914160973,,38.746198,Mexico,0
9.0102476,node/10914160974,,38.7438026,Mexico,0
8.987734,node/10914160976,,38.708928,Zenebewerk,0
8.9849086,node/10914160977,,38.7049751,Zenebewerk,0
8.9853381,node/10914680945,,38.7053463,Zenebewerk Meneharia,0
8.9852574,node/10914680946,,38.7056363,Zenebewerk Meneharia,0
9.0417169,node/10914784456,,38.71237,Atena Tera,0
9.0414427,node/10914784457,,38.7127192,Atena Tera,0
9.028352,node/10915613002,,38.7426711,Tekle Haimanot,0
9.0281855,node/10915613003,,38.742622,Tekle Haimanot,0
9.0658063,node/10915905485,,38.6937551,Asko,0
9.065919,node/10915905486,,38.6937141,Asko,0
9.0612502,node/10915905487,,38.7010467,Chereta,0
9.0612523,node/10915905488,,38.7011727,Chereta,0
9.0575666,node/10915905489,,38.7069671,Gulele Fana,0
9.0576638,node/10915905490,,38.7070447,Gulele Fana,0
9.0572628,node/10915905491,,38.7114229,Awolia,0
9.0576104,node/10915905492,,38.7116493,Awolia,0
9.0555179,node/10915905493,,38.7124522,Winget,0
9.0554488,node/10915905494,,38.7127252,Winget,0
9.018116,node/10918141989,,38.6993091,Kokebe,0
9.0178995,node/10918141990,,38.6991634,Kokebe,0
9.0188526,node/10918141991,,38.6969603,Yeshi Debele,0
9.0185642,node/10918141992,,38.6971815,Yeshi Debele,0
9.0177704,node/10918141993,,38.7017975,Keranio Adebabay,0
9.0176675,node/10918141994,,38.7006389,Keranio Adebabay,0
9.0178222,node/10918141995,,38.7049143,Medhanalem,0
9.0175512,node/10918141996,,38.7047128,Medhanalem,0
9.0115804,node/10918245686,,38.7208703,Torhayloch,0
9.0099639,node/10918245687,,38.720685,Torhayloch,0
9.0114229,node/10918314820,,38.7225031,Torhayloch,0
9.0128836,node/10918339958,,38.7206095,Torhayloch,0
9.0118511,node/10922141942,,38.7544283,Legehar,0
9.0691686,node/10923884107,,38.7174162,Zebera,0
9.0630022,node/10923884109,,38.7350114,Addisu Gebeya,0
9.0625854,node/10923884110,,38.7352489,Addisu Gebeya,0
9.0670589,node/10923884111,,38.725597,Bera Tera,0
9.0689759,node/10923884112,,38.7174444,Zebera,0
9.0594889,node/10923941250,,38.7374564,Addisu Gebeya,0
9.059208,node/10923941251,,38.7379019,Addisu Gebeya,0
9.0528165,node/10923941252,,38.7431266,Semen Mazegaga,0
9.0528691,node/10923941253,,38.7432318,Semen Mazegaga,0
9.0483987,node/10923941254,,38.7461562,Shola,0
9.0484505,node/10923941255,,38.7462522,Shola,0
9.0446634,node/10923941256,,38.7483104,Semen Hotel,0
9.0446029,node/10923941257,,38.7485012,Semen Hotel,0
9.0425995,node/10923941258,,38.745274,Yohanes,0
9.0425158,node/10923941259,,38.7453414,Yohanes,0
9.0346843,node/10923941260,,38.7394065,Eritrea Hotel,0
9.0347991,node/10923941261,,38.7393526,Eritrea Hotel,0
9.0552727,node/10924087993,,38.7517928,Medhanalem,0
9.0552441,node/10924087994,,38.7518851,Medhanalem,0
9.0520868,node/10924087995,,38.7497489,Chelote,0
9.0521299,node/10924087996,,38.7496604,Chelote,0
9.0479898,node/10924087997,,38.746423,Shola,0
9.0480732,node/10924087998,,38.7465175,Shola,0
9.0385287,node/10924088002,,38.7516855,St. George Church,0
9.0385651,node/10924088003,,38.7518109,St. George Church,0
9.0365922,node/10924088004,,38.7521881,Piassa,0
9.0341764,node/10924116805,,38.7533491,Piassa,0
9.0650022,node/10924116806,,38.7492165,Kechenie,0
9.0652677,node/10924116808,,38.7497807,Kechenie,0
9.0639755,node/10924211089,,38.7268465,Shegole,0
9.0640548,node/10924211090,,38.7269586,Shegole,0
9.0590346,node/10924211093,,38.7274953,Rufael,0
9.0590438,node/10924211094,,38.7274376,Rufael,0
9.0544658,node/10924211095,,38.7329754,Tureta Deldy,0
9.054531,node/10924211096,,38.7330307,Tureta Deldy,0
9.0492619,node/10924211097,,38.7377403,Enqulal Fabrica,0
9.0492678,node/10924211098,,38.7378298,Enqulal Fabrica,0
9.0444679,node/10924212637,,38.7440337,Ras Desta,0
9.0444022,node/10924212638,,38.7439161,Ras Desta,0
9.0375917,node/10924212640,,38.7483682,Sebara Babur,0
9.0358617,node/10924212641,,38.749271,Abune Petros,0
9.0359205,node/10924212642,,38.7494119,Abune Petros,0
9.04258,node/10924212643,,38.7458165,Yohanes,0
9.0426863,node/10924212644,,38.7459326,Yohanes,0
9.0230837,node/10924342466,,38.79823,Shola Abyssinia Bank,0
9.0307347,node/10924342467,,38.7854804,British Embassy,0
9.0385889,node/10924342468,,38.7730468,Menelik II Hospital,0
9.0385052,node/10924342469,,38.7728666,Menlik Hospital,0
9.0437871,node/10924342470,,38.761858,6 Kilo,0
9.0453786,node/10924342471,,38.7613161,6 Kilo,0
9.0352542,node/10924981547,,38.7527884,Piassa,0
9.0168504,node/10924981836,,38.7714084,Kazanchis,0
9.0167816,node/10924981837,,38.7712817,Kazanchis,0
9.0199981,node/10924981839,,38.767286,Meneharya,0
9.0462061,node/10924981840,,38.7614317,6 Kilo,0
9.046202,node/10924981841,,38.7615616,6 Kilo,0
9.0430636,node/10925096455,,38.7613028,6 Kilo (Lion Zoo),0
9.0509212,node/10925096457,,38.7621679,Medhanalem,0
9.0609308,node/10925096458,,38.7616364,Shiromeda,0
9.0610296,node/10925096459,,38.7618074,Shiromeda,0
9.0350989,node/10925161777,,38.7493321,Abune Petros,0
9.0353615,node/10925161778,,38.7492809,Abune Petros,0
9.0385895,node/10925161780,,38.7526253,St. George Total,0
9.0338335,node/10925161781,,38.7411822,Raguel Church,0
9.0340374,node/10925161782,,38.7413278,Raguel Church,0
9.0352768,node/10925161783,,38.7491307,Piassa,0
9.0350881,node/10925161784,,38.749266,Piassa,0
9.0115722,node/10925195639,,38.7462619,Mexico,0
9.0572967,node/10925695034,,38.7130281,Winget,0
9.0576478,node/10925695035,,38.7136024,Winget,0
9.0630668,node/10925835130,,38.7201372,Shegole,0
9.0630578,node/10925835131,,38.7201639,Shegole,0
9.051016,node/10925835153,,38.7226821,Medhanalem,0
9.0512021,node/10925835154,,38.7228048,Medhanalem,0
9.047368,node/10925835155,,38.7275912,Pawlos Hospital,0
9.0474739,node/10925835156,,38.7277025,Pawlos Hospital,0
9.0462435,node/10925835157,,38.7306013,Pastor,0
9.0460773,node/10925835158,,38.7305979,Pastor,0
9.041653,node/10925835159,,38.7324674,Michael,0
9.0418749,node/10925835160,,38.732621,Michael,0
9.0356953,node/10925835161,,38.731876,Autobus Tera,0
9.0357033,node/10925835162,,38.731937,Autobus Tera,0
8.9844426,node/10925946103,,38.8548285,Summit Condominiums,0
8.9909634,node/10925946104,,38.8525995,Summit Condominiums,0
9.0206981,node/10925966505,,38.8598883,Meshageria,0
9.0212039,node/10925966506,,38.8751635,Derartu Adebabay,0
9.0215357,node/10925966507,,38.8751433,Derartu Adebabay,0
9.0403679,node/10925966508,,38.8773377,Gebreal,0
9.0402783,node/10925966509,,38.8778174,Gebreal,0
9.0556843,node/10925966510,,38.8778648,Aba Kiros,0
9.0561133,node/10925966511,,38.878549,Aba Kiros,0
8.9732139,node/10926028111,,38.8903446,Bole Arabsa,0
8.9726241,node/10926028112,,38.8904396,Bole Arabsa,0
8.9932453,node/10926028113,,38.8850892,Maseltegna,0
8.9932023,node/10926028114,,38.8854551,Maseltegna,0
9.0100814,node/10926028115,,38.8780839,Sun shine,0
9.0100956,node/10926028116,,38.8779385,Sun shine,0
9.0215285,node/10926028117,,38.8770142,Ayat,0
8.9875932,node/10926040103,,38.8848989,Mariam,0
8.9875847,node/10926040104,,38.8852531,Mariam,0
9.0212341,node/10926074605,,38.8767405,Ayat,0
8.9910294,node/10926094674,,38.8529201,Summit Condominiums,0
9.0195894,node/10926094675,,38.8033659,Megenagna,0
9.0203394,node/10926817920,,38.8038784,Megenagna,0
9.057063,node/10926817921,,38.8779123,Tafo Square,0
9.0566681,node/10926817922,,38.8780073,Tafo Square,0
9.0021737,node/10926849848,,38.8763861,Sun shine,0
9.0011674,node/10926849849,,38.8537813,Summit Chafe,0
9.0015569,node/10926849850,,38.8537842,Summit Chafe,0
8.9918731,node/10926849851,,38.8299574,Goro,0
8.9917492,node/10926849852,,38.8303339,Goro,0
9.0194791,node/10926896755,,38.8256621,Se'alite Mihret,0
9.0198404,node/10926896756,,38.8254269,Se'alite Mihret,0
9.0109362,node/10926896757,,38.8944977,Ayat Chefe Condominium,0
9.0113892,node/10926896758,,38.8946434,Ayat Chefe Condominium,0
9.0207778,node/10928177661,,38.8758009,Ayat,0
8.9846036,node/10928876312,,38.854445,Summit Condominiums,0
8.9844416,node/10928876313,,38.8548242,Summit Condominiums,0
9.0273248,node/10929299420,,38.751565,Tewodros Square,0
9.0273553,node/10929299421,,38.7517149,Tewodros Square,0
9.0209798,node/10929299422,,38.7480915,Tikur Anbesa,0
9.0105347,node/10929337801,,38.7449001,Mexico,0
9.0119557,node/10929337802,,38.7559408,Stadium,0
9.0121328,node/10929337803,,38.7559437,Stadium,0
9.0195364,node/10929412718,,38.8009614,Megenagna,0
9.0190569,node/10929412719,,38.8005907,Megenagna,0
9.0155693,node/10929412721,,38.787267,22 Mazoria,0
9.0211986,node/10929694820,,38.7940688,Lem Hotel,0
9.0210828,node/10929694821,,38.7939939,Lem Hotel,0
9.0235014,node/10929694822,,38.7815067,Signal,0
9.0233755,node/10929694823,,38.781471,Signal,0
9.0280712,node/10929694824,,38.7718347,Abuare Gebeya,0
9.0279894,node/10929694825,,38.7718123,Abuare Gebeya,0
9.0270034,node/10929694826,,38.7520638,Tewodros Square,0
9.0268625,node/10929694827,,38.7520149,Tewodros Square,0
9.0285216,node/10929694828,,38.744541,Tekle Haimanot,0
9.0284531,node/10929694829,,38.74454,Tekle Haimanot,0
9.020064,node/10929694830,,38.8009431,Megenagna,0
9.0200336,node/10929694831,,38.8005994,Megenagna,0
9.0127448,node/10929752934,,38.7209032,Torhayloch,0
9.0225048,node/10931788261,,38.7998465,Megenagna,0
9.021325,node/10931788262,,38.8010821,Megenagna,0
9.0303308,node/10931809323,,38.8385778,Kotebe,0
9.0284671,node/10931809324,,38.8331547,Se'alite Mihret,0
9.0283689,node/10931809325,,38.833187,Se'alite Mihret,0
9.0216042,node/10931809326,,38.8139293,Lamberet,0
9.0214909,node/10931809327,,38.813953,Lamberet,0
9.0404534,node/10931809328,,38.8642169,Kara,0
9.0404001,node/10931809329,,38.864319,Kara,0
9.0216983,node/10931809330,,38.8015712,Megenagna,0
9.0224128,node/10931850027,,38.799743,Megenagna,0
9.0344299,node/10931850028,,38.7799581,Kokebe Tsebah (Kebena),0
9.036142,node/10931884718,,38.7628341,4 Kilo,0
9.0571169,node/10931884719,,38.7769686,Ferensay,0
9.0570142,node/10931884720,,38.7769596,Ferensay,0
9.0535366,node/10931884721,,38.7722195,Mezan,0
9.0535794,node/10931884722,,38.7721316,Mezan,0
9.0470261,node/10931884723,,38.7690665,Jan Meda,0
9.0471196,node/10931884724,,38.7690208,Jan Meda,0
9.0180915,node/10931937848,,38.8021444,Megenagna,0
8.9633989,node/10931937849,,38.766754,Kadisco,0
9.0347501,node/10931995346,,38.776629,Kebena,0
9.0435664,node/10932040828,,38.7618099,6 Kilo,0
9.0386325,node/10932040829,,38.7526555,St. George Total,0
9.038614,node/10932040830,,38.7527659,St. George Total,0
9.017586,node/10932115661,,38.7950974,Lem Hotel,0
9.0239221,node/10932115662,,38.8198719,Lamberet,0
9.0107374,node/10932115666,,38.7471612,Mexico,0
9.0104411,node/10932115667,,38.7467607,Mexico,0
9.0249902,node/10933668851,,38.796095,Shola Gebeya,0
9.0253078,node/10933668852,,38.7963986,Shola Gebeya,0
9.0290044,node/10933668868,,38.8021516,Beg Tera,0
9.0289126,node/10933668869,,38.802143,Beg Tera,0
9.0315916,node/10933668870,,38.8093843,Zebera,0
9.0314928,node/10933668871,,38.8094344,Zebera,0
9.0355162,node/10933668873,,38.818742,Kidane Mihret,0
9.0355971,node/10933668874,,38.8186176,Kidane Mihret,0
9.0113969,node/10933970678,,38.7750759,St. Urael Church,0
9.0110384,node/10933970679,,38.7752362,St. Urael Church,0
9.004269,node/10934121405,,38.7797684,Atlas,0
9.0041884,node/10934121406,,38.779678,Atlas,0
9.0103387,node/10934121407,,38.7748368,St. Urael Church,0
9.0104642,node/10934121408,,38.7749361,St. Urael Church,0
8.9843274,node/10934142102,,38.7518505,Kera,0
8.9840695,node/10934142103,,38.7515846,Kera,0
9.0324426,node/10934274056,,38.7632997,4 Kilo,0
9.012454,node/10934274058,,38.762845,St. Estifanos,0
9.0109591,node/10934274059,,38.7482685,Buna Ena Shay,0
9.0106827,node/10934274060,,38.748215,Buna Ena Shay,0
9.032283,node/10936313832,,38.7645933,4 Kilo,0
9.0323383,node/10936313833,,38.7648081,4 Kilo,0
9.0289759,node/10936490562,,38.7321818,Sebategna,0
9.028913,node/10936490563,,38.7322093,Sebategna,0
9.0258457,node/10936490564,,38.7211312,Amanuel Total,0
9.0258301,node/10936490565,,38.721144,Amanuel Total,0
9.0576027,node/10936621813,,38.7131944,Winget,0
9.0486146,node/10936724096,,38.7375414,Enqulal Fabrica,0
9.0485559,node/10936724097,,38.7377157,Enqulal Fabrica,0
8.9975486,node/10937101933,,38.731079,karl Square,0
9.0442105,node/10937167108,,38.7610795,6 Kilo,0
9.0442026,node/10937167109,,38.7614376,6 Kilo,0
8.9877236,node/10937209934,,38.7484685,Kera,0
9.0652788,node/10937271651,,38.7497785,Kechenie,0
9.033877,node/10961301939,,38.7252968,Mesalemia,0
9.0339779,node/10961301940,,38.7255313,Mesalemia,0
9.0338527,node/10961301941,,38.7312096,Merkato,0
9.0337645,node/10961301942,,38.7312282,Merkato,0
9.028926,node/10961408041,,38.7433286,Tekle Haimanot,0
9.0264526,node/10961408042,,38.7757907,Abuare Roundabout,0
9.0265186,node/10961408043,,38.7759091,Abuare Roundabout,0
9.0178983,node/10961408397,,38.7007101,Keranio Adebabay,0
9.014972,node/10961408398,,38.7004401,Mendida,0
9.0151204,node/10961408399,,38.7004576,Mendida,0
8.9983425,node/10963292174,,38.7860616,Bole Medhanyalem,0
8.9984526,node/10963292175,,38.7862416,Bole Medhanyalem,0
9.0231558,node/10963817572,,38.688451,Weybla Mariam,0
9.0233344,node/10963817573,,38.6882249,Weybla Mariam,0
9.0159879,node/10963932669,,38.7889432,22 Mazoria,0
8.9884101,node/10964879159,,38.7226406,Bisrate Gebrael,0
9.0333084,node/10970584167,,38.7086432,Luwkanda,0
9.0332835,node/10970584168,,38.7086485,Luwkanda,0
9.0335266,node/10970584169,,38.7126753,18 Mazoria,0
9.0335023,node/10970584170,,38.7126794,18 Mazoria,0
9.0372905,node/10970584171,,38.7164132,Abysinia Coffee,0
9.037294,node/10970584172,,38.7164416,Abysinia Coffee,0
9.0337305,node/10970748190,,38.7149465,18 Mazoria,0
9.0515413,node/10970748192,,38.7087797,4 Menta Adebabay,0
9.0514981,node/10970748193,,38.7088057,4 Menta Adebabay,0
9.0503697,node/10970748194,,38.7058937,Tero Mosque,0
9.0503743,node/10970748195,,38.7058901,Tero Mosque,0
9.0294218,node/10970823802,,38.7327781,Sebategna,0
9.0294686,node/10970823803,,38.732906,Sebategna,0
9.0350955,node/10970829160,,38.7492677,Piassa Arada,0
9.033556,node/10970912911,,38.7535518,Piassa Arada,0
9.0542225,node/10970912912,,38.6992026,Rufael,0
9.0542148,node/10970912913,,38.6992201,Rufael,0
8.9922493,node/10973319411,,38.6737826,Selefia Mosque,0
8.9922388,node/10973319412,,38.6737682,Selefia Mosque,0
9.0343357,node/10973319413,,38.7498429,Piassa Arada,0
9.0343492,node/10973319414,,38.749831,Piassa Arada,0
9.0610285,node/10973319416,,38.7606274,Shiromeda,0
9.0610076,node/10973319417,,38.760666,Shiromeda,0
8.8697296,node/10973446898,,38.7886493,Akaki Gebeya,0
8.8697306,node/10973446899,,38.7886284,Akaki Gebeya,0
8.8769656,node/10973446900,,38.7865309,Meshualekya,0
8.9482942,node/10973631794,,38.734517,Mebrathayil,0
8.9481457,node/10973631795,,38.7344951,Mebrathayil,0
8.9473757,node/10973631797,,38.7443373,Lafto,0
8.8667554,node/10973672014,,38.798935,Yeshi Total,0
9.0206661,node/10973929780,,38.8028464,Megenagna,0
9.0339313,node/10973929781,,38.8234705,Biretabret,0
9.0375694,node/10973929783,,38.8316053,Hanna Mariam,0
9.037593,node/10973929784,,38.8316071,Hanna Mariam,0
9.0374618,node/10973929786,,38.8388573,Kotebe Teachers College,0
9.0390977,node/10973929787,,38.8505525,Kotebe Gebriel,0
9.039072,node/10973929788,,38.8505551,Kotebe Gebriel,0
9.0357328,node/10973960231,,38.8279461,Kotebe,0
9.035744,node/10973960232,,38.8279666,Kotebe,0
9.0343234,node/10973960233,,38.7769466,Kebena,0
9.0637787,node/10974036529,,38.8735567,Yeka Abado,0
9.0638007,node/10974036530,,38.8734371,Yeka Abado,0
8.9948109,node/10989247669,,38.8092174,Taxi Tera,0
8.9888698,node/10989247670,,38.7945353,Bole Bridge,0
9.0048732,node/10989247671,,38.8517594,Summit,0
9.0050343,node/10989247672,,38.8520615,Summit,0
8.9791887,node/10989306740,,38.7737291,Bole Mickael,0
8.979439,node/10989306742,,38.7732491,Bole Mickael,0
8.9647488,node/10989306744,,38.798111,Riventy,0
8.9647649,node/10989306745,,38.7981165,Riventy,0
9.0437261,node/10989322788,,38.6991226,Lomi Meda,0
9.0423415,node/10989322789,,38.7046602,Philiphs,0
9.0423523,node/10989322790,,38.7046599,Philiphs,0
9.0417345,node/10989322793,,38.7116329,Atena Tera,0
9.0417198,node/10989322794,,38.7116327,Atena Tera,0
9.0418861,node/10989352901,,38.7128543,Atena Tera,0
9.0419946,node/10989352903,,38.7136815,Atena Tera,0
9.037404,node/10989352904,,38.7169566,Kolfe,0
9.0373552,node/10989388405,,38.7170428,Kolfe,0
9.0376969,node/10989388406,,38.7213864,Chid Tera,0
9.0375624,node/10989388407,,38.7215618,Chid Tera,0
9.0339795,node/10989495135,,38.760933,Tourist Hotel,0
9.0331899,node/10989495136,,38.7627083,Tourist Hotel,0
9.0365466,node/10989495137,,38.7522109,St. George Church,0
9.0365649,node/10989495138,,38.7524292,St. George Church,0
9.0280891,node/10989606497,,38.723026,Amanuel Church,0
9.0280827,node/10989606498,,38.7230514,Amanuel Church,0
9.0330957,node/10989606501,,38.7246409,Mesalemia,0
9.0330994,node/10989606502,,38.7246228,Mesalemia,0
9.0170151,node/10989606503,,38.729182,Coca Cola,0
9.0169029,node/10989606504,,38.7293902,Coca Cola,0
9.0216869,node/10989700748,,38.7477611,Tikur Anbesa,0
9.0214822,node/10989700750,,38.7476433,Tikur Anbesa,0
9.0198621,node/10989765272,,38.8028176,Megenagna,0
9.0331305,node/10991706244,,38.7619614,Tourist Hotel,0
9.018399,node/10991706246,,38.7538719,Ambasader,0
9.0182782,node/10991706247,,38.7539744,Ambasader,0
9.0515112,node/10991763449,,38.7588533,Manen,0
9.0515112,node/10991763450,,38.7588598,Manen,0
8.8840593,node/10992050085,,38.7766907,Selam Building,0
8.944348,node/10992073740,,38.7693473,Saris Abo,0
8.8832126,node/10992247910,,38.7771744,Selam Building,0
8.8801893,node/10992247911,,38.768463,Gelan Condominium,0
8.8801651,node/10992247913,,38.7684764,Gelan Condominium,0
8.8738823,node/10994789635,,38.7887302,Breta bret,0
8.867782,node/10994942333,,38.7888076,Akaki CBE,0
8.8679415,node/10994942334,,38.7887141,Akaki CBE,0
9.0098456,node/10995013009,,38.7462885,Mexico,0
8.9470636,node/10995013010,,38.7443751,Lafto,0
8.9537702,node/10995013013,,38.7504178,Lafto (Mickael),0
9.0051854,node/10995113524,,38.7070388,Woyira Sefer,0
9.0050595,node/10995113525,,38.7068721,Woyira Sefer,0
8.9932233,node/10996939227,,38.7170312,Total 3 Kutir mazoria,0
8.9671943,node/10997112356,,38.7486669,Mebrat,0
8.9671522,node/10997112357,,38.7487468,Mebrat,0
8.9621911,node/10997112358,,38.7515775,Biharetsege,0
8.9622089,node/10997112359,,38.7515885,Biharetsege,0
8.9576758,node/10997112361,,38.7631284,Adey Abeba,0
8.9576954,node/10997112362,,38.7631332,Adey Abeba,0
8.9758799,node/10997112364,,38.7488713,Gofa Gebriel,0
8.9758721,node/10997112365,,38.7489751,Gofa Gebriel,0
9.0196301,node/10997125769,,38.7332825,Abenet,0
8.963665,node/10997242295,,38.6708623,Weleta,0
8.9636677,node/10997242296,,38.6708779,Weleta,0
8.9666342,node/10997242298,,38.6731812,Weleta Tele,0
8.9764681,node/10997242299,,38.6774372,Repi Highschool,0
8.9765185,node/10997242300,,38.6774017,Repi Highschool,0
9.0576594,node/10997243557,,38.8741609,Sara Ampol,0
9.0575648,node/10997243558,,38.874351,Sara Ampol,0
9.0480764,node/10997243559,,38.8693718,Kara Condominium,0
9.0480356,node/10997243560,,38.8695015,Kara Condominium,0
9.0107982,node/10997360870,,38.7207531,Torhayloch,0
9.0114511,node/10997382833,,38.7447026,Mexico,0
9.0114533,node/10997382834,,38.7445835,Mexico,0
9.01285,node/10997495133,,38.7440492,Mexico,0
9.01282,node/10997495134,,38.74405,Mexico,0
9.0163639,node/10997495135,,38.7345884,Darmar,0
9.0329801,node/10998041498,,38.7545702,Piassa Arada,0
9.0334582,node/10998041499,,38.7537202,Piassa Arada,0
9.025295,node/10998041503,,38.7949306,Shola,0
9.0251357,node/10998041504,,38.7947575,Shola,0
8.8954024,node/11033818190,,38.7722516,Kality Meneharia,0
8.9361085,node/11033818192,,38.7642099,Kality Maseltegna,0
8.9994656,node/11033818193,,38.7406449,AU (Mikael) Rounrdabout,0
9.0089885,node/11033818195,,38.7438741,Mexico,0
9.0089241,node/11033818196,,38.7440373,Mexico,0
8.9945922,node/11033818197,,38.7474194,Bulgaria Mazoria,0
9.0316048,node/11033818199,,38.7373077,Autobis Tera,0
9.0299591,node/11033818200,,38.7377146,Autobis Tera,0
8.9864921,node/11033903482,,38.7483364,Kera,0
8.9450016,node/11034015157,,38.7661068,Saris Abo,0
9.0331054,node/11034015158,,38.7522899,Piassa Arada,0
9.0321742,node/11034015159,,38.7511155,Piassa Arada,0
9.03055,node/11034031010,,38.7370369,Autobis Tera,0
9.0626384,node/11034031011,,38.7612633,Shero Meda,0
9.0583756,node/11034031012,,38.7598757,Tsehay Chora (ShiroMeda),0
9.0351037,node/11034031013,,38.7493262,Abune Petros,0
9.0305604,node/11034031014,,38.7370571,Autobis Tera,0
9.0777204,node/11034054993,,38.7572407,Kuskoam,0
9.0321373,node/11034209866,,38.7654122,Arat Kilo,0
8.9753965,node/11034280233,,38.6806691,Kara Kore,0
8.9825611,node/11034280234,,38.6960927,Ayer Tena,0
8.9753861,node/11034280236,,38.6805349,Kara Kore,0
9.0426561,node/11034427397,,38.7614325,Lion Zoo (PEPSI Kiosk),0
9.0571131,node/11034427398,,38.777181,Abo Mazoriya,0
9.0608545,node/11034427399,,38.7835816,Yeha,0
9.0622785,node/11034427400,,38.7880233,Gurara,0
9.0624066,node/11034427401,,38.7888027,Gurara,0
8.9535755,node/11034511605,,38.7634093,Saris,0
8.9535945,node/11034511606,,38.7636248,Saris,0
9.0296904,node/11034611751,,38.7371486,Autobis Tera,0
9.0221498,node/11034647605,,38.8004821,Megenagna,0
9.0115667,node/11035234709,,38.7220211,Torhailoch,0
9.0408403,node/11035240259,,38.710203,Millenium School,0
9.0376857,node/11035240260,,38.7214866,Chid Tera,0
9.0338468,node/11035240261,,38.7151236,Degu Hotel,0
9.0423792,node/11035240263,,38.7051066,Philiphs (Lomi Meda),0
9.0423523,node/11035240264,,38.7051082,Philiphs (Lomi Meda),0
8.9837379,node/11035502832,,38.6971291,Ayer Tena,0
8.9836981,node/11035502833,,38.7015659,Ayer Tena,0
8.9914198,node/11035532608,,38.7255627,Bisrate Gebrael,0
9.0191017,node/11035607129,,38.7682089,Zenebewerk Hotel,0
9.0107497,node/11035607130,,38.7636411,Estifanos,0
9.0109263,node/11035607131,,38.7386025,Lideta Condominium,0
8.9882771,node/11035662205,,38.7080773,Zenebework,0
9.0165403,node/11035734852,,38.7377271,Darmar,0
8.9270084,node/11035734855,,38.7418753,Hana Maryam,0
9.058672,node/11035818337,,38.700756,Bercheko Condominium,0
8.9231915,node/11035914858,,38.6529741,Alem Gena,0
8.9494175,node/11035914859,,38.6701962,Noc,0
8.9490541,node/11035914860,,38.6699835,Noc,0
8.9666123,node/11035914861,,38.6735724,Weleta Tele,0
8.9635929,node/11035914862,,38.6708945,Weleta,0
8.9641803,node/11035914863,,38.6707668,Weleta,0
8.9666144,node/11035914864,,38.6731872,Weleta Tele,0
8.9834038,node/11035914865,,38.6967597,Ayer Tena,0
8.9825038,node/11035914869,,38.6960161,Ayer Tena,0
9.0404548,node/11036026882,,38.8642175,Kara,0
8.9444406,node/11036079238,,38.7693583,Saris Abo,0
8.9328577,node/11036079239,,38.7750063,Werku Sefer,0
8.9846712,node/11036079243,,38.7499581,Kera,0
8.9856933,node/11036079245,,38.7486833,Kera,0
9.0221266,node/11036753217,,38.6744385,Anfo Meda,0
8.8736134,node/11036769860,,38.819824,Tulu Dimtu Adebabay,0
