stop_lat,stop_name,stop_id,location_type,parent_station,stop_lon
9.0210561502,C.M.C,way/604046026,0,,38.8505081
9.0209504501,C.M.C,way/604046027,0,,38.8504555
9.0206309001,Meri,way/604046028,0,,38.86039005
9.0205342501,Meri,way/604046029,0,,38.86039745
9.0212283001,Ayat,way/604046052,0,,38.8717948
9.0211369001,Ayat,way/604046053,0,,38.87179745
9.0213594001,St. Michael,way/758915882,0,,38.8426211
9.0214511001,St. Michael,way/758915883,0,,38.8426345
9.0208269001,Management Institute,way/758919087,0,,38.8284090499
9.0209051001,Management Institute,way/758919088,0,,38.8283603999
9.0216842501,Civil Service College,way/758919089,0,,38.83479945
9.0217686501,Civil Service College,way/758919090,0,,38.83479775
9.0104366001,Bambis,way/758922739,0,,38.76879995
9.0103406001,Bambis,way/758922740,0,,38.76877485
9.01097965,St. Urael,way/758922741,0,,38.77470915
9.0148301501,Hayahulet 2,way/758922742,0,,38.7832560999
9.0149096001,Hayahulet 2,way/758922743,0,,38.7832141999
9.0161997001,ሃያ ሁለት 1,way/758922744,0,,38.7893457
9.0162805001,ሃያ ሁለት 1,way/758922745,0,,38.7893058
9.0178779001,Lem Hotel,way/758922746,0,,38.7959030499
9.0179702501,Lem Hotel,way/758922747,0,,38.7958714999
9.0196319001,Megenagna,way/758922751,0,,38.8026662
9.0201812501,Gurd Sholla 2,way/758922752,0,,38.81016615
9.0202704501,Gurd Sholla 2,way/758922753,0,,38.8101826
9.0190550501,Gurd Sholla 1,way/758922754,0,,38.8199118
9.0191373501,Gurd Sholla 1,way/758922755,0,,38.8199363
9.0114466001,Tor Hailoch,way/758926923,0,,38.7228792001
9.0113509001,Tor Hailoch,way/758926924,0,,38.7228400001
9.0120608501,Cocacola,way/758926925,0,,38.72927195
9.0119827001,Cocacola,way/758926926,0,,38.7292679
9.0113260501,St. Lideta,way/758926927,0,,38.7358812
9.0114191001,St. Lideta,way/758926928,0,,38.735902
9.0104883001,Tegbared,way/758926929,0,,38.74251165
9.0105720501,Tegbared,way/758926930,0,,38.74252605
9.0110042001,Mexico,way/758926931,0,,38.7486780499
9.0111035001,Mexico,way/758926932,0,,38.7486304499
9.0118976001,Leghar,way/758926933,0,,38.75364485
9.0118055501,Leghar,way/758926934,0,,38.7536616
9.0119426001,Stadium,way/758926935,0,,38.75765945
9.0120396501,Stadium,way/758926936,0,,38.75768125
9.0109756501,St. Estifanos,way/758926937,0,,38.7633918
9.0110528501,St. Estifanos,way/758926938,0,,38.7634133
9.0341520001,Gojam Berenda,way/759354435,0,,38.7383589
9.0342421001,Gojam Berenda,way/759354436,0,,38.73838775
9.0345698501,Atikilt Tera,way/759354437,0,,38.7469346
9.0346634001,Atikilt Tera,way/759354438,0,,38.7469217
8.938011,Kality,way/759359409,0,,38.7631070001
8.93795435,Kality,way/759359410,0,,38.7630034001
8.94501825,Abo Junction,way/759359411,0,,38.7663008501
8.9449765,Abo Junction,way/759359412,0,,38.7662190501
8.9519971333,Saris,way/759359413,0,,38.7634466333
8.9519912333,Saris,way/759359414,0,,38.7633591333
8.9567954,Adey Abeba,way/759359415,0,,38.76388145
8.9568021,Adey Abeba,way/759359416,0,,38.76379965
8.9903485,Lancha,way/759359417,0,,38.75926535
8.9903366,Lancha,way/759359418,0,,38.75916345
8.9952452,Temenja Yazh,way/759359419,0,,38.7598284334
8.9952399,Temenja Yazh,way/759359420,0,,38.7597271667
9.0005732,Riche,way/759359421,0,,38.7587088
9.00058575,Riche,way/759359422,0,,38.7586096
9.00485825,Meshwalekya,way/759359423,0,,38.7588805
9.00486215,Meshwalekya,way/759359424,0,,38.7587524
9.0154149,Darmar,way/759359425,0,,38.73475
9.01542485,Darmar,way/759359426,0,,38.73466315
9.0212786,Abnet,way/759359427,0,,38.73335125
9.0212687,Abnet,way/759359428,0,,38.73341865
9.0283819,Sebategna,way/759359429,0,,38.73298775
9.0284011,Sebategna,way/759359430,0,,38.7330763
9.0340910501,Autobus Tera,way/759359431,0,,38.7329878
9.0340079501,Autobus Tera,way/759359432,0,,38.7329908
8.9731988,Nifas Silk 2,way/759365358,0,,38.7607979501
8.97316965,Nifas Silk 2,way/759365359,0,,38.7606849501
8.9657149,Nifas Silk 1,way/759365360,0,,38.7629963
8.96571355,Nifas Silk 1,way/759365361,0,,38.7628904
9.0165395,Beherawi Theatre,node/847244293,0,,38.7525538
9.0209237,Black Lion,node/847244423,0,,38.7521415
9.0344007,4 Kilo,node/4832025024,0,,38.7632408
9.0223057,Lamberet Terminal (Bus),node/4884374622,0,,38.8158571
8.9929728,Sar Bet (Roundabout),node/5248250425,0,,38.738182
9.0164409,Ambassador,node/5330678521,0,,38.7553162
9.0120276,Stadium,node/5736089088,0,,38.7570321
9.0295451,Mebrathail,node/6251054285,0,,38.7146778
9.0654733,Asko,node/6307600909,0,,38.6928185
8.9976331,Bole Printing Press,node/6373574986,0,,38.7718334
9.0331479,Arada,node/6728583386,0,,38.7516761
8.9986049,Kebede Wessene Rd.,node/6798927886,0,,38.8053365
9.0094665,Mexico,node/6814022390,0,,38.7444332
8.9644773,Mebrat Condominium,node/6967142984,0,,38.7438796
8.9673396,Mebrat,node/6967165728,0,,38.7486643
8.9771232,Gofa Gebriel,node/6967179322,0,,38.7491221
8.9825519,Kera (Gofa Road),node/6967179323,0,,38.7498599
9.0277111,Tewodros Square,node/6967225474,0,,38.7516602
8.9655968,German Square,node/6967234177,0,,38.732897
8.9899905,Friendship Building,node/6967281153,0,,38.7859995
9.0319356,Piassa (Downtown Cafe),node/6967281241,0,,38.7512565
9.0330123,Piassa Arada (2),node/6967281242,0,,38.7526242
9.0418236,Gojo,node/6967318740,0,,38.6217166
9.0203188,Megenagna Terminal,node/7022361366,0,,38.8026673
8.9885373,Bole Millenium,node/7022397409,0,,38.7897496
8.9887535,Bole Millenium,node/7022397410,0,,38.789886
8.9937973,Goro School,node/7022397411,0,,38.8267584
8.9842709,Summit Condominiums,node/7022397413,0,,38.8569749
8.9842404,Summit Condominiums,node/7022397414,0,,38.8570885
8.9720161,Bole Arabsa,node/7022397416,0,,38.8906061
8.9732168,Bole Arabsa,node/7022397417,0,,38.8903477
9.0561234,Aba Kiros Roundabout,node/7022397418,0,,38.8785328
9.0689298,Yeka Abado,node/7022397420,0,,38.875565
9.0688377,Yeka Abado,node/7022397421,0,,38.8756232
9.0626023,Gurara,node/7037142410,0,,38.7893816
9.026427,Abuare Roundabout,node/7037142414,0,,38.7757967
9.026504,Abuare Roundabout,node/7037142415,0,,38.7759255
9.0224201,Marathon Motor (Megenagna),node/7037142417,0,,38.8000289
9.060739,Yeha,node/7037142419,0,,38.7836264
9.0608445,Tena Tabya,node/7037142420,0,,38.7839285
9.0598571,Biret Dildiy (Bono Wuha),node/7037142421,0,,38.7811505
9.0599927,Bret Dildy (Bono Wuha),node/7037142422,0,,38.7810894
9.0042786,Atlas,node/7037142423,0,,38.7797667
8.9983386,Bole Medhanialem,node/7037142424,0,,38.7860596
8.9984556,Bole Medhanialem,node/7037142426,0,,38.7862428
9.0098865,24,node/7037142427,0,,38.800549
9.0221273,Dinberwa Hospital,node/7037142428,0,,38.7866932
9.0345238,Kokebe Tsebah School,node/7037142430,0,,38.7802113
9.034441,Kokebe Tsebah School,node/7037142431,0,,38.7799476
9.031876,Belgium Embassy,node/7037142433,0,,38.7839469
9.0311083,British Embassy,node/7037142434,0,,38.784892
9.0309087,British Embassy,node/7037142435,0,,38.7855544
9.0287538,Abebe Sook,node/7037142436,0,,38.7887162
9.0250779,Shola Gebeya,node/7037142438,0,,38.7952986
9.0244101,Yeka Michael,node/7037142439,0,,38.7961373
9.0180934,Megenagna,node/7037142441,0,,38.8021491
9.0182711,Megenagna,node/7037142442,0,,38.8017521
8.8868864,Derartu,node/7037142443,0,,38.7818414
8.8856808,Gelan Condominium,node/7037142444,0,,38.7837651
8.8844052,08 Adarash,node/7037142445,0,,38.785491
8.8767985,Meshuwalekia Akaki,node/7037142446,0,,38.7865253
8.8738843,Akaki Beretaberet,node/7037142448,0,,38.7887478
8.870907,G7 (Tulu Dimtu),node/7037142450,0,,38.8207065
8.8552763,Tulu Dimtu Unisa,node/7037142454,0,,38.8042339
8.8556159,Tulu Dimtu,node/7037142455,0,,38.8041524
8.8597556,Akaki Korkoro,node/7037142456,0,,38.7961539
8.8688691,Tulu Dimtu (Taf Gas Station),node/7037142459,0,,38.8051915
8.8722685,Arsema,node/7037142460,0,,38.8136608
8.8722281,Selam Sefer (Tapela Gar),node/7037142461,0,,38.8140262
8.8747821,Tulu Dimtu Adebabay,node/7037142462,0,,38.8201689
8.8658608,Project 12 Akababi,node/7037142464,0,,38.8218482
8.8592154,Mahiber Betoch,node/7037142465,0,,38.8148895
8.9869933,Bole Dildiy,node/7037142466,0,,38.7912061
9.02034,Megenagna / Zefmesh,node/7037142467,0,,38.8000136
9.0213214,Megenagna,node/7037142469,0,,38.8010735
9.0217137,Megenagna,node/7037142470,0,,38.8015921
9.0215363,Abysinia Cafe Area,node/7037142471,0,,38.8100422
9.0213396,Abysinia Cafe Area,node/7037142472,0,,38.810853
9.0196778,Century Mall,node/7037142474,0,,38.8132781
9.0187352,Gurd-shola,node/7037142475,0,,38.8215105
9.0239816,Menaheria,node/7037142476,0,,38.8192066
9.0238758,Menaheria,node/7037142477,0,,38.8192354
9.003632,Gerji Mebrat Haile,node/7037142479,0,,38.814876
9.0037638,Gerji Mebrat Haile,node/7037142483,0,,38.8132574
9.0253421,Lamberet,node/7037142484,0,,38.8251916
9.0258842,Lamberet Area,node/7037183485,0,,38.8271787
9.0260507,Lamberet Area,node/7037183486,0,,38.8273076
9.0259969,Lamberet Area,node/7037183487,0,,38.8271189
8.9913503,Yerer Goro,node/7037183490,0,,38.8294063
8.9913222,Yerer Goro,node/7037183491,0,,38.8292171
9.020263,Se'alite Mihret Church,node/7037183492,0,,38.8265756
9.0203852,Management Institute,node/7037183493,0,,38.82686
9.0203048,Sealite Mihret,node/7037183494,0,,38.8273219
9.0216167,Civil Service College,node/7037183495,0,,38.8342032
9.021312,St. Michael,node/7037183496,0,,38.8414217
9.0215489,St. Micheal Church,node/7037183497,0,,38.8425033
9.0283709,Salite Mihret,node/7037183498,0,,38.8331954
9.0285264,Hillside (Ethio-China Mebrathaile),node/7037183499,0,,38.8333256
9.030459,Wessen Michael,node/7037183501,0,,38.838592
9.0375551,Hanna Mariam,node/7037183502,0,,38.8316144
9.0375969,Hanna Mariam,node/7037183503,0,,38.8316246
9.0330948,Wessen,node/7037183504,0,,38.8442968
9.033228,Wessen,node/7037183505,0,,38.8445812
9.0330982,Wessen (Mariam),node/7037183507,0,,38.8446898
9.0342084,Kotebe Teachers College,node/7037183508,0,,38.8466963
9.0357649,Yabem Hotel,node/7037183509,0,,38.8533863
9.036101,Kotebe Gebriel,node/7037183510,0,,38.8545188
9.0201901,Yetebaberut,node/7037183513,0,,38.8526027
9.0207031,Yetebaberut,node/7037183515,0,,38.8539074
9.0207092,Meri,node/7037183516,0,,38.8603565
9.0205124,Meri (Yetebaberut),node/7037183518,0,,38.8610727
9.0208331,Ayat,node/7037183519,0,,38.8686047
9.0210633,Ayat Zone 2,node/7037183520,0,,38.8678248
9.0379427,Kara (Turn),node/7037183521,0,,38.8606002
9.0401552,Medhanalem Church,node/7037183523,0,,38.8640163
9.0106828,Safari,node/7037183525,0,,38.852259
9.0043876,Summit (MOHA),node/7037183527,0,,38.8520658
8.9955228,Saint Georgis,node/7037183528,0,,38.8513132
8.9941038,Tena Tabeya,node/7037183529,0,,38.860685
8.9894728,Gate 2,node/7037183532,0,,38.8582866
8.9846055,Summit Condominiums,node/7037183533,0,,38.8544474
9.0213287,Ayat Train Station,node/7037183535,0,,38.8719812
9.0211208,CMC,node/7037183536,0,,38.872594
9.0212396,Ayat Square,node/7037183537,0,,38.8767684
9.0216916,Feres Bet,node/7037183538,0,,38.8862575
9.0170704,Police Tabia,node/7037183539,0,,38.8946069
9.0222555,Tsebel,node/7037183540,0,,38.891209
9.0219034,Bono Meskid,node/7037183541,0,,38.8902931
9.0113906,Ayat Chefe Condominium,node/7037183542,0,,38.8946677
9.0109368,Ayat Chefe Condominium,node/7037183543,0,,38.8944878
9.0023517,Nebu Mikael,node/7037183545,0,,38.8767662
8.9965746,Ayat Adebabay Hulet (2),node/7037183546,0,,38.8851706
8.9963324,Bole Arabsa (3),node/7037183547,0,,38.8855436
8.9841602,Bole Arabsa (2),node/7037183548,0,,38.8851362
8.9733148,Bole Arabsa,node/7037183550,0,,38.8902717
9.0354891,Yeka Condominium 1,node/7037183552,0,,38.877919
9.0381306,Tafo Gebrael,node/7037183554,0,,38.8777819
9.0505157,Tafo Condominium 1,node/7037183555,0,,38.8779667
9.0425957,Tafo Mebrathail,node/7037183557,0,,38.8773973
9.0427743,Tafo Mebrathail,node/7037183558,0,,38.877866
9.0465834,Tafo Condominium 2,node/7037183559,0,,38.8779122
9.0501511,Kara Condominium,node/7037183562,0,,38.8705589
9.0666282,Yeka Abado,node/7037183563,0,,38.8647703
9.0571811,Sara Ampol (Gedera),node/7037183565,0,,38.8737753
9.0580264,Sara Ampol,node/7037183567,0,,38.8742538
9.0606875,Aba Kiros,node/7037183569,0,,38.8812971
9.0630654,Makefafeya,node/7037183570,0,,38.8841651
9.0670494,Gari Tera,node/7037183571,0,,38.8892044
9.0707009,CCD,node/7037183572,0,,38.8938058
9.0718221,140,node/7037183573,0,,38.8952147
9.0818058,Legedadi Mission,node/7037183574,0,,38.9074861
9.0821737,Legedadi Mission,node/7037183575,0,,38.90832
8.8832831,Selam Building,node/7041052894,0,,38.7771574
8.8910809,Gojo Hotel,node/7041052895,0,,38.7768265
8.8958584,Kality Meneharia,node/7041052896,0,,38.7717989
8.9029458,Cheralia Factory,node/7041052897,0,,38.7668359
8.9029223,Cheralia Factory,node/7041052898,0,,38.7667452
8.9113422,Kality Gebriel,node/7041052900,0,,38.7638335
8.912466,Kality Prison,node/7041052901,0,,38.7633399
8.928137,Hana Maryam,node/7041052912,0,,38.7416641
8.9274906,Tabelew,node/7041052914,0,,38.6590102
8.9244259,Ubedi Academy,node/7041052915,0,,38.6548173
8.9230001,Alem Gena,node/7041052916,0,,38.6526472
8.9229882,Alem Gena,node/7041052917,0,,38.652656
8.9213858,Mama,node/7041052918,0,,38.6465912
8.9683942,Mekanisa (Old Revenues Office),node/7041052927,0,,38.73129
8.9656974,German Square,node/7041052928,0,,38.7327236
8.9556239,Gebriel Bridge,node/7041052932,0,,38.7324437
8.955596,Gebriel Bridge,node/7041052934,0,,38.7327233
8.9469471,Mebrathile (EEPCo),node/7041052935,0,,38.7339608
8.9790248,Mekanisa School,node/7041052936,0,,38.7341955
8.9785916,Abo,node/7041052937,0,,38.7339384
8.973373,Sheged Hotel,node/7041052938,0,,38.7246092
8.9673959,Jemo Michael,node/7041052939,0,,38.720836
8.966996,Jemo Michael,node/7041052940,0,,38.7209392
8.9614893,Jemo YBP (All Mart),node/7041052942,0,,38.7152564
8.9606358,Jemmo 1,node/7041052944,0,,38.7123763
8.9604074,Jemmo 1,node/7041052945,0,,38.7124284
8.9595125,Mestawet Fabrica,node/7041052946,0,,38.7084697
8.958513,Mestawet Fabrica,node/7041052948,0,,38.7059934
8.9564,Jemo 3,node/7041052949,0,,38.6992718
8.9556244,Jemmo 3,node/7041052950,0,,38.6985348
8.9866742,Zenebework,node/7041052951,0,,38.7077567
8.9611777,Welete Maryam,node/7041052952,0,,38.6713097
8.9657858,Mickael Bridge,node/7041052953,0,,38.7272059
8.9813447,Gerar,node/7041052954,0,,38.689429
8.9794179,Repi (Gerar),node/7041052955,0,,38.6851955
8.9773403,Gebre Kirstos,node/7041052957,0,,38.7220154
8.9884304,Bisrate Gebrael,node/7041052958,0,,38.7228933
8.9753751,Gofa Gebriel (2),node/7041052959,0,,38.7488548
8.9771139,Gofa Gebriel,node/7041052960,0,,38.7490217
8.9816131,Bole Mickael,node/7041052963,0,,38.7772221
8.9822682,MOHA (Pepsi Factory),node/7041052965,0,,38.7560783
8.9762662,Gotera (Oilibiya),node/7041052969,0,,38.7600125
8.976182,Gotera (Oilibiya),node/7041052970,0,,38.7598239
8.9697308,St. Joseph Church,node/7041052975,0,,38.7620577
8.9659447,kadisco Building,node/7041052977,0,,38.7627885
8.965927,kadisco Building,node/7041052978,0,,38.762999
8.9637596,Kadisco,node/7041052979,0,,38.7630788
8.9583017,Adey Abeba,node/7041052980,0,,38.7640609
8.9582595,Adey Abeba,node/7041052982,0,,38.7638459
8.9528662,Saris (CBE),node/7041071286,0,,38.7635583
8.9527596,Saris (CBE/Shoa Bakery),node/7041071287,0,,38.7633266
8.9450003,Abo Junction,node/7041071289,0,,38.7661044
8.9450733,Abo Junction,node/7041071290,0,,38.7663069
8.9380959,Customs (Train Station),node/7041071291,0,,38.763132
8.9323275,Kality Maseltegna,node/7041071295,0,,38.766627
8.9298173,Wehalemat,node/7041071296,0,,38.7681692
8.9950292,Bulgaria Mazoria,node/7041071342,0,,38.7478244
8.9971703,Begtera,node/7041071344,0,,38.7475059
8.9990638,AU (Mikael) Rounrdabout,node/7041071347,0,,38.7394459
8.9990569,AU (Mikael) Rounrdabout,node/7041071348,0,,38.7395945
8.9937942,Bulgaria,node/7041071350,0,,38.7478465
8.9941475,Global Hotel,node/7041071352,0,,38.7595772
8.9941836,Global Hotel,node/7041071353,0,,38.7598183
8.9953383,Beklo Bet (Global),node/7041071354,0,,38.7596352
9.000141,Tele Garage,node/7041071355,0,,38.7584812
9.0043253,Riche,node/7041071356,0,,38.7586986
9.0166957,6th (Raddison Blu),node/7041071359,0,,38.7669535
9.017718,Filweha (Hotsprings),node/7041071360,0,,38.7572645
9.0175554,Filweha (Hotsprings),node/7041071362,0,,38.7570579
9.0137609,Ghion Hotel (Enterance),node/7041071363,0,,38.7574492
9.0138328,Ghion Hotel (Enterance),node/7041071364,0,,38.7576145
9.0098008,St. Joseph School,node/7041071367,0,,38.7591876
9.0104995,St. Joseph School,node/7041071370,0,,38.7592761
9.0105316,Admas University College,node/7041071371,0,,38.7590434
9.0118612,Lalibela Hotel,node/7041071372,0,,38.7570112
9.0121294,Stadium,node/7041071374,0,,38.7560438
9.011849,Legehar,node/7041071376,0,,38.7545386
9.0117857,Legehar,node/7041071377,0,,38.7539285
9.0109604,Legehar (Old Train Station),node/7041071378,0,,38.7533069
9.0097755,Mexico,node/7041071380,0,,38.7461963
9.0031416,African Union,node/7041071382,0,,38.7414166
9.0053059,Popolare,node/7041071383,0,,38.7423863
9.0046908,Guenet Hotel,node/7041071384,0,,38.7466748
9.0032786,Guenet Hotel,node/7041071385,0,,38.74694
9.0214263,Abenet,node/7041071388,0,,38.7334947
9.0132791,Lideta Condominium,node/7041071389,0,,38.7345522
9.0157856,Darmar,node/7041071390,0,,38.7348248
9.0159169,Coca Cola,node/7041071391,0,,38.7294714
8.9939406,Austria Embassy,node/7041071392,0,,38.7278809
8.9936591,Mechare Meda,node/7041071393,0,,38.727499
8.9925902,3 Kutir Mazoriya (Total),node/7041071395,0,,38.7152417
8.995414,Minaye Building,node/7041071397,0,,38.7184074
8.9998642,Old Airport (Mobil),node/7041071399,0,,38.7191221
9.0099949,Tor Hailoch,node/7041071400,0,,38.7206897
9.0133411,Keranio Mewcha,node/7041071401,0,,38.7100309
9.0213057,Holand,node/7041071402,0,,38.7159484
9.0245409,Meseret Edget,node/7041071403,0,,38.714954
9.0278226,Teklehaymanot,node/7041071404,0,,38.7440603
9.0247481,Kebele 11,node/7041071405,0,,38.7458014
9.0262634,Tewodros Square,node/7041071406,0,,38.75166
9.0263826,Tewodros Square,node/7041071407,0,,38.7517909
9.0218352,Black Lion,node/7041071411,0,,38.7521859
9.0158768,National Theatre,node/7041071414,0,,38.751592
9.0156938,National Theatre,node/7041071415,0,,38.7513097
9.0139102,A.A. Commercial College,node/7041071416,0,,38.7494881
9.0138228,A.A. Commercial College,node/7041071418,0,,38.7495568
9.0114261,Buna Ena Shay,node/7041071419,0,,38.7490599
9.0105922,Buna Ena Shay,node/7041071420,0,,38.7479733
9.0119916,Mexico Shebelle Hotel,node/7041071423,0,,38.7468862
9.0105894,TVET College (Tegbare'd),node/7041071425,0,,38.7429038
9.0103865,Federal Police (Tegbare'd),node/7041071429,0,,38.7426638
9.0109303,Lideta (Balcha Hospital),node/7041071430,0,,38.738603
9.0111161,Lideta (Balcha Hospital),node/7041071431,0,,38.7385604
9.011233,Lideta Condominium,node/7041071432,0,,38.7377815
9.0041706,Lideta Tsebel,node/7041071433,0,,38.733822
9.0093091,Dessie Hotel,node/7041071434,0,,38.7338119
9.0108572,High Court,node/7041071435,0,,38.7342297
9.0115829,Lideta High Court,node/7041071437,0,,38.733431
9.0121559,Hintsa College,node/7041071439,0,,38.7293132
9.0119411,Coca Cafe,node/7041071441,0,,38.7292339
9.011282,Mekonenoch (Golf) Club,node/7041071444,0,,38.7265458
9.0115616,Tor Hailoch Junction,node/7041071446,0,,38.7220202
9.0119442,Torhailoch,node/7041071447,0,,38.7216866
9.0139112,Tor Hailoch,node/7041071448,0,,38.7206478
9.013939,Tor Hailoch,node/7041071449,0,,38.7209168
9.0194506,Keranio Bridge,node/7041071450,0,,38.7089411
9.0175679,Medhanialem,node/7041071451,0,,38.7049748
9.0176634,Keranio Adebabay,node/7041071452,0,,38.7006446
9.0180779,Kokebe,node/7041071453,0,,38.6994971
9.0195382,Yeshi Debele,node/7041071454,0,,38.6954056
9.0190748,Yeshi Debele,node/7041071455,0,,38.6957701
9.0231539,Mariam,node/7041071456,0,,38.6884518
9.021983,Anfo Meda,node/7041071458,0,,38.6742682
9.0110433,St. Urael Church,node/7041071459,0,,38.7752596
9.0104908,Salcost Apartments (NOC),node/7041071461,0,,38.766397
9.0118738,St. Estifanos Church,node/7041071462,0,,38.7626376
9.0199107,St. Gebriel,node/7041071464,0,,38.7675809
9.0193852,Zenebewerk Hotel,node/7041071465,0,,38.7680315
9.0206693,Meles Zenawi Foundation,node/7041071466,0,,38.7715231
9.0194316,Azmari Bet (Traditional Music Club),node/7041071468,0,,38.770643
9.0166401,Kazanchis (6th),node/7041071469,0,,38.7702335
9.0196382,Hilton Hotel (Apartments),node/7041071471,0,,38.7638714
9.0233468,Women Square,node/7041071473,0,,38.7772342
9.0234508,Women Square,node/7041071474,0,,38.7771738
9.0244322,Aware Bridge,node/7041071475,0,,38.7765755
9.0319312,Arat Kilo,node/7041071479,0,,38.7633615
9.0321438,Arat Kilo,node/7041071480,0,,38.7652099
9.032458,Bel Air,node/7041071481,0,,38.7728461
9.0324918,Addis View Hotel,node/7041071482,0,,38.7730493
9.0385857,Menelik II Hospital,node/7041071483,0,,38.7730556
9.0388201,Menlik Hospital,node/7041071484,0,,38.7719268
9.0365871,Piassa Arada,node/7041071579,0,,38.7522029
9.0363947,Piassa Arada,node/7041071580,0,,38.7524445
9.0354239,Piassa Arada,node/7041071592,0,,38.7523326
9.0352553,Habtegiorgis Bridge,node/7041071594,0,,38.7491242
9.0343899,Kurtu Building,node/7041071595,0,,38.7438917
9.0341887,Kurtu Building,node/7041071596,0,,38.7437548
9.0343321,Pharmacy,node/7041071597,0,,38.7434135
9.0343947,Gojam Berenda,node/7041071598,0,,38.737968
9.0342308,Autobis Tera (3),node/7041071599,0,,38.7337775
9.03371,Autobus Tera,node/7041071600,0,,38.7298446
9.0338533,Darsema Grosery,node/7041071601,0,,38.7294433
9.04636,Girum Hospital,node/7041071604,0,,38.7200106
9.0407262,Woreda 7 TVET,node/7041071605,0,,38.7212396
9.0366318,Sefere Salam,node/7041071606,0,,38.7219216
9.037044,Kolfe,node/7041071607,0,,38.7173824
9.0373422,Abysinia Coffee,node/7041071608,0,,38.7164487
9.0338162,Degu Hotel,node/7041071609,0,,38.7151531
9.0335338,18 Mazoria,node/7041071610,0,,38.7130781
9.0335825,18 Mazoria,node/7041071612,0,,38.7135105
9.0333303,Luwkanda,node/7041071614,0,,38.7093322
9.0340139,Kolfe Secondary School,node/7041071615,0,,38.704541
9.0327975,Realstate,node/7041071616,0,,38.6951186
9.034058,Police Tabiya,node/7041071619,0,,38.6888917
9.0342811,Feli Doro (1),node/7041071620,0,,38.6875252
9.0353789,Feli Doro,node/7041071622,0,,38.6853297
9.0389362,Ras Mekonene Bridge (Seba Dereja),node/7041071628,0,,38.7568178
9.0385989,5 Kilo (History Museum),node/7041071629,0,,38.7625491
9.0408311,5 Kilo University,node/7041071630,0,,38.761951
9.0427151,Lion Zoo (PEPSI Kiosk),node/7041071633,0,,38.7615693
9.0438891,Yekatit 12 Hospital,node/7041071636,0,,38.7603878
9.0436921,Yeatit 12 Hospital,node/7041071637,0,,38.7593176
9.0386136,Red-Cross (St. George Total),node/7041071638,0,,38.7527639
9.0386684,St. George Church (Total),node/7041071639,0,,38.7517494
9.0436522,Semen Hotel,node/7041071640,0,,38.7488778
9.0446929,Semen Hotel,node/7041071641,0,,38.7482928
9.0486023,Kelemwerk,node/7041071642,0,,38.7461719
9.0488673,Kelemwerk,node/7041071643,0,,38.7458026
9.0512494,Tibeb Ediget School,node/7041071645,0,,38.7443439
9.0523631,Semen Mazegaga,node/7041071646,0,,38.7433813
9.0537306,Semen Mazagaja,node/7041071647,0,,38.7424925
9.0541015,Shegole Bank,node/7041071648,0,,38.7200104
9.0474202,Pawlos Hospital,node/7041071649,0,,38.7277601
9.0514832,Finance,node/7041071650,0,,38.7221677
9.0513651,Medhanialem (TOTAL),node/7041071651,0,,38.7220512
9.0528369,Finance,node/7041071653,0,,38.7201878
9.0531245,Finance,node/7041071654,0,,38.7199027
9.0544244,Winget Chaf,node/7041071655,0,,38.7149847
9.0520588,4 Menta Adebabay,node/7041071657,0,,38.7088754
9.051327,Mikili Land,node/7041071658,0,,38.6987792
9.0571703,Winget Adebabay,node/7041071659,0,,38.7137033
9.0576087,Awolia,node/7041071660,0,,38.7116367
9.0577975,Gulele Fana,node/7041071661,0,,38.7067279
9.0582376,Gulele Fana,node/7041071662,0,,38.7065488
9.0593548,Berchiko,node/7041071663,0,,38.7034077
9.0665816,Gebriel (Sansusi),node/7041071665,0,,38.69045
9.057952,Bono Weha,node/7041071718,0,,38.7791204
9.053538,Mezan,node/7041071719,0,,38.7722233
9.0470252,3rd Shaleka,node/7041071721,0,,38.7690705
9.0461753,6 Kilo (University),node/7041071723,0,,38.7615547
9.0513004,Meksaye Hizunan Medhanialem,node/7041071725,0,,38.7622054
9.052326,Teferi Mekonen,node/7041071726,0,,38.7622236
9.0541533,Sebseba Maekel,node/7041071729,0,,38.7625698
9.0649811,Eyesus,node/7041071737,0,,38.7715088
9.0585516,Hamle 19,node/7041071738,0,,38.7680987
9.0692162,Selassie,node/7041071740,0,,38.7607205
9.0745256,Sanba Nekersa-Shiromeda,node/7041071741,0,,38.7590628
9.0777328,Kuskoam,node/7041071742,0,,38.7572536
9.0710894,Dil Ber,node/7041071749,0,,38.7374397
9.0638294,Anbessa Garage (Shegole),node/7041071753,0,,38.7204079
9.0691617,Kebt Beret,node/7041071754,0,,38.7182194
9.0843712,Entoto Kela,node/7041071755,0,,38.7230011
9.1051152,Weserbi Realestate,node/7041071758,0,,38.7095299
9.1095355,Classy Water,node/7041071759,0,,38.7147037
9.1100449,Medret Hotel,node/7041071760,0,,38.7158285
9.1176074,Kburea,node/7041071761,0,,38.7300979
9.1179357,Kenenisa,node/7041071762,0,,38.7304557
9.1273122,Shefunea,node/7041071763,0,,38.7395293
9.1277902,Shefine,node/7041071764,0,,38.7397834
9.1339361,Doro Erbata,node/7041071772,0,,38.7522344
9.1341343,Abo Gabriel,node/7041071773,0,,38.7524529
9.1408321,Tulu Fati,node/7041071774,0,,38.7549356
9.1449015,Ashewa,node/7041071775,0,,38.7538733
9.1560016,Tabya Hotel,node/7041071776,0,,38.7542489
8.9929589,Sar Bet (Roundabout),node/7047495429,0,,38.738359
9.0286142,United Bank (Ashewa Meda),node/7047495432,0,,38.6600221
8.9208064,Sefera,node/7047495433,0,,38.7346499
8.9473774,Lafto,node/7049122264,0,,38.744323
8.935835,Hana Mariam (2),node/7049122265,0,,38.7440895
8.9387647,Haile Garment,node/7049122266,0,,38.7345586
9.0304285,Yekiber Demena Church,node/7049921444,0,,38.8779866
9.0204726,Megenagna Terminal,node/7049921445,0,,38.8024339
9.0220882,Hill Bottom (Recreation),node/7049921447,0,,38.8759579
9.0304125,Zone 8,node/7049921448,0,,38.8775474
9.0570656,Aba Kiros (Tafo) Roundabout,node/7049921449,0,,38.8779122
9.0566049,Tafo Junction,node/7050234123,0,,38.8790275
9.020626,Megenagna Terminal,node/7050327664,0,,38.8021323
9.0476858,6 Kilo,node/7054842410,0,,38.7617178
9.0476498,6 Kilo,node/7054842414,0,,38.7617169
9.0106346,Legehar (Old Train Station),node/7055060064,0,,38.7532161
9.0359897,Kotebe Gebriel,node/7055598734,0,,38.8546711
9.0269686,Ahmed Building,node/7055598736,0,,38.8299268
9.0363488,St. Mary Church,node/7055598738,0,,38.7579049
9.0335541,Piassa Arada,node/7055598739,0,,38.7535483
9.0327818,Piassa Arada,node/7055598742,0,,38.7534018
9.0363807,St. Mary Church,node/7055598743,0,,38.7579442
9.0274541,NOC End,node/7055598744,0,,38.8307544
9.0341209,Kotebe Teachers College,node/7056754511,0,,38.8467717
9.0630764,Meskelegna (Ababdo),node/7056754514,0,,38.8732637
9.020907,Megenagna,node/7056754516,0,,38.8022361
9.0041945,Atlas,node/7057002158,0,,38.779674
9.0329242,Piassa Arada,node/7057002161,0,,38.7528717
9.0389386,Ras Mekonene Bridge (Seba Dereja),node/7057002162,0,,38.7568279
8.9904207,Brass Clinic (Bole),node/7057187392,0,,38.7929906
8.9903142,Brass Clinic (Bole),node/7057187393,0,,38.7932003
9.0379471,St.Gorgis,node/7062689844,0,,38.7519784
9.0358742,St. George Church (2),node/7062689845,0,,38.751629
9.0345896,Piassa,node/7062689848,0,,38.7549398
9.0325203,Arat Kilo,node/7062689850,0,,38.764362
9.0344021,4 Kilo,node/7062689851,0,,38.7630946
9.0506154,Medhanialem,node/7062689852,0,,38.7621098
9.044142,Education Bureau (6 Kilo),node/7062689854,0,,38.7635923
9.0471236,Jan Meda,node/7062689855,0,,38.7690204
9.0557922,Frensaye Kela,node/7062689856,0,,38.7742742
9.0551762,Frensaye Kela,node/7062689857,0,,38.7736282
9.0569998,Abo Mazoriya,node/7062689858,0,,38.7777387
9.0623294,Gurara,node/7062689859,0,,38.7881845
8.9730894,Mamo (NFSL TVET),node/7067942461,0,,38.7608987
8.988213,Agona Cinema,node/7067942462,0,,38.7595747
8.9882665,Agona Cinema,node/7067942463,0,,38.7597959
9.0004682,Tele Garage,node/7067942465,0,,38.7587377
9.0057314,Meshualekia,node/7067942466,0,,38.7589773
9.0145395,Zerihun Building,node/7067990019,0,,38.7824519
9.0166971,6th (Raddison Blu),node/7067990020,0,,38.7669539
9.0264536,National Palace,node/7070861695,0,,38.7621198
8.9897614,SNAP Building,node/7070861696,0,,38.7872174
8.9908557,Friendship,node/7070861697,0,,38.7844888
8.9917592,Heber Restaurant,node/7070861698,0,,38.7822311
8.992295,RWANDA (Werbek House),node/7070861699,0,,38.7791533
8.9946542,Wollo Sefer,node/7070861700,0,,38.7740953
8.9924,Rwanda,node/7070861701,0,,38.7798477
8.9966227,Bole Printing Press,node/7070861702,0,,38.7723732
8.9976714,Bole Printing Press,node/7070861703,0,,38.7715908
8.9993469,Mega Printing Press,node/7070861704,0,,38.7708659
9.001132,Shewa Dabo,node/7070861705,0,,38.7697078
9.0014126,Getu Commercial Center,node/7070861706,0,,38.7697673
9.004953,Dembel City Center,node/7070861707,0,,38.7678519
9.0100482,Flamingo,node/7070861710,0,,38.7634195
9.0358386,Piassa Arada,node/7070861712,0,,38.7528459
9.0074376,Anbessa Garage,node/7070861713,0,,38.8054033
9.0221276,Ayat Roundabout,node/7070861714,0,,38.876525
9.0401288,Gebriel,node/7070861716,0,,38.8777949
9.0527134,Semen Mazegaja | ሰሜን ማዘጋጃ,node/7074233342,0,,38.7433527
9.0559007,Del Ber School,node/7074233343,0,,38.7411604
9.0592088,Adisu Gebeya,node/7074233344,0,,38.7379037
9.061605,Kelebat,node/7074233345,0,,38.7355505
9.0679367,Oilibiya (Dil Ber),node/7074233346,0,,38.7347909
9.0463006,Pastor,node/7074267433,0,,38.7301845
9.051161,Medhanialem,node/7074267434,0,,38.7228618
9.0554455,Winget,node/7074267435,0,,38.7138884
9.0576131,Kela,node/7074269464,0,,38.6101592
9.0576152,Kela,node/7074269465,0,,38.6101611
9.0452427,Semen Hotel,node/7074275407,0,,38.7481339
8.9866969,Kera,node/7074294627,0,,38.7484333
9.0653014,Asko,node/7074299254,0,,38.6922669
9.0286512,Sebategna,node/7074324043,0,,38.733098
9.0317912,Autobis Tera (2),node/7074324044,0,,38.7324012
9.0347276,Autobis Tera,node/7074324045,0,,38.7321005
8.9733512,Mekanisa,node/7074326525,0,,38.7315967
8.9822244,Abo Mazoria,node/7074326526,0,,38.7343058
8.9894962,Gate 2,node/7074330387,0,,38.8580841
8.9942098,Tena Tabeya,node/7074330389,0,,38.8605382
8.9984544,Condminium (Gate),node/7074330391,0,,38.8602323
9.0014062,Gomista,node/7074330392,0,,38.8573283
9.0040839,Summit (MOHA),node/7074330394,0,,38.8517162
9.0106601,Safari,node/7074330397,0,,38.8518265
8.999474,Alemayehu,node/7074330400,0,,38.820944
9.0005663,Alemayehu,node/7074330401,0,,38.8196821
9.0050845,Condominium,node/7074330403,0,,38.8095474
9.026612,Ethio-china,node/7074330407,0,,38.8287819
9.0403987,Kara,node/7074330409,0,,38.8643277
8.9654679,Project 15,node/7074332290,0,,38.8850641
8.9772657,Kela,node/7074332294,0,,38.8845811
9.0616842,Chereta,node/7074347184,0,,38.7010211
8.9813585,Gerar,node/7074353066,0,,38.6894082
8.9538291,Jemo 3,node/7074374410,0,,38.6959643
8.951847,Furi,node/7074374411,0,,38.6921288
9.0714186,Sansusi,node/7074387585,0,,38.6891023
9.0285405,Kersa (2),node/7074496216,0,,38.6722328
9.0326531,Ashewa Meda,node/7074496217,0,,38.6653802
9.0326414,Ashewa Meda,node/7074496218,0,,38.6653823
9.0258997,United Bank (Ashewa Meda),node/7074496219,0,,38.6569665
9.027689,St. Gebriel,node/7074496221,0,,38.6515848
9.0276843,St. Gebriel,node/7074496222,0,,38.6515743
9.0417975,Gojo,node/7074496225,0,,38.6216778
9.0010346,Alem Bank,node/7074504387,0,,38.6776598
8.9831093,Ayer Tena,node/7074504388,0,,38.6982193
9.0045877,Bethel,node/7074504390,0,,38.6944335
9.0139079,Mewcha,node/7074504391,0,,38.7053132
9.0149626,Mendida,node/7074504392,0,,38.7004735
8.9700751,Mebrat Nigist Hotel,node/7074525370,0,,38.7486994
9.0116457,Lideta Kefetega Firdbet,node/7074541084,0,,38.7326808
8.9249315,Sefera Square,node/7074561389,0,,38.7341804
8.9368661,Haile Garment,node/7074561391,0,,38.7363202
8.9493593,Mebrathile (EEPCo),node/7074561392,0,,38.7334502
8.9309368,Hana Mariam,node/7074561393,0,,38.7544146
8.9361698,Hana Mariam (2),node/7074561394,0,,38.7444615
8.95299,Meskelgna,node/7074561395,0,,38.7448233
9.0357438,Piassa Arada,node/7074585943,0,,38.7514315
9.0324015,Arat Kilo,node/7074585944,0,,38.7633143
8.9953761,Beklo Bet (Global),node/7074599697,0,,38.759835
9.0055741,Dembel City Center,node/7074691520,0,,38.7672511
9.010735,Mexico,node/7074707878,0,,38.7471393
9.0127963,ERA Office (Big Mak),node/7074707880,0,,38.7478601
9.0092034,Saint Josphe School,node/7074707881,0,,38.7591385
9.0124825,St. Estifanos Church,node/7074707883,0,,38.7628296
8.9725713,Mamo (NFSL TVET),node/7074819178,0,,38.7607684
8.9310399,Kadisco,node/7074841187,0,,38.7585063
8.9339802,Kality Maseltegna,node/7074841188,0,,38.7643672
9.0291868,Teklehaimanot,node/7074921333,0,,38.7442895
9.0266712,Berbere Tera,node/7074921334,0,,38.7406481
8.9585362,Dildiy Mariam,node/7075101457,0,,38.7498569
8.9837158,Kera (Gofa Stop),node/7075101459,0,,38.7497528
9.009717,Tor Hailoch,node/7075129253,0,,38.7208842
9.0117428,Torhayloch,node/7075129254,0,,38.7207996
9.0117788,Tor Hailoch,node/7075129255,0,,38.7222467
9.0043941,Riche,node/7076294502,0,,38.7588986
8.9645236,Mebrat Condominium,node/7076294503,0,,38.7438551
8.9638868,Kadisco,node/7076294504,0,,38.7633289
9.0089349,Flamingo,node/7076294505,0,,38.7646677
8.9984013,Condminium (Gate),node/7076294507,0,,38.8601035
9.0571285,Sara Ampol (Gedera),node/7076294508,0,,38.8738883
9.0418835,Michael (2),node/7076294509,0,,38.7325725
9.0622823,Shero Meda,node/7076294510,0,,38.7612538
9.0618175,Shero Meda,node/7076294511,0,,38.7613619
9.0716602,Dil Ber,node/7076294512,0,,38.7369836
9.0692159,Shiromeda Selassie,node/7076294515,0,,38.7607132
9.0618235,Shero Meda,node/7076294516,0,,38.7613887
9.0447597,6 Kilo (Akim Genbata),node/7076310930,0,,38.7612093
9.0626379,Shero Meda,node/7076310931,0,,38.7612397
9.0507372,Medhanialem,node/7077424942,0,,38.7619991
9.0163885,Ambassador,node/7077601626,0,,38.7551039
9.0216085,Lamberet,node/7077785205,0,,38.8139111
9.0479009,Kara Condominium,node/7077785206,0,,38.8692642
9.0655587,G-7 (Meskelegna),node/7077785207,0,,38.8676583
9.0480304,Kara Condominium,node/7077785209,0,,38.8695121
9.031811,Autobis Tera (2),node/7077863009,0,,38.7325536
8.9960545,Tropical,node/7077863010,0,,38.6833448
9.0003767,Alem Bank,node/7077863012,0,,38.6779208
8.9965876,Tropical,node/7077863014,0,,38.6830207
8.9923549,Kidane Mihret,node/7077863015,0,,38.6892387
9.004479,Bethel,node/7077863016,0,,38.6941906
9.0151128,Mendida,node/7077863017,0,,38.7004836
9.019638,Abinet,node/7077863018,0,,38.7327417
9.0280905,Sebategna,node/7077863019,0,,38.7329768
9.0088714,Mexico,node/7078164250,0,,38.7440208
8.9381825,Haile Garment,node/7078164251,0,,38.7349155
8.9729343,Mekanisa,node/7078164254,0,,38.7311018
8.9820586,Abo Mazoria,node/7078164255,0,,38.7345326
9.0088201,Mexico,node/7078164256,0,,38.7437936
9.0330269,Autobis Tera (1),node/7078406225,0,,38.7323925
8.9876369,Zenebework,node/7078406227,0,,38.7090191
8.9822919,Ayer Tena,node/7078406228,0,,38.6949214
8.9755975,Kara Kore,node/7078406231,0,,38.6817556
8.9763865,Kara Kore,node/7078406235,0,,38.6823873
8.9822452,Ayer Tena (Gerar-Repi),node/7078406236,0,,38.6939258
8.9795411,Repi (Gerar),node/7078406237,0,,38.6853377
8.9852814,Zenebework (Crossing),node/7078406238,0,,38.7051886
8.992776,3 Kutir Mazoriya (Total),node/7078406239,0,,38.715946
9.0330007,Autobis Tera (1),node/7078406240,0,,38.7322299
9.0049451,Condominium,node/7080251773,0,,38.8100534
8.993889,Goro School,node/7080251774,0,,38.8268744
9.0071789,Anbessa Garage,node/7080251776,0,,38.8056204
9.0110028,Estifanos,node/7080440194,0,,38.76366
9.0104866,BAMBIS,node/7080440195,0,,38.7690578
9.0115088,St. Urael Church,node/7080440196,0,,38.7752996
9.0147285,Lex Plaza,node/7080440197,0,,38.7823039
9.0164226,22 (Haya Hulet),node/7080440198,0,,38.7896417
9.0194097,Megenagna,node/7080440200,0,,38.8004816
9.019032,Megenagna,node/7080440203,0,,38.8005914
9.0177169,Lem Hotel,node/7080440204,0,,38.7955696
9.0162149,22 (Haya Hulet),node/7080440205,0,,38.7896635
9.0102033,BAMBIS,node/7080440206,0,,38.7694936
9.0104304,Mexico,node/7080440208,0,,38.7467585
9.0098462,Mexico,node/7080527282,0,,38.7462899
8.9863213,Kera,node/7080527284,0,,38.7487773
8.96688,Mebrat,node/7080611085,0,,38.7487535
9.0120423,Mexico Shebelle Hotel,node/7080611091,0,,38.746773
9.0412736,Michael,node/7080893992,0,,38.7322629
9.034717,Autobis Tera,node/7080893993,0,,38.732023
9.0460782,Pastor,node/7080893994,0,,38.7306587
9.0560646,Winget,node/7080893995,0,,38.713458
9.0613645,Chereta,node/7080893996,0,,38.7009781
9.0715888,Sansusi,node/7080894001,0,,38.6891732
9.0385658,5 Kilo (History Museum),node/7081034796,0,,38.7624277
9.0574672,Abo Mazoriya,node/7081034797,0,,38.7785478
9.0441923,Education Bureau (6 Kilo),node/7081034799,0,,38.7640045
9.0648091,Total (Dil Ber),node/7084255331,0,,38.732915
9.0341775,Piassa Arada,node/7084255333,0,,38.7533521
9.0594855,Addisu Gebeya,node/7084255334,0,,38.7374497
9.0638908,Tsion Cafe (Addisu Gebeya),node/7084255335,0,,38.733166
9.0653883,Total (Dil Ber),node/7084255336,0,,38.7327389
9.0337517,Ummar School,node/7084722454,0,,38.7405402
9.0341036,Autobis Tera (3),node/7084722456,0,,38.7337992
9.0341305,Gojam Berenda (Tefera Buillding),node/7084722457,0,,38.7418327
9.0404538,Dej. Wube (Ras Abebe School),node/7084722458,0,,38.7533374
9.0440672,Wube Bereha,node/7084722459,0,,38.7544994
9.0515491,Menen,node/7084722460,0,,38.7588473
9.0584002,Tsehay Chora (ShiroMeda),node/7084722461,0,,38.7598297
9.0274958,Sebategna (Taem Bakery),node/7084873006,0,,38.7332661
9.0188835,Mola Maru (Jos Hansen),node/7084873007,0,,38.7380924
9.0167149,Geja Sefer (Darmar),node/7084873008,0,,38.7382054
8.9856954,Kera (Green Market),node/7084873009,0,,38.7486804
8.9841757,Kera (Mexico Stop),node/7084873010,0,,38.7518917
8.9824212,MOHA (Pepsi Factory),node/7084873011,0,,38.7560749
8.9547202,Saris (Shoa Bakery),node/7084873012,0,,38.7635412
8.9844206,Kera (Saris Stop),node/7084873013,0,,38.7509324
9.002055,Guenet Hotel (Orbis),node/7084873014,0,,38.7469466
9.0111972,St. Lideta Church,node/7084873015,0,,38.736541
9.0192478,Abenet (Joshansen),node/7084873016,0,,38.733649
8.9951157,Canada Embassy,node/7084932737,0,,38.7373207
8.9973163,Mechare Meda,node/7084932738,0,,38.7311778
8.9892732,Bisrate Gebrael,node/7084932739,0,,38.7239615
8.9850622,Zenebework (Crossing),node/7084932740,0,,38.705264
8.9838449,Ayer Tena,node/7084932741,0,,38.6961239
8.9917639,Kidane Mihret (Roundabout),node/7084932742,0,,38.6887357
8.9910254,Kidane Mihret (2),node/7084932743,0,,38.690106
9.0056187,Augusta Bridge (Tor Hailoch),node/7084932745,0,,38.7185689
9.0114539,Mexico,node/7084932747,0,,38.7445753
8.9839859,Goro Roundabout,node/7098810331,0,,38.8285018
8.9678887,Kotebe Shet',node/7098810332,0,,38.8370059
8.9585287,Bole Lemi,node/7098810333,0,,38.8352869
8.9405669,Endorro 2,node/7098810334,0,,38.8219339
8.9007946,Kilinto Right (Heniken),node/7098810335,0,,38.8152364
8.8947925,Koye Feche 4,node/7098810336,0,,38.8240221
8.8925887,Koye Feche 3,node/7098810337,0,,38.8277372
8.896302,Koye Feche 2,node/7098810338,0,,38.8313712
8.9045894,Koye Feche,node/7098810339,0,,38.8270083
8.9837967,Goro Roundabout,node/7098810340,0,,38.8289328
8.9678046,Kotebe Shet',node/7098810341,0,,38.8374461
8.9573187,Bole Lemi,node/7098810342,0,,38.8354629
8.9393928,Endorro 2,node/7098810343,0,,38.8217947
8.9307029,Endorro 1,node/7098810344,0,,38.820007
8.9005132,kilinto (Heniken Brewery),node/7098810345,0,,38.8155747
9.0192718,Gurd-shola,node/7098833728,0,,38.8196082
9.021924,Civil Service College,node/7098833729,0,,38.8331381
9.021617,St. Michael,node/7098833730,0,,38.8400876
9.0193173,Sunshine Apartments,node/7098833731,0,,38.8524287
9.0019915,Gomista,node/7098833732,0,,38.8575794
8.9918735,Hasset Photo,node/7098833735,0,,38.8588022
9.0190988,Sunshine Apartments,node/7098833736,0,,38.8521013
9.0208488,CMC (Apartments),node/7098833737,0,,38.8504565
9.0213567,St. Michael,node/7098833738,0,,38.8401568
9.0337594,Merkato,node/7102193971,0,,38.7312293
9.0338552,Mesalemia (Area Police),node/7102193972,0,,38.7254909
9.0332635,Luwkanda,node/7102193973,0,,38.7086533
9.0338494,Comprensive,node/7102193974,0,,38.7049566
9.031909,Gefersa,node/7102193975,0,,38.642409
9.0563274,Gojo (Kela),node/7102193976,0,,38.6117467
9.0560454,Gojo (Kela),node/7102193977,0,,38.6120244
9.0375371,Gefersa (2),node/7102193978,0,,38.6265192
9.0356795,Gefersa,node/7102193979,0,,38.6329501
9.0328635,Ashewa Meda (1),node/7102193980,0,,38.6674596
9.0286003,Kersa (1),node/7102193981,0,,38.6760437
9.0343761,Feli Doro (2),node/7102193982,0,,38.687173
9.0344498,Mesalemia,node/7102193983,0,,38.7244946
9.0338637,Merkato,node/7102269985,0,,38.7312074
8.9821491,Ayer Tena,node/7103202615,0,,38.6977085
8.9647174,German Bridge,node/7103202616,0,,38.7316085
8.9470109,Mebrathile (EEPCo),node/7103202617,0,,38.7342372
8.9444277,Saris Abo,node/7103202619,0,,38.7692016
8.944353,Saris Abo,node/7103202620,0,,38.7666082
8.9336411,Kality Maseltegna,node/7103202621,0,,38.7645892
8.930547,Hana Mariam (Bridge),node/7103202622,0,,38.7550031
8.9653607,Mickael Bridge,node/7103202623,0,,38.72738
8.9820533,Ayer Tena,node/7103202625,0,,38.6976219
9.0323651,Bel Air,node/7104888674,0,,38.7729637
9.0211237,CMC (Apartments),node/7105158906,0,,38.8506098
9.0462589,Tafo Condominium 2,node/7105158907,0,,38.8774831
9.0502639,Tafo Condominium 1,node/7105158908,0,,38.8775457
8.9593839,Mebrat (Lafto),node/7105268824,0,,38.7490031
8.9587047,Dildiy Mariam,node/7105268825,0,,38.7497551
8.9537745,Lafto (Mickael),node/7105268826,0,,38.7504407
8.9465504,Lafto,node/7105268828,0,,38.7493803
8.9558865,Lafto (Primary School),node/7105268830,0,,38.7450783
9.0185243,Post Office (Ambassador),node/7105398617,0,,38.7534558
9.0462,6 Kilo,node/7105398618,0,,38.761425
9.0522977,Teferi Mekonen,node/7105398619,0,,38.7623138
9.022269,Marathon Motor (Megenagna),node/7105584907,0,,38.7999868
9.0332665,Arat Kilo,node/7105584908,0,,38.762507
9.0341288,Piassa Arada,node/7105584909,0,,38.7532588
9.0332715,Arat Kilo,node/7105584911,0,,38.7625094
9.0289345,Abebe Sook,node/7105584912,0,,38.7888307
9.0358919,Abune Petros,node/7105840324,0,,38.7492708
9.0424895,Yohannes,node/7105840325,0,,38.745898
9.0472271,Arbegnoch Primary School,node/7105840326,0,,38.7421685
9.0485317,Enqulal Fabrica,node/7105840327,0,,38.7376837
9.0434044,Yohannes,node/7105840330,0,,38.7450108
9.0481067,Enqulal Fabrica,node/7105840331,0,,38.7373533
8.9209077,Sefera,node/7107670562,0,,38.7350358
8.94963,Mebrathile (EEPCo),node/7107670563,0,,38.7332384
8.9829863,Mekanisa Abo,node/7107670564,0,,38.7341183
8.9606298,Jemmo 2,node/7107789218,0,,38.6879228
9.0319297,Piassa (Downtown Cafe),node/7107789219,0,,38.7511477
8.9605732,Jemmo 2,node/7107789220,0,,38.6878636
8.9860956,Kera,node/7108224469,0,,38.7483037
9.0166264,6th (Raddison Blu),node/7110438104,0,,38.7675202
9.0171928,Kazanchis (6th),node/7110438105,0,,38.7701955
9.0231177,Aware Roundabout,node/7110438106,0,,38.7758778
9.0234853,Signal,node/7110438107,0,,38.7815333
9.0221973,Dinberwa Hospital,node/7110438108,0,,38.7867845
9.0212061,Lem Hotel,node/7110438109,0,,38.7940254
9.022362,Lamberet (Queens),node/7110438110,0,,38.8157252
9.0348925,Kotebe 01,node/7110438111,0,,38.8281186
9.0349074,Kotebe 01,node/7110438113,0,,38.8281855
9.0217059,Shola (United Bank),node/7110438114,0,,38.7948696
9.021194,Sumeya Mosque,node/7110438115,0,,38.792498
9.023369,Signal,node/7110438116,0,,38.7815645
8.9104302,Kality Gebriel,node/7110725239,0,,38.7640618
8.9572931,Addis Sefer (Overpass),node/7110725240,0,,38.7673729
8.9799499,Bole Mickael (2),node/7110725241,0,,38.7723221
8.9867261,Bole Bridge,node/7110725242,0,,38.7903601
8.9948785,MOENCO,node/7110725243,0,,38.7957512
9.0009401,Sport Academy,node/7110725244,0,,38.7988652
9.0077883,Anbessa Garage,node/7110725245,0,,38.8030776
9.0076034,Anbessa Garage,node/7110725247,0,,38.8032793
9.0037859,Emperial Hotel,node/7110725248,0,,38.8009424
8.9910225,Bole (Bora Amusement),node/7110725250,0,,38.7947105
8.9795995,Bole Mickael (2),node/7110725251,0,,38.7721474
8.9603711,Addis Sefer,node/7110725252,0,,38.7676814
8.945759,Saris Abo,node/7110725253,0,,38.7692206
8.9234126,Kality (Correctional Facility),node/7110725254,0,,38.7648588
8.8959395,Kality Meneharia,node/7110725256,0,,38.7718808
9.0354591,Arat Kilo,node/7111821010,0,,38.7588358
9.0325113,Piassa (EPPCO),node/7111821011,0,,38.7538404
9.0317457,Autobis Tera,node/7111821013,0,,38.7374552
9.0302352,Autobis Tera,node/7111821015,0,,38.7372851
9.0216842,Dinberwa Hospital (1),node/7111821016,0,,38.7887833
9.0374493,Chid Tera,node/7112123457,0,,38.721592
9.0294949,Mebrathail,node/7112123458,0,,38.7149359
9.0173854,Kolfe Keranyo,node/7112123459,0,,38.7177803
9.0193846,Keranio Bridge,node/7112123460,0,,38.708993
9.0170237,Kolfe Keranyo,node/7112123462,0,,38.7176821
9.0370321,Abysinia Coffee,node/7112123463,0,,38.7163686
9.0376714,Chid Tera,node/7112123464,0,,38.7208971
8.9998854,Old Airport (Mobil),node/7112215078,0,,38.7188624
9.008471,Minaye (Shoa Supermarket),node/7112215079,0,,38.7196192
9.0208524,Holand,node/7112215080,0,,38.7158287
9.0361682,18 Mazoria (Atena Tera),node/7112215081,0,,38.7141478
9.0409736,Atena Tera,node/7112215082,0,,38.7125982
9.0491202,Winget TVET,node/7112215083,0,,38.7116581
9.0555289,Winget,node/7112215084,0,,38.7124575
9.0554541,Winget,node/7112280388,0,,38.7127274
9.0494004,Winget TVET,node/7112280389,0,,38.7117843
9.0448145,kolfe (Atena Tera),node/7112280390,0,,38.7122352
9.0414434,Atena Tera,node/7112280391,0,,38.712721
9.0362317,18 Mazoria (Atena Tera),node/7112280392,0,,38.7143961
9.0244809,Meseret Edget,node/7112280393,0,,38.7152453
9.0056155,Augusta Bridge (Tor Hailoch),node/7112280394,0,,38.7188519
8.8596281,Mahiber Betoch,node/7112648156,0,,38.8146269
8.865212,Project 12 Akababi,node/7112648157,0,,38.8210444
8.8701237,G7 (Tulu Dimtu),node/7112648158,0,,38.8204129
8.871336,Belay Ab Moters,node/7112648159,0,,38.7965426
8.8797273,Gelan Condominium,node/7112648160,0,,38.779459
8.894811,Kality Total,node/7112648161,0,,38.7728422
8.8973286,Akaki Subcity Office (Menaheria),node/7112648162,0,,38.770309
8.9224149,Kality (Correctional Facility),node/7112648163,0,,38.7641522
8.9281178,Techtra Engineering,node/7112648164,0,,38.7676362
8.9572677,Adey Abeba,node/7112648165,0,,38.7637599
8.9323914,Kality Maseltegna,node/7112648166,0,,38.7669427
8.9298175,Wehalemat,node/7112648167,0,,38.768315
8.8837788,Awash Bank (Akaki Kality),node/7112648168,0,,38.7768426
8.8799589,Gelan Condominium,node/7112648169,0,,38.7793211
8.8716847,Belay Ab Moters,node/7112648170,0,,38.7963837
8.8705655,TAF Oil (Tulu Dimtu),node/7112648172,0,,38.8091005
9.0278217,Teklehaymanot,node/7112755338,0,,38.7439418
9.0314996,Autobis Tera,node/7112755340,0,,38.7376384
9.0308454,Autobis Tera,node/7112755342,0,,38.7381207
9.0194238,Meteorology,node/7112755343,0,,38.7468282
9.0462468,Girum Hospital,node/7113004009,0,,38.7199737
9.0509733,Ras Hailu (Medhanialem),node/7113004010,0,,38.7211613
9.0572551,Awolia,node/7113004011,0,,38.7114101
9.0640587,Bercheko Fabrica (Asko),node/7113004012,0,,38.6983516
9.0598807,Gulele,node/7113004013,0,,38.70588
9.0507813,Ras Hailu (Medhanialem),node/7113004014,0,,38.7210939
9.040909,Woreda 7 TVET,node/7113004015,0,,38.7212829
9.0380466,Chid Tera,node/7113004016,0,,38.7213725
9.0312199,Autobis Tera,node/7113004018,0,,38.7365754
9.0426217,Michael (2),node/7113004020,0,,38.73268
9.0485205,Pawlos Hospital (Saba Mosque),node/7113004021,0,,38.7261371
9.0643796,Anbessa Garage (Shegole),node/7113004022,0,,38.7205811
9.0641379,Shegole (Mender 7),node/7113004024,0,,38.7266132
9.0641466,Shegole (Mender 7),node/7113004026,0,,38.726699
9.0589167,Hassen & Hussein Mosque (Shegole),node/7113004027,0,,38.7189551
9.0548351,Shegole Bank,node/7113004028,0,,38.7198445
9.0409541,Michael,node/7113004029,0,,38.7321449
9.0652655,Eyesus,node/7113158623,0,,38.7712666
8.9931107,Wello Sefer,node/7122983960,0,,38.7741153
8.9891423,Kassech Kitfo,node/7122983961,0,,38.7720567
8.9855755,Ambasel,node/7122983962,0,,38.7679985
8.9840055,WAGGA (Singer Liquior Store),node/7122983963,0,,38.7662234
8.9814923,Wengalawit,node/7122983964,0,,38.7635127
8.9817105,Wengalawit,node/7122983968,0,,38.7636059
8.9857381,MEDCO,node/7122983969,0,,38.7680101
8.98977,Tebaber Berta,node/7122983970,0,,38.7723942
8.9930626,Wello Sefer,node/7122983972,0,,38.7739711
9.0113972,Beshale Area,node/7123180286,0,,38.8356151
9.0185063,Megenagna,node/7123180287,0,,38.802106
9.0111777,Jacros,node/7123180289,0,,38.821148
9.0100121,Safari,node/7123180290,0,,38.8526604
9.0116739,Safari (Summit),node/7123180291,0,,38.8657082
9.0115148,Safari (Summit),node/7123180293,0,,38.8657494
9.0099646,Safari,node/7123180295,0,,38.8513684
9.011279,Beshale Area,node/7123180296,0,,38.8356503
9.0189315,Gurd Shola,node/7123180297,0,,38.8201425
9.0194519,Megenagna,node/7123180298,0,,38.803506
8.9882804,Meskel Flower,node/7123265052,0,,38.7650036
8.9911645,Loza (Adot),node/7123265053,0,,38.7659652
8.9934001,Nazra Hotel,node/7123265054,0,,38.7663984
8.9959487,Yetam Hotel,node/7123265055,0,,38.7666123
8.9980982,Kebele Kibeb,node/7123265056,0,,38.7667571
8.9999844,Mulu Shewa (Gazebo),node/7123265061,0,,38.7669271
8.9979306,Kebele Kibeb,node/7123265062,0,,38.7668423
8.9959132,Yetam Hotel,node/7123265063,0,,38.7667132
8.9937071,Nazra Hotel,node/7123265064,0,,38.7665439
8.9910552,Loza (Adot),node/7123265065,0,,38.7660467
8.9885268,Meskel Flower,node/7123265066,0,,38.7652457
8.9921561,Total 3 Kuter Mazoria,node/7182111861,0,,38.7180191
8.9865792,Kera,node/7182111862,0,,38.7468023
9.0351361,4 Kilo Minilik School,node/7214490240,0,,38.7629695
8.8967488,Kality Menaheriya,node/7214490241,0,,38.7708485
9.0675662,Holeta,node/10672522047,0,,38.497947
9.065884,Sademo,node/10672522056,0,,38.53199
9.0712731,Cheshire Ethiopia,node/10672522057,0,,38.5920589
8.8504983,Delta Fuel Station,node/10672721751,0,,38.8085926
8.8412588,Sidama Awash NOC,node/10672739809,0,,38.8243789
8.8314833,Atlas Resort,node/10672739811,0,,38.8396009
8.8447465,ODDA Fuel Station,node/10672739815,0,,38.818065
8.9943894,3 Kutir (TZNA Area),node/10672961242,0,,38.717673
9.0117316,Lideta High Court,node/10672961244,0,,38.7335924
8.9839135,Ayer Tena,node/10750378219,0,,38.7024743
8.9925223,Sar Bet,node/10755917239,0,,38.7394551
8.9924619,Sar Bet,node/10755917241,0,,38.7392871
8.9859671,Kera,node/10755917242,0,,38.7469304
8.9900132,Kera,node/10755917243,0,,38.7418629
8.995096,Sar Bet,node/10755917244,0,,38.7376124
8.9973975,karl Square,node/10755917245,0,,38.7309965
8.9970773,karl Square,node/10755917246,0,,38.7302642
8.9927368,Bisrate Gebrael,node/10755917247,0,,38.7268512
8.9914228,Bisrate Gebrael,node/10755917248,0,,38.7255644
8.9888937,Bisrate Gebrael,node/10755917249,0,,38.7226976
8.9922875,Total 3 Kuter Mazoria,node/10755917250,0,,38.7175917
8.8967652,kality Meneharia,node/10766121857,0,,38.7708737
8.9319554,kality Maseltegna,node/10766121859,0,,38.7669453
8.9632423,Kadisco Roundabout,node/10766121860,0,,38.7668102
8.9816305,Bole Mickael,node/10766121861,0,,38.7761571
8.9966149,Bole Printing Press,node/10766121862,0,,38.7721247
9.0100526,Flamingo,node/10766121863,0,,38.7634141
9.0125659,St. Estifanos,node/10766121864,0,,38.7626278
9.035146,4 Kilo (Menlik),node/10766121865,0,,38.7629874
9.0352952,4 Kilo (Menlik),node/10766121866,0,,38.7631121
9.0214342,Place Parking (Gibi Gebriel),node/10766121867,0,,38.7641345
9.01014,Flamingo,node/10766121868,0,,38.7636218
8.9944147,Wollo Sefer,node/10766121869,0,,38.7743234
8.9812653,Bole Mikael,node/10766121871,0,,38.7761469
8.9737518,Mamo (Nifas Silk),node/10766121872,0,,38.765481
8.9321192,kality Maseltegna,node/10766121873,0,,38.7670877
8.8957067,kality Meneharia,node/10766121874,0,,38.7721261
9.0056744,Olympia,node/10766454593,0,,38.7674734
8.9867247,Bole Roundabout,node/10766454594,0,,38.7908923
8.965437,German Square,node/10768858714,0,,38.7341844
8.97192,Gofa Camp,node/10768858715,0,,38.7420458
9.003043,African Union,node/10768858718,0,,38.7411322
9.0296254,Autobis Tera,node/10768858719,0,,38.7370315
9.0026517,Guenet Hotel (Orbis),node/10768858720,0,,38.7470064
8.9651822,German Square,node/10768858723,0,,38.7340469
9.0239162,Lamberet Menaheria,node/10781643820,0,,38.8198728
9.0322896,Arat Kilo,node/10781643821,0,,38.7650098
9.0328365,4 kilo (Children Theatre),node/10781643822,0,,38.7666152
9.0325481,Bel Air,node/10781643823,0,,38.7736753
9.0344084,Kebena,node/10781643824,0,,38.7768069
9.0350794,Kokebe Tsebah (Kebena),node/10781643825,0,,38.7794124
9.0324942,Kenya Embassy (Kebena),node/10781643826,0,,38.7823515
9.0309005,British Embassy,node/10781643827,0,,38.785575
9.0289673,Abebe Sook,node/10781643828,0,,38.7888226
9.0251295,Shola (Yeka Court),node/10781643829,0,,38.7947497
9.0232585,Shola Abyssinia Bank,node/10781643830,0,,38.7984062
9.0224046,Megenagna (Marathon Motors),node/10781643831,0,,38.7997354
9.0208971,Megenagna,node/10781643832,0,,38.8010368
9.0208722,Megenagna (Israel Embassy),node/10781643833,0,,38.8048559
9.0240444,Lamberet Menaheria,node/10781643834,0,,38.8199227
9.0297042,Kotebe,node/10781643835,0,,38.836729
9.0304539,Kotebe,node/10781643836,0,,38.8385612
9.0348007,Kotebe Teachers College,node/10781643837,0,,38.8490303
9.0363204,Kotebe Gebriel,node/10781643838,0,,38.8553365
9.0358505,Kotebe Gebriel,node/10781643839,0,,38.8541265
9.032918,Wessen Grocery,node/10781643840,0,,38.8443436
9.0407203,Kara,node/10781643841,0,,38.8648947
9.0411416,Kara,node/10781643842,0,,38.8653607
9.0287927,Abebe Sook,node/10781844855,0,,38.788672
9.0313214,British Embassy,node/10781844856,0,,38.7843424
9.038677,5 Kilo St. Mary,node/10781844857,0,,38.7623866
9.0462129,6 Kilo University,node/10781844858,0,,38.7614003
9.0462072,6 Kilo University,node/10781844859,0,,38.7615945
9.0430896,6 Kilo (Lion Zoo),node/10781844860,0,,38.7615002
9.032679,Kenya Embassy (Kebena),node/10781844861,0,,38.7826601
9.0250431,Shola (Yeka Court),node/10781844862,0,,38.7953847
9.0225097,Megenagna (Marathon Motors),node/10781844863,0,,38.7998471
9.0381854,Yeka 03,node/10823916391,0,,38.8773834
8.931276,Sefera Atkilt Tera,node/10842065101,0,,38.7341685
8.9358559,kality Maseltegna,node/10842065103,0,,38.7646885
8.9948043,Bulgaria,node/10842065104,0,,38.7478806
8.9379429,Kality Customs,node/10842129005,0,,38.7628904
8.9644696,Germen Square,node/10842129006,0,,38.7330813
8.93579,Hana Mariam,node/10842129008,0,,38.7441345
8.9373819,Gomista,node/10842129009,0,,38.7703639
8.948706,Nigd bank,node/10842129010,0,,38.780123
8.9342123,kality Maseltegna,node/10842129011,0,,38.7642814
8.9310906,Kadisco,node/10842129012,0,,38.7585214
8.9582797,Adey abeba,node/10842129013,0,,38.7638648
8.9457865,Saris abo,node/10842129015,0,,38.7690665
8.93876,Haile Garment,node/10842129016,0,,38.7345583
8.9546992,Saris,node/10842129017,0,,38.7635479
8.9834477,Bole Cargo,node/10842129019,0,,38.7819099
8.9944221,Bulgaria,node/10842129020,0,,38.7483448
8.9482742,Kore,node/10842129021,0,,38.7765022
8.9444276,Saris Abo,node/10842129022,0,,38.7691994
8.8973782,Kality Menaheria,node/10842129023,0,,38.7704449
8.9254109,Sefera Square,node/10842129024,0,,38.7340982
9.009032,Mexico,node/10842129025,0,,38.7463895
8.9092945,Kality Gebriel,node/10842129026,0,,38.7644698
8.8869211,Derartu,node/10842129027,0,,38.7821218
8.9836884,Bole Cargo,node/10842129028,0,,38.7818039
8.8948904,Kality Total,node/10842129029,0,,38.7729402
8.9927142,Noc,node/10842129030,0,,38.748144
8.9901397,Lancha,node/10842129031,0,,38.7590821
8.9375158,Haile Garment,node/10842129032,0,,38.7359129
8.9880834,Agona,node/10842129033,0,,38.759633
8.9336783,kality Maseltegna,node/10842129034,0,,38.76464
8.9417644,Mesqelegna,node/10842129035,0,,38.7214531
8.9537651,Jemo,node/10842129037,0,,38.6979529
8.9577771,Adey abeba,node/10842129038,0,,38.7640443
8.9448318,Saris Abo,node/10842129040,0,,38.7661797
8.9457862,Mebrat hayle,node/10842129041,0,,38.7343973
8.9633984,Kadisco,node/10842129042,0,,38.7669226
8.9356798,Hana Mariam,node/10842129043,0,,38.7453864
8.9729895,Mamo (NFSL),node/10842129045,0,,38.7609585
8.9490785,Medhani alem,node/10842129046,0,,38.7785848
8.9047633,Mosque (Mesged),node/10842129047,0,,38.7660661
8.9093265,Kality Gebriel,node/10842129048,0,,38.7645559
8.9859342,Bole Roundabout,node/10842129051,0,,38.7888143
8.9295556,Wuhalimat,node/10842129052,0,,38.7681435
8.9361549,Hana Mariam,node/10842129053,0,,38.7445142
8.9797944,Bole Mickael,node/10842129054,0,,38.7719673
8.9192813,Sheger building,node/10842129055,0,,38.7635639
8.9705748,Yoseph,node/10842129056,0,,38.7668114
8.9947898,Bulgaria,node/10842129057,0,,38.7477478
8.9470316,Mebrathayil,node/10842129058,0,,38.7342346
8.9250202,Sefera Square,node/10842129059,0,,38.7346011
9.0000494,Tele Garage,node/10842129060,0,,38.758701
8.9469179,Mebrathayil,node/10842129061,0,,38.7339445
8.9376734,Haile garment,node/10842129062,0,,38.7335906
9.0058652,Meshualekia,node/10842129063,0,,38.758986
8.9571801,Adey abada,node/10842129066,0,,38.7640108
8.9755358,Menaheria (Zenebu Werk),node/10842129069,0,,38.706617
8.9602509,Adis sefer,node/10842129070,0,,38.767446
8.930883,Kadisco,node/10842129071,0,,38.758758
8.993831,Bulgaria,node/10842129072,0,,38.7478486
8.9661182,Kadisco,node/10842129073,0,,38.7627716
8.9517202,Bulbula,node/10842129074,0,,38.7861393
8.966096,Kadisko,node/10842129075,0,,38.7629867
8.9444437,Saris abo,node/10842129076,0,,38.7700795
8.8759809,Meshualekya,node/10842129077,0,,38.7875287
8.9871416,Agona,node/10842129078,0,,38.7597928
8.9771026,Gotera chaf,node/10842129079,0,,38.7595824
8.9528149,Saris,node/10842129080,0,,38.7633358
9.0106804,St. Joseph School,node/10842129082,0,,38.7593422
8.9321621,Kotari Condominium,node/10842129083,0,,38.7338312
8.9732793,Mamo,node/10842129084,0,,38.7652695
8.9448603,Saris Abo,node/10842129085,0,,38.7664084
8.9705442,Yosef,node/10842129086,0,,38.7665547
8.9068482,Kality Cheralia,node/10842129088,0,,38.7654586
8.9066965,Kality Cheralia,node/10842129089,0,,38.7653555
8.9906489,Lancha,node/10842129090,0,,38.7593009
8.9375024,Gomista,node/10842129091,0,,38.7701062
8.9375082,Haile Garment,node/10842129092,0,,38.7331196
9.0001174,Tele Garage,node/10842129093,0,,38.7584826
8.8840544,Selam Building,node/10842129094,0,,38.7767338
8.9453322,Medhani alem,node/10842129095,0,,38.7769101
8.8831855,Selam Building,node/10842129096,0,,38.7772259
8.8759552,Meshualekya,node/10842129097,0,,38.7872182
8.9531876,Saris,node/10842129098,0,,38.7635911
8.963723,Germen adebabay,node/10842129102,0,,38.7328242
8.972508,Mamo (NFSL),node/10842129103,0,,38.7607874
8.9875165,Kera,node/10842129105,0,,38.7486365
8.9867627,Agona,node/10842129106,0,,38.7599766
8.9446574,Saris abo,node/10842129107,0,,38.7701231
8.9860883,Kera,node/10842129108,0,,38.7483211
8.8790966,Gelan Condominium,node/10842129110,0,,38.7666013
8.9953066,Temenja yasi,node/10842129111,0,,38.7596133
9.0041803,Riche,node/10842129112,0,,38.7588933
8.9368154,Haile garment,node/10842129113,0,,38.7364242
8.9795749,Bole Mickael,node/10842129114,0,,38.7720906
8.9835322,Ayer Tena,node/10842129116,0,,38.6971287
8.9537239,Jemo,node/10842129117,0,,38.6977027
9.0052072,Land mark,node/10842129118,0,,38.7467544
8.9411484,Meskelegna,node/10842129119,0,,38.7218311
8.9381771,Haile Garment,node/10842129120,0,,38.7349153
9.0040548,Riche,node/10842129121,0,,38.7586909
8.9476648,Kore,node/10842129122,0,,38.7841911
8.8770606,Meshualekya,node/10842129124,0,,38.7866845
8.9518942,Bulbula,node/10842129125,0,,38.7863461
8.9357353,kality Maseltegna,node/10842129126,0,,38.7643342
8.9457601,Saris abo,node/10842129129,0,,38.7692278
8.9603252,Addis sefer,node/10842129131,0,,38.7676873
8.9352291,Hana mariam,node/10842129132,0,,38.744852
8.9866879,Kera,node/10842129133,0,,38.7484325
8.9757898,Gotera chaf,node/10842129134,0,,38.7601404
8.8972852,Akaki Subcity Office (Menaheria),node/10842129135,0,,38.770318
8.9411922,Condominium,node/10842129136,0,,38.7717099
8.8789992,Gelan Condominium,node/10842129137,0,,38.7666701
8.9295931,Wuhalimat,node/10842129139,0,,38.7683276
9.0098761,Mexico,node/10842129140,0,,38.7461882
9.0312472,Grand Anwar Mosque,node/10845731573,0,,38.7413343
9.0247282,Kebele 11,node/10845731574,0,,38.7457773
9.0028738,Guenet hotel,node/10845731575,0,,38.7468651
8.9923344,Lancia,node/10845731576,0,,38.7589891
8.9825134,Pepsi,node/10845731577,0,,38.755826
8.9919399,Lancia,node/10845731578,0,,38.7591215
9.0279893,Tekle Haimanot,node/10845731579,0,,38.7438378
8.9441872,Saris Abo,node/10845731580,0,,38.7666459
9.0120319,Legehar,node/10845731581,0,,38.7544517
8.9841589,Kera,node/10845731582,0,,38.7522272
8.9380577,Kality Customs,node/10845731583,0,,38.7631799
9.0342603,Gojam Berenda,node/10845731584,0,,38.7378007
9.0343553,Gojam Berenda,node/10845731585,0,,38.7381021
8.8868675,Derartu,node/10845731586,0,,38.7818631
8.9824223,Pepsi,node/10845731587,0,,38.7557408
8.9943898,Global Hotel,node/10845731588,0,,38.7596457
8.9208636,Sheger Building,node/10845731589,0,,38.7637542
9.0343246,Autobus Tera,node/10845731590,0,,38.734431
9.0027786,Guenet hotel,node/10845731591,0,,38.7469738
9.0279685,Tekle Haimanot,node/10845731592,0,,38.7439714
8.9970419,Beg Tera,node/10845731593,0,,38.7476261
8.9943499,Global Hotel,node/10845731594,0,,38.7598651
8.9223845,Kality Correctional,node/10845731595,0,,38.7641252
8.9029367,Cheralia Factory,node/10845731596,0,,38.7667306
9.0246149,Kebele 11,node/10845731597,0,,38.7457421
9.0310422,Grand Anwar Mosque,node/10845731598,0,,38.7414003
9.0165472,National Theatre,node/10845731599,0,,38.7526758
8.9214902,Sheger Building,node/10845731600,0,,38.7639368
8.95346,Saris,node/10845731601,0,,38.767986
8.9968163,Beg Tera,node/10845731602,0,,38.7475303
9.014753,Sengatera,node/10845731603,0,,38.7468099
9.0096228,Mexico,node/10845731604,0,,38.746301
8.9937615,Bulgaria,node/10845749005,0,,38.7479845
8.8956285,kality Meneharia,node/10845840895,0,,38.7720203
8.9841176,Ayer Tena,node/10845840896,0,,38.6966894
8.9637758,Germen adebabay,node/10845840897,0,,38.7330269
8.8948231,Kality Total,node/10846106471,0,,38.7728316
8.9869946,Bole Bridge,node/10881147490,0,,38.7912092
8.9867302,Bole Bridge,node/10881147492,0,,38.7903563
9.0341009,Autobus Tera,node/10883106542,0,,38.7338003
8.907041,Bajaj Tera,node/10886135782,0,,38.7415025
8.904156,Chera,node/10886135783,0,,38.7479978
8.8772921,Gelan Condominium,node/10886135784,0,,38.7622377
8.8549158,Total,node/10886135785,0,,38.7845626
8.8737817,Tulu Dimtu,node/10886135787,0,,38.8197795
8.8738791,Tulu Dimtu,node/10886135789,0,,38.8202354
8.8709574,G7,node/10886135790,0,,38.820802
8.8541896,Total,node/10886135791,0,,38.7847209
8.8758233,Gelan Condominium,node/10886135793,0,,38.7630121
8.9906055,Bole Bridge,node/10886281950,0,,38.7928534
8.9955183,Bole Medhanyalem,node/10886281951,0,,38.7887705
8.9973425,Edna Mall Squar,node/10886281952,0,,38.7870108
9.0043569,Adey Ababa Stadium,node/10886281953,0,,38.7892817
9.0150262,22 Mazoria,node/10886281954,0,,38.7872566
9.0150056,22 Mazoria,node/10886281956,0,,38.787438
9.0082739,Freedom,node/10886281958,0,,38.7887083
9.0069454,Werku Building,node/10886281997,0,,38.7890587
9.0042976,Adey Ababa Stadium,node/10886281998,0,,38.7893444
8.9977034,Edna Mall Squar,node/10886281999,0,,38.7869491
8.995948,Bole Medhanyalem,node/10886282000,0,,38.7885714
8.9906936,Bole Bridge,node/10886282001,0,,38.7929596
9.0161537,22 Mazoria,node/10886427067,0,,38.7881236
9.017758,Lem Hotel,node/10886427068,0,,38.7950715
9.0198841,Megenagna,node/10886427069,0,,38.8019786
9.0191878,Gurd Shola,node/10886427070,0,,38.8200261
9.0218654,Civil Servis College,node/10886427071,0,,38.8345374
9.0209806,Yetebaberut,node/10886427072,0,,38.8536095
9.0214852,Ayat,node/10886427073,0,,38.8750186
9.0215577,Civil Servis College,node/10886427074,0,,38.8350083
9.0211711,Ayat,node/10886427075,0,,38.8737977
9.0204163,Meshageria,node/10886427076,0,,38.8598848
9.020619,Yetebaberut,node/10886427077,0,,38.8535182
8.9907378,Bole Bora Amusement,node/10886883544,0,,38.7941243
9.0185543,Megenagna,node/10886883546,0,,38.8016982
9.0078296,Anbessa Garage,node/10886883547,0,,38.8034449
9.0037737,Emperial Hotel,node/10886883548,0,,38.8009392
8.9950343,Hayat Hospital,node/10886883549,0,,38.7961015
8.9916604,Bole Bora Amusement,node/10886883550,0,,38.7949793
9.0220177,Sun shine,node/10886991025,0,,38.853022
9.0200202,Megenagna,node/10886991026,0,,38.8042842
9.021578,Meshualekia,node/10886991027,0,,38.841553
9.0110042,Safari,node/10886991028,0,,38.8522797
9.004015,Summit,node/10886991029,0,,38.8519977
9.004282,Summit,node/10886991031,0,,38.8517386
9.010941,Safari,node/10886991032,0,,38.8519018
9.0199154,Sun shine,node/10886991033,0,,38.8520834
9.021324,Meshualekia,node/10886991034,0,,38.8415391
9.021353,Michael,node/10886991035,0,,38.8392942
9.0187135,Gurd Shola,node/10886991036,0,,38.8211275
8.9948468,Hayat Hospital,node/10887120325,0,,38.7956759
9.0001969,Sport Accadamy,node/10887120326,0,,38.798384
9.0027661,Emperial Hotel,node/10887120327,0,,38.8000262
9.0187177,Mulugeta Building,node/10887120328,0,,38.8016319
8.9603848,93 Mazoria,node/10890083966,0,,38.7855121
8.9623057,Kaldisco,node/10890083967,0,,38.7863684
8.9642046,Key Afer,node/10890083968,0,,38.7872114
8.9901774,Bole Bridge,node/10890083969,0,,38.7938035
9.0169433,Mulugeta Building,node/10890083974,0,,38.8025239
8.9642211,Key Afer,node/10890290096,0,,38.7873203
8.9604784,93 Mazoria,node/10890290097,0,,38.785703
8.9581348,Kebele,node/10890290098,0,,38.7875752
9.0080412,Anbessa Garage,node/10893030388,0,,38.8031745
9.0035488,Jacros,node/10893030389,0,,38.8169267
8.9993201,Alem Ayew Building,node/10893030390,0,,38.8210973
8.9923039,Goro,node/10893030392,0,,38.8283586
8.9917123,Goro,node/10893030394,0,,38.8287738
8.9939213,Goro School,node/10893030395,0,,38.8266397
8.9992455,Alem Ayew Building,node/10893030396,0,,38.8210064
9.0035377,Jacros,node/10893030397,0,,38.8166485
8.9999982,Sport Accadamy,node/10893030398,0,,38.7986195
8.9911487,Bole Bridge,node/10893030400,0,,38.7947324
9.0122741,Figa,node/10893316186,0,,38.8336594
9.0110639,Mesgid,node/10893316189,0,,38.8366122
9.0121764,Figa,node/10893316190,0,,38.8335762
8.984658,Bole Mickael,node/10898980600,0,,38.7731313
9.0162838,Ambasader,node/10898980601,0,,38.7551282
9.0069448,Dembel,node/10898980602,0,,38.7662663
9.0123922,Stadium,node/10898980603,0,,38.7586647
9.0192676,Metrology,node/10898980604,0,,38.7466456
9.0217285,Tikur Anbesa,node/10898986005,0,,38.7476072
9.0207753,Tikur Anbesa,node/10898986007,0,,38.7476005
9.0188878,Metrology,node/10898986008,0,,38.7467207
9.0164136,Ambasader,node/10898986009,0,,38.7553118
9.011485,Stadium,node/10898986010,0,,38.760062
9.0038396,Dembel,node/10898986011,0,,38.7686303
8.9979213,Bole Printing Press,node/10898986012,0,,38.7717243
8.9849144,Bole Mickael,node/10898986014,0,,38.7734946
9.0318094,Cinema Ras,node/10899009892,0,,38.7413697
9.0317766,Cinema Ras,node/10899009893,0,,38.7414723
8.992509,Rwanda,node/10899150564,0,,38.7781683
9.0017627,Shewa Dabo,node/10899150565,0,,38.7693116
9.0120704,St. Estifanos Church,node/10899150566,0,,38.7626611
9.0321752,Piassa Arada,node/10899150567,0,,38.7511048
9.0330229,Piassa Arada,node/10899150568,0,,38.7525581
9.0264157,Tewodros Square,node/10899150569,0,,38.7517894
9.0210948,Tikur Anbesa,node/10899150570,0,,38.7522625
9.019064,Post Office,node/10899150571,0,,38.7529153
9.0138467,Ghion Hotel,node/10899150572,0,,38.7576138
8.9885561,Bole Bridge,node/10899278324,0,,38.7897689
8.9908062,Friendship Building,node/10899278325,0,,38.7840796
8.9923825,Rwanda,node/10899278326,0,,38.7798445
8.9908613,Friendship Building,node/10899278327,0,,38.7844715
8.9887169,Bole Bridge,node/10899278328,0,,38.7898626
9.0084115,Anbessa Garage,node/10899524535,0,,38.8038533
9.0049309,Condominium - Gerji Mebrat hayle,node/10899524536,0,,38.8100683
9.0036683,Gerji Mebrat hayle,node/10899524537,0,,38.814209
8.9913434,Goro,node/10899524538,0,,38.8294024
8.900477,kilinto Right,node/10899524539,0,,38.815561
8.8753804,Tulu Dimtu,node/10899524540,0,,38.8197368
8.900461,kilinto Right,node/10899524542,0,,38.8150743
8.9912832,Goro,node/10899524543,0,,38.8292469
9.0035919,Gerji Mebrat hayle,node/10899524544,0,,38.8134376
9.0050654,Condominium - Gerji Mebrat hayle,node/10899524545,0,,38.8095948
9.0071868,Anbessa Garage,node/10899524547,0,,38.8055809
9.011198,Mesgid,node/10899590290,0,,38.8364067
8.994461,Saint Georgis,node/10899590291,0,,38.8518486
8.994389,Saint Georgis,node/10899590293,0,,38.8515329
8.9493529,Mebrathile,node/10899652823,0,,38.7332958
8.9556186,Gebriel Bridge,node/10899652824,0,,38.7324445
8.965384,Mickael Bridge,node/10899652825,0,,38.7273491
8.9727473,Zenebewerk,node/10899652826,0,,38.7121031
8.975714,Chaina Camp,node/10899652827,0,,38.7055213
8.981635,Ayer Tena,node/10899652829,0,,38.6982059
8.9385233,Haile Garment,node/10901428140,0,,38.7348966
8.9201595,Sefera,node/10901428141,0,,38.7353205
8.9311784,Sefera Atkilt Tera,node/10901428142,0,,38.7337094
8.9208099,Sefera,node/10901428143,0,,38.734667
8.8870433,Mesalemia,node/10901522017,0,,38.7519617
8.9032086,Chera Medhanilem,node/10901522018,0,,38.7484085
8.935726,Haile Garment,node/10901522020,0,,38.7346387
8.9034769,Chera Medhanilem,node/10901522021,0,,38.7491293
8.8871115,Mesalemia,node/10901522022,0,,38.7524365
8.9530332,Saris,node/10901643508,0,,38.7629397
8.9431476,58 Mazoria,node/10901643510,0,,38.7540078
8.9405222,Kidane Mihret Stebel,node/10901643511,0,,38.7500946
9.0084289,Mexico,node/10902267327,0,,38.7447143
9.0084377,Mexico,node/10902267330,0,,38.7448728
8.9990666,AU (Mikael) Rounrdabout,node/10902267332,0,,38.7393711
8.9990162,AU (Mikael) Rounrdabout,node/10902267333,0,,38.7395668
8.9923567,Sar Bet,node/10902267334,0,,38.7381301
8.9923453,Sar Bet,node/10902267335,0,,38.7383324
8.9822679,Abo Mazoria,node/10902267336,0,,38.7342938
8.9823292,Abo Mazoria,node/10902267337,0,,38.7344209
8.9729293,Mekanisa,node/10902267338,0,,38.7311351
8.9728812,Mekanisa,node/10902267339,0,,38.7312498
8.9555964,Gebriel Bridge,node/10902267340,0,,38.732719
8.9432326,58 Mazoria,node/10903393900,0,,38.7539257
8.9487486,Varnelo Squer,node/10903398373,0,,38.7267004
8.9594798,Jemmo 1,node/10903398374,0,,38.7117668
8.9585188,Jemmo 1,node/10903398375,0,,38.712128
8.9524535,Jemmo Medhanialem,node/10903398376,0,,38.7161087
8.9525568,Jemmo Medhanialem,node/10903398377,0,,38.7162235
8.9490672,Kebele,node/10903398378,0,,38.7221583
8.9491872,Kebele,node/10903398379,0,,38.7221797
8.9488837,Varnelo Squer,node/10903398380,0,,38.7267159
8.9951163,Sar Bet,node/10904734315,0,,38.7373285
8.9936468,Austria Embassy,node/10904734316,0,,38.7276618
8.9922476,Total 3 Kuter Mazoria,node/10904734318,0,,38.7177291
9.0330017,Autobus Tera,node/10905160356,0,,38.7322404
9.033026,Autobus Tera,node/10905160357,0,,38.7323851
9.0282768,Sebategna,node/10905160358,0,,38.7329553
9.0283274,Sebategna,node/10905160359,0,,38.7331326
9.021201,Abenet,node/10905160360,0,,38.7333187
9.0196344,Abenet,node/10905160361,0,,38.7335682
9.0158211,Darmar,node/10905160362,0,,38.7346366
9.0154497,Darmar,node/10905160363,0,,38.7347971
9.0133778,Lideta Condominium,node/10905160364,0,,38.7343382
9.0133623,Lideta Condominium,node/10905160365,0,,38.7345056
9.0094187,Dessie Hotel,node/10905160366,0,,38.7337879
9.0093029,Dessie Hotel,node/10905160367,0,,38.7339331
9.0046165,Lideta,node/10905160368,0,,38.7337058
9.0041332,Lideta,node/10905160369,0,,38.7338158
9.0001611,AU (Mikael) Rounrdabout,node/10905160370,0,,38.7393722
8.9999889,AU (Mikael) Rounrdabout,node/10905160371,0,,38.7400667
8.9839514,Kera,node/10905641592,0,,38.7518897
8.9606229,Jemmo 1,node/10905771998,0,,38.7123799
8.9688439,Jemmo Mickael,node/10905771999,0,,38.7216431
9.0192423,Metrology,node/10905772000,0,,38.7468034
8.9969985,karl Square,node/10905772001,0,,38.7304143
8.9883364,Bisrate Gebrael,node/10905772002,0,,38.7227062
8.9687533,Jemmo Mickael,node/10905772003,0,,38.7218663
8.9604031,Jemmo 1,node/10905772004,0,,38.7124299
8.9493317,Noc,node/10905866700,0,,38.6701812
8.9339514,Alem Gena,node/10905876026,0,,38.6639521
8.933851,Alem Gena,node/10905876027,0,,38.6640124
8.9493415,Noc,node/10905876029,0,,38.670031
8.9538566,Jemmo 3 Squer,node/10905876030,0,,38.6965362
8.9552123,Jemmo 3 Squer,node/10905876031,0,,38.697557
9.0220649,Post Office,node/10905982178,0,,38.7520387
8.9652918,Germen Square,node/10905982179,0,,38.732839
8.9664306,Germen Square,node/10905982180,0,,38.7325545
8.9717027,Gofa,node/10906020778,0,,38.7418952
8.9716231,Gofa,node/10906020779,0,,38.7419996
8.9816221,Ayer Tena,node/10906074341,0,,38.6979766
8.9644965,Germen Square,node/10906074342,0,,38.7320917
8.9646595,Germen Square,node/10906074343,0,,38.732112
8.9883638,Mesked,node/10907679395,0,,38.6922765
8.9913917,Kidane Mihret,node/10907679396,0,,38.6893136
8.9958978,Tropical,node/10907679398,0,,38.683541
9.0003808,Alem Bank,node/10907679399,0,,38.677926
9.0010321,Alem Bank,node/10907679400,0,,38.6776565
8.9957016,Tropical,node/10907679401,0,,38.6841485
8.9915373,Kidane Mihret,node/10907679402,0,,38.689491
8.9884696,Mesked,node/10907679403,0,,38.6925125
8.9757717,Chaina Camp,node/10907679404,0,,38.7060819
8.9730472,Zenebewerk,node/10907725405,0,,38.7121867
8.9655559,Mickael Bridge,node/10907725406,0,,38.7275949
8.9648278,Germen Square,node/10907781477,0,,38.7333383
8.9844811,Kera,node/10907781478,0,,38.7500865
8.9842955,Kera,node/10907781479,0,,38.750364
8.9770976,Gofa Gebriel,node/10907781480,0,,38.7490157
8.9770919,Gofa Gebriel,node/10907781481,0,,38.7491174
8.9832814,Mekanisa Abo,node/10908143594,0,,38.7343726
8.9830621,Mekanisa Abo,node/10908143595,0,,38.7341531
9.0088673,Mexico,node/10908143596,0,,38.7440188
9.0088181,Mexico,node/10908143597,0,,38.7438
9.0263912,Tewodros Square,node/10908191497,0,,38.7516402
8.9739466,Mekanisa,node/10908191498,0,,38.7321651
8.9738507,Mekanisa,node/10908191499,0,,38.7322539
9.0187971,Post Office,node/10908191500,0,,38.7524753
8.9493572,Mebrathile,node/10908661149,0,,38.7334477
9.0159317,Coca Cola,node/10909186645,0,,38.729496
9.0294352,Merab Hotel,node/10909186646,0,,38.735361
9.0213907,Abenet,node/10909186647,0,,38.7334955
9.0293588,Merab Hotel,node/10909186648,0,,38.7353749
9.016555,Kolfe Keranyo,node/10909186649,0,,38.7180312
9.0203575,Holand,node/10909186650,0,,38.7159578
9.0204824,Holand,node/10909186651,0,,38.7162551
9.017036,Kolfe Keranyo,node/10909186652,0,,38.7176312
9.0171583,Kolfe Keranyo,node/10909186653,0,,38.7179346
9.0122446,Torhayloch,node/10909186654,0,,38.7202541
9.0120497,Torhayloch,node/10909186655,0,,38.7202419
9.0134653,Keranio Mewcha,node/10909186657,0,,38.7097752
9.0133225,Keranio Mewcha,node/10909186658,0,,38.7097861
9.0140592,Mewcha,node/10909186659,0,,38.7049946
9.0139288,Mewcha,node/10909186660,0,,38.7050058
9.0153205,Mendida,node/10909186661,0,,38.6994498
9.0151509,Mendida,node/10909186662,0,,38.6995858
9.0037697,Betel,node/10909186663,0,,38.6937692
9.0036921,Betel,node/10909186664,0,,38.6937746
9.0017481,Alem Bank,node/10909186665,0,,38.6775777
9.0016995,Alem Bank,node/10909186666,0,,38.677633
8.9868549,Zenebewerk,node/10911198617,0,,38.7080844
8.9867824,Zenebewerk,node/10911198618,0,,38.7081829
8.9838366,Ayer Tena,node/10911198619,0,,38.6961361
9.0114518,Mexico Shebelle Hotel,node/10911242345,0,,38.7446969
9.0114526,Mexico Shebelle Hotel,node/10911242346,0,,38.7445773
9.0117415,Lideta,node/10911242347,0,,38.7336365
9.0115482,Lideta,node/10911242348,0,,38.7336469
9.001869,Alem Bank,node/10911242349,0,,38.6772002
9.0018954,Alem Bank,node/10911242350,0,,38.6769434
8.9834957,Ayer Tena,node/10911695404,0,,38.7007283
9.0044227,Betel,node/10911717876,0,,38.6943792
9.0043939,Betel,node/10911717877,0,,38.6942024
8.9831049,Ayer Tena,node/10911725505,0,,38.6982237
8.9879977,Zenebewerk,node/10912835918,0,,38.7080303
8.9880219,Zenebewerk,node/10912835920,0,,38.7079594
9.0295143,Mebrat Haile,node/10913852032,0,,38.714679
9.0294826,Mebrat Haile,node/10913852033,0,,38.7149385
9.0334554,18 Mazoria,node/10913852034,0,,38.7146172
9.0334598,18 Mazoria,node/10913852035,0,,38.714468
9.0196268,Abenet,node/10913863174,0,,38.7327435
9.0194053,Abenet,node/10913863175,0,,38.7327231
9.0159095,Coca Cola,node/10913863176,0,,38.7296372
9.0117875,Torhayloch,node/10913863177,0,,38.7222401
9.0096837,Torhayloch,node/10913863178,0,,38.7208808
9.0056583,Augusta Bridge,node/10913863179,0,,38.7185634
9.0055925,Augusta Bridge,node/10913863180,0,,38.7188581
9.0000925,Old Airport,node/10913863181,0,,38.7188599
8.9998426,Old Airport,node/10913863182,0,,38.7191188
8.9932525,3 Kutir Mazoriya (Total),node/10913863183,0,,38.7170227
8.9926315,3 Kutir Mazoriya (Total),node/10913863184,0,,38.7158494
8.9756363,Kara Kore,node/10913974717,0,,38.6817486
8.9754096,Kara Kore,node/10913974718,0,,38.6814462
8.9813701,Gerar,node/10913974719,0,,38.6894126
8.9813486,Gerar,node/10913974720,0,,38.6894421
8.9829716,Ayer Tena,node/10913974721,0,,38.6982009
9.0116587,Mexico,node/10914160973,0,,38.746198
9.0102476,Mexico,node/10914160974,0,,38.7438026
8.987734,Zenebewerk,node/10914160976,0,,38.708928
8.9849086,Zenebewerk,node/10914160977,0,,38.7049751
8.9853381,Zenebewerk Meneharia,node/10914680945,0,,38.7053463
8.9852574,Zenebewerk Meneharia,node/10914680946,0,,38.7056363
9.0417169,Atena Tera,node/10914784456,0,,38.71237
9.0414427,Atena Tera,node/10914784457,0,,38.7127192
9.028352,Tekle Haimanot,node/10915613002,0,,38.7426711
9.0281855,Tekle Haimanot,node/10915613003,0,,38.742622
9.0658063,Asko,node/10915905485,0,,38.6937551
9.065919,Asko,node/10915905486,0,,38.6937141
9.0612502,Chereta,node/10915905487,0,,38.7010467
9.0612523,Chereta,node/10915905488,0,,38.7011727
9.0575666,Gulele Fana,node/10915905489,0,,38.7069671
9.0576638,Gulele Fana,node/10915905490,0,,38.7070447
9.0572628,Awolia,node/10915905491,0,,38.7114229
9.0576104,Awolia,node/10915905492,0,,38.7116493
9.0555179,Winget,node/10915905493,0,,38.7124522
9.0554488,Winget,node/10915905494,0,,38.7127252
9.018116,Kokebe,node/10918141989,0,,38.6993091
9.0178995,Kokebe,node/10918141990,0,,38.6991634
9.0188526,Yeshi Debele,node/10918141991,0,,38.6969603
9.0185806,Yeshi Debele,node/10918141992,0,,38.6972043
9.0177704,Keranio Adebabay,node/10918141993,0,,38.7017975
9.0176839,Keranio Adebabay,node/10918141994,0,,38.7006617
9.0178222,Medhanalem,node/10918141995,0,,38.7049143
9.0175512,Medhanalem,node/10918141996,0,,38.7047128
9.0115804,Torhayloch,node/10918245686,0,,38.7208703
9.0099639,Torhayloch,node/10918245687,0,,38.720685
9.0114229,Torhayloch,node/10918314820,0,,38.7225031
9.0128836,Torhayloch,node/10918339958,0,,38.7206095
9.0118511,Legehar,node/10922141942,0,,38.7544283
9.0691686,Zebera,node/10923884107,0,,38.7174162
9.0630022,Addisu Gebeya,node/10923884109,0,,38.7350114
9.0625854,Addisu Gebeya,node/10923884110,0,,38.7352489
9.0670589,Bera Tera,node/10923884111,0,,38.725597
9.0689759,Zebera,node/10923884112,0,,38.7174444
9.0594889,Addisu Gebeya,node/10923941250,0,,38.7374564
9.059208,Addisu Gebeya,node/10923941251,0,,38.7379019
9.0528165,Semen Mazegaga,node/10923941252,0,,38.7431266
9.0528691,Semen Mazegaga,node/10923941253,0,,38.7432318
9.0483987,Shola,node/10923941254,0,,38.7461562
9.0484505,Shola,node/10923941255,0,,38.7462522
9.0446634,Semen Hotel,node/10923941256,0,,38.7483104
9.0446029,Semen Hotel,node/10923941257,0,,38.7485012
9.0425995,Yohanes,node/10923941258,0,,38.745274
9.0425158,Yohanes,node/10923941259,0,,38.7453414
9.0346843,Eritrea Hotel,node/10923941260,0,,38.7394065
9.0347991,Eritrea Hotel,node/10923941261,0,,38.7393526
9.0552727,Medhanalem,node/10924087993,0,,38.7517928
9.0552441,Medhanalem,node/10924087994,0,,38.7518851
9.0520868,Chelote,node/10924087995,0,,38.7497489
9.0521299,Chelote,node/10924087996,0,,38.7496604
9.0479898,Shola,node/10924087997,0,,38.746423
9.0480732,Shola,node/10924087998,0,,38.7465175
9.0385287,St. George Church,node/10924088002,0,,38.7516855
9.0385651,St. George Church,node/10924088003,0,,38.7518109
9.0365922,Piassa,node/10924088004,0,,38.7521881
9.0341764,Piassa,node/10924116805,0,,38.7533491
9.0650022,Kechenie,node/10924116806,0,,38.7492165
9.0652677,Kechenie,node/10924116808,0,,38.7497807
9.0639755,Shegole,node/10924211089,0,,38.7268465
9.0640548,Shegole,node/10924211090,0,,38.7269586
9.0590346,Rufael,node/10924211093,0,,38.7274953
9.0590438,Rufael,node/10924211094,0,,38.7274376
9.0544658,Tureta Deldy,node/10924211095,0,,38.7329754
9.054531,Tureta Deldy,node/10924211096,0,,38.7330307
9.0492619,Enqulal Fabrica,node/10924211097,0,,38.7377403
9.0492678,Enqulal Fabrica,node/10924211098,0,,38.7378298
9.0444679,Ras Desta,node/10924212637,0,,38.7440337
9.0444022,Ras Desta,node/10924212638,0,,38.7439161
9.0375917,Sebara Babur,node/10924212640,0,,38.7483682
9.0358617,Abune Petros,node/10924212641,0,,38.749271
9.0359205,Abune Petros,node/10924212642,0,,38.7494119
9.04258,Yohanes,node/10924212643,0,,38.7458165
9.0426863,Yohanes,node/10924212644,0,,38.7459326
9.0230837,Shola Abyssinia Bank,node/10924342466,0,,38.79823
9.0307347,British Embassy,node/10924342467,0,,38.7854804
9.0385889,Menelik II Hospital,node/10924342468,0,,38.7730468
9.0385052,Menlik Hospital,node/10924342469,0,,38.7728666
9.0437871,6 Kilo,node/10924342470,0,,38.761858
9.0453786,6 Kilo,node/10924342471,0,,38.7613161
9.0352542,Piassa,node/10924981547,0,,38.7527884
9.0168504,Kazanchis,node/10924981836,0,,38.7714084
9.0167816,Kazanchis,node/10924981837,0,,38.7712817
9.0199981,Meneharya,node/10924981839,0,,38.767286
9.0462061,6 Kilo,node/10924981840,0,,38.7614317
9.046202,6 Kilo,node/10924981841,0,,38.7615616
9.0430636,6 Kilo (Lion Zoo),node/10925096455,0,,38.7613028
9.0509212,Medhanalem,node/10925096457,0,,38.7621679
9.0609308,Shiromeda,node/10925096458,0,,38.7616364
9.0610296,Shiromeda,node/10925096459,0,,38.7618074
9.0350989,Abune Petros,node/10925161777,0,,38.7493321
9.0353615,Abune Petros,node/10925161778,0,,38.7492809
9.0385895,St. George Total,node/10925161780,0,,38.7526253
9.0338335,Raguel Church,node/10925161781,0,,38.7411822
9.0340374,Raguel Church,node/10925161782,0,,38.7413278
9.0352768,Piassa,node/10925161783,0,,38.7491307
9.0350881,Piassa,node/10925161784,0,,38.749266
9.0115722,Mexico,node/10925195639,0,,38.7462619
9.0572967,Winget,node/10925695034,0,,38.7130281
9.0576478,Winget,node/10925695035,0,,38.7136024
9.0630668,Shegole,node/10925835130,0,,38.7201372
9.0630578,Shegole,node/10925835131,0,,38.7201639
9.051016,Medhanalem,node/10925835153,0,,38.7226821
9.0512021,Medhanalem,node/10925835154,0,,38.7228048
9.047368,Pawlos Hospital,node/10925835155,0,,38.7275912
9.0474739,Pawlos Hospital,node/10925835156,0,,38.7277025
9.0462435,Pastor,node/10925835157,0,,38.7306013
9.0460773,Pastor,node/10925835158,0,,38.7305979
9.041653,Michael,node/10925835159,0,,38.7324674
9.0418749,Michael,node/10925835160,0,,38.732621
9.0356953,Autobus Tera,node/10925835161,0,,38.731876
9.0357033,Autobus Tera,node/10925835162,0,,38.731937
8.9844426,Summit Condominiums,node/10925946103,0,,38.8548285
8.9909634,Summit Condominiums,node/10925946104,0,,38.8525995
9.0206981,Meshageria,node/10925966505,0,,38.8598883
9.0212039,Derartu Adebabay,node/10925966506,0,,38.8751635
9.0215357,Derartu Adebabay,node/10925966507,0,,38.8751433
9.0403679,Gebreal,node/10925966508,0,,38.8773377
9.0402783,Gebreal,node/10925966509,0,,38.8778174
9.0556843,Aba Kiros,node/10925966510,0,,38.8778648
9.0561259,Aba Kiros,node/10925966511,0,,38.8785325
8.9732139,Bole Arabsa,node/10926028111,0,,38.8903446
8.9726305,Bole Arabsa,node/10926028112,0,,38.8904415
8.9932453,Maseltegna,node/10926028113,0,,38.8850892
8.9932023,Maseltegna,node/10926028114,0,,38.8854551
9.0100814,Sun shine,node/10926028115,0,,38.8780839
9.0100956,Sun shine,node/10926028116,0,,38.8779385
9.0215285,Ayat,node/10926028117,0,,38.8770142
8.9875932,Mariam,node/10926040103,0,,38.8848989
8.9875847,Mariam,node/10926040104,0,,38.8852531
9.0212341,Ayat,node/10926074605,0,,38.8767405
8.9910294,Summit Condominiums,node/10926094674,0,,38.8529201
9.0195894,Megenagna,node/10926094675,0,,38.8033659
9.0203394,Megenagna,node/10926817920,0,,38.8038784
9.057063,Tafo Square,node/10926817921,0,,38.8779123
9.0566681,Tafo Square,node/10926817922,0,,38.8780073
9.0021737,Sun shine,node/10926849848,0,,38.8763861
9.0011674,Summit Chafe,node/10926849849,0,,38.8537813
9.0015569,Summit Chafe,node/10926849850,0,,38.8537842
8.9918731,Goro,node/10926849851,0,,38.8299549
8.9917194,Goro,node/10926849852,0,,38.8303813
9.0194791,Se'alite Mihret,node/10926896755,0,,38.8256621
9.0198404,Se'alite Mihret,node/10926896756,0,,38.8254269
9.0109362,Ayat Chefe Condominium,node/10926896757,0,,38.8944977
9.0113892,Ayat Chefe Condominium,node/10926896758,0,,38.8946434
9.0207778,Ayat,node/10928177661,0,,38.8758009
8.9846036,Summit Condominiums,node/10928876312,0,,38.854445
8.9844416,Summit Condominiums,node/10928876313,0,,38.8548242
9.0273248,Tewodros Square,node/10929299420,0,,38.751565
9.0273553,Tewodros Square,node/10929299421,0,,38.7517149
9.0209798,Tikur Anbesa,node/10929299422,0,,38.7480915
9.0105347,Mexico,node/10929337801,0,,38.7449001
9.0119557,Stadium,node/10929337802,0,,38.7559408
9.0121328,Stadium,node/10929337803,0,,38.7559437
9.0195364,Megenagna,node/10929412718,0,,38.8009614
9.0190569,Megenagna,node/10929412719,0,,38.8005907
9.0155693,22 Mazoria,node/10929412721,0,,38.787267
9.0211986,Lem Hotel,node/10929694820,0,,38.7940688
9.0210828,Lem Hotel,node/10929694821,0,,38.7939939
9.0235014,Signal,node/10929694822,0,,38.7815067
9.0233755,Signal,node/10929694823,0,,38.781471
9.0280712,Abuare Gebeya,node/10929694824,0,,38.7718347
9.0279894,Abuare Gebeya,node/10929694825,0,,38.7718123
9.0270034,Tewodros Square,node/10929694826,0,,38.7520638
9.0268625,Tewodros Square,node/10929694827,0,,38.7520149
9.0285216,Tekle Haimanot,node/10929694828,0,,38.744541
9.0284531,Tekle Haimanot,node/10929694829,0,,38.74454
9.020064,Megenagna,node/10929694830,0,,38.8009431
9.0200336,Megenagna,node/10929694831,0,,38.8005994
9.0127448,Torhayloch,node/10929752934,0,,38.7209032
9.0225048,Megenagna,node/10931788261,0,,38.7998465
9.021325,Megenagna,node/10931788262,0,,38.8010821
9.0303308,Kotebe,node/10931809323,0,,38.8385778
9.0284671,Se'alite Mihret,node/10931809324,0,,38.8331547
9.0283689,Se'alite Mihret,node/10931809325,0,,38.833187
9.0216042,Lamberet,node/10931809326,0,,38.8139293
9.0214909,Lamberet,node/10931809327,0,,38.813953
9.0404534,Kara,node/10931809328,0,,38.8642169
9.0404001,Kara,node/10931809329,0,,38.864319
9.0216983,Megenagna,node/10931809330,0,,38.8015712
9.0224128,Megenagna,node/10931850027,0,,38.799743
9.0344299,Kokebe Tsebah (Kebena),node/10931850028,0,,38.7799581
9.036142,4 Kilo,node/10931884718,0,,38.7628341
9.0571169,Ferensay,node/10931884719,0,,38.7769686
9.0570142,Ferensay,node/10931884720,0,,38.7769596
9.0535366,Mezan,node/10931884721,0,,38.7722195
9.0535794,Mezan,node/10931884722,0,,38.7721316
9.0470261,Jan Meda,node/10931884723,0,,38.7690665
9.0471196,Jan Meda,node/10931884724,0,,38.7690208
9.0180915,Megenagna,node/10931937848,0,,38.8021444
8.9633989,Kadisco,node/10931937849,0,,38.766754
9.0347501,Kebena,node/10931995346,0,,38.776629
9.0435664,6 Kilo,node/10932040828,0,,38.7618099
9.0386325,St. George Total,node/10932040829,0,,38.7526555
9.038614,St. George Total,node/10932040830,0,,38.7527659
9.017586,Lem Hotel,node/10932115661,0,,38.7950974
9.0239221,Lamberet,node/10932115662,0,,38.8198719
9.0107374,Mexico,node/10932115666,0,,38.7471612
9.0104411,Mexico,node/10932115667,0,,38.7467607
9.0249902,Shola Gebeya,node/10933668851,0,,38.796095
9.0253078,Shola Gebeya,node/10933668852,0,,38.7963986
9.0290044,Beg Tera,node/10933668868,0,,38.8021516
9.0289126,Beg Tera,node/10933668869,0,,38.802143
9.0315916,Zebera,node/10933668870,0,,38.8093843
9.0314928,Zebera,node/10933668871,0,,38.8094344
9.0355162,Kidane Mihret,node/10933668873,0,,38.818742
9.0355971,Kidane Mihret,node/10933668874,0,,38.8186176
9.0113969,St. Urael Church,node/10933970678,0,,38.7750759
9.0110384,St. Urael Church,node/10933970679,0,,38.7752362
9.004269,Atlas,node/10934121405,0,,38.7797684
9.0041884,Atlas,node/10934121406,0,,38.779678
9.0103387,St. Urael Church,node/10934121407,0,,38.7748368
9.0104642,St. Urael Church,node/10934121408,0,,38.7749361
8.9843274,Kera,node/10934142102,0,,38.7518505
8.9840695,Kera,node/10934142103,0,,38.7515846
9.0324426,4 Kilo,node/10934274056,0,,38.7632997
9.012454,St. Estifanos,node/10934274058,0,,38.762845
9.0109591,Buna Ena Shay,node/10934274059,0,,38.7482685
9.0106827,Buna Ena Shay,node/10934274060,0,,38.748215
9.032283,4 Kilo,node/10936313832,0,,38.7645933
9.0323383,4 Kilo,node/10936313833,0,,38.7648081
9.0289759,Sebategna,node/10936490562,0,,38.7321818
9.028913,Sebategna,node/10936490563,0,,38.7322093
9.0258457,Amanuel Total,node/10936490564,0,,38.7211312
9.0258301,Amanuel Total,node/10936490565,0,,38.721144
9.0576027,Winget,node/10936621813,0,,38.7131944
9.0486146,Enqulal Fabrica,node/10936724096,0,,38.7375414
9.0485559,Enqulal Fabrica,node/10936724097,0,,38.7377157
8.9975486,karl Square,node/10937101933,0,,38.731079
9.0442105,6 Kilo,node/10937167108,0,,38.7610795
9.0442026,6 Kilo,node/10937167109,0,,38.7614376
8.9877236,Kera,node/10937209934,0,,38.7484685
9.0652788,Kechenie,node/10937271651,0,,38.7497785
9.033877,Mesalemia,node/10961301939,0,,38.7252968
9.0339779,Mesalemia,node/10961301940,0,,38.7255313
9.0338527,Merkato,node/10961301941,0,,38.7312096
9.0337645,Merkato,node/10961301942,0,,38.7312282
9.028926,Tekle Haimanot,node/10961408041,0,,38.7433286
9.0264526,Abuare Roundabout,node/10961408042,0,,38.7757907
9.0265186,Abuare Roundabout,node/10961408043,0,,38.7759091
9.0178983,Keranio Adebabay,node/10961408397,0,,38.7007101
9.014972,Mendida,node/10961408398,0,,38.7004401
9.0151204,Mendida,node/10961408399,0,,38.7004576
8.9983425,Bole Medhanyalem,node/10963292174,0,,38.7860616
8.9984526,Bole Medhanyalem,node/10963292175,0,,38.7862416
9.0231558,Weybla Mariam,node/10963817572,0,,38.688451
9.0233344,Weybla Mariam,node/10963817573,0,,38.6882249
9.0159879,22 Mazoria,node/10963932669,0,,38.7889432
8.9884101,Bisrate Gebrael,node/10964879159,0,,38.7226406
9.0333084,Luwkanda,node/10970584167,0,,38.7086432
9.0332835,Luwkanda,node/10970584168,0,,38.7086485
9.0335266,18 Mazoria,node/10970584169,0,,38.7126753
9.0335023,18 Mazoria,node/10970584170,0,,38.7126794
9.0372905,Abysinia Coffee,node/10970584171,0,,38.7164132
9.037294,Abysinia Coffee,node/10970584172,0,,38.7164416
9.0337305,18 Mazoria,node/10970748190,0,,38.7149465
9.0515413,4 Menta Adebabay,node/10970748192,0,,38.7087797
9.0514981,4 Menta Adebabay,node/10970748193,0,,38.7088057
9.0503697,Tero Mosque,node/10970748194,0,,38.7058937
9.0503743,Tero Mosque,node/10970748195,0,,38.7058901
9.0294218,Sebategna,node/10970823802,0,,38.7327781
9.0294686,Sebategna,node/10970823803,0,,38.732906
9.0350955,Piassa Arada,node/10970829160,0,,38.7492677
9.033556,Piassa Arada,node/10970912911,0,,38.7535518
9.0542225,Rufael,node/10970912912,0,,38.6992026
9.0542148,Rufael,node/10970912913,0,,38.6992201
8.9922493,Selefia Mosque,node/10973319411,0,,38.6737826
8.9922388,Selefia Mosque,node/10973319412,0,,38.6737682
9.0343357,Piassa Arada,node/10973319413,0,,38.7498429
9.0343492,Piassa Arada,node/10973319414,0,,38.749831
9.0610285,Shiromeda,node/10973319416,0,,38.7606274
9.0610076,Shiromeda,node/10973319417,0,,38.760666
8.8697296,Akaki Gebeya,node/10973446898,0,,38.7886493
8.8697306,Akaki Gebeya,node/10973446899,0,,38.7886284
8.8769296,Meshualekya,node/10973446900,0,,38.7864676
8.9482942,Mebrathayil,node/10973631794,0,,38.734517
8.9481457,Mebrathayil,node/10973631795,0,,38.7344951
8.9473757,Lafto,node/10973631797,0,,38.7443373
8.8667554,Yeshi Total,node/10973672014,0,,38.798935
9.0206661,Megenagna,node/10973929780,0,,38.8028464
9.0339313,Biretabret,node/10973929781,0,,38.8234705
9.0375694,Hanna Mariam,node/10973929783,0,,38.8316053
9.037593,Hanna Mariam,node/10973929784,0,,38.8316071
9.0374618,Kotebe Teachers College,node/10973929786,0,,38.8388573
9.0390977,Kotebe Gebriel,node/10973929787,0,,38.8505525
9.039072,Kotebe Gebriel,node/10973929788,0,,38.8505551
9.0357328,Kotebe,node/10973960231,0,,38.8279461
9.035744,Kotebe,node/10973960232,0,,38.8279666
9.0343234,Kebena,node/10973960233,0,,38.7769466
9.0637787,Yeka Abado,node/10974036529,0,,38.8735567
9.0638007,Yeka Abado,node/10974036530,0,,38.8734371
8.9948109,Taxi Tera,node/10989247669,0,,38.8092174
8.9888698,Bole Bridge,node/10989247670,0,,38.7945353
9.0048732,Summit,node/10989247671,0,,38.8517594
9.0050343,Summit,node/10989247672,0,,38.8520615
9.0005807,Medhanalem,node/10989247673,0,,38.838022
9.0002413,Medhanalem,node/10989247674,0,,38.8382224
8.9791887,Bole Mickael,node/10989306740,0,,38.7737291
8.979439,Bole Mickael,node/10989306742,0,,38.7732491
8.9647488,Riventy,node/10989306744,0,,38.798111
8.9647649,Riventy,node/10989306745,0,,38.7981165
9.0437261,Lomi Meda,node/10989322788,0,,38.6991226
9.0423415,Philiphs,node/10989322789,0,,38.7046602
9.0423523,Philiphs,node/10989322790,0,,38.7046599
9.0417345,Atena Tera,node/10989322793,0,,38.7116329
9.0417198,Atena Tera,node/10989322794,0,,38.7116327
9.0418861,Atena Tera,node/10989352901,0,,38.7128543
9.0419946,Atena Tera,node/10989352903,0,,38.7136815
9.037404,Kolfe,node/10989352904,0,,38.7169566
9.0373552,Kolfe,node/10989388405,0,,38.7170428
9.0376969,Chid Tera,node/10989388406,0,,38.7213864
9.0375624,Chid Tera,node/10989388407,0,,38.7215618
9.0339795,Tourist Hotel,node/10989495135,0,,38.760933
9.0331899,Tourist Hotel,node/10989495136,0,,38.7627083
9.0365466,St. George Church,node/10989495137,0,,38.7522109
9.0365649,St. George Church,node/10989495138,0,,38.7524292
9.0280891,Amanuel Church,node/10989606497,0,,38.723026
9.0280827,Amanuel Church,node/10989606498,0,,38.7230514
9.0330957,Mesalemia,node/10989606501,0,,38.7246409
9.0330994,Mesalemia,node/10989606502,0,,38.7246228
9.0170151,Coca Cola,node/10989606503,0,,38.729182
9.0169029,Coca Cola,node/10989606504,0,,38.7293902
9.0216869,Tikur Anbesa,node/10989700748,0,,38.7477611
9.0214822,Tikur Anbesa,node/10989700750,0,,38.7476433
9.0198621,Megenagna,node/10989765272,0,,38.8028176
9.0331305,Tourist Hotel,node/10991706244,0,,38.7619614
9.018399,Ambasader,node/10991706246,0,,38.7538719
9.0182782,Ambasader,node/10991706247,0,,38.7539744
9.0515112,Manen,node/10991763449,0,,38.7588533
9.0515112,Manen,node/10991763450,0,,38.7588598
8.883961,Selam Building,node/10992050085,0,,38.776766
8.944348,Saris Abo,node/10992073740,0,,38.7693473
8.883111,Selam Building,node/10992247910,0,,38.7772664
8.8801893,Gelan Condominium,node/10992247911,0,,38.768463
8.8801651,Gelan Condominium,node/10992247913,0,,38.7684764
8.8738823,Breta bret,node/10994789635,0,,38.7887302
8.867782,Akaki CBE,node/10994942333,0,,38.7888076
8.8679415,Akaki CBE,node/10994942334,0,,38.7887141
9.0098456,Mexico,node/10995013009,0,,38.7462885
8.9470636,Lafto,node/10995013010,0,,38.7443751
8.9537702,Lafto (Mickael),node/10995013013,0,,38.7504178
9.0051854,Woyira Sefer,node/10995113524,0,,38.7070388
9.0050595,Woyira Sefer,node/10995113525,0,,38.7068721
8.9932233,Total 3 Kutir mazoria,node/10996939227,0,,38.7170312
8.9671943,Mebrat,node/10997112356,0,,38.7486669
8.9671522,Mebrat,node/10997112357,0,,38.7487468
8.9621911,Biharetsege,node/10997112358,0,,38.7515775
8.9622089,Biharetsege,node/10997112359,0,,38.7515885
8.9576758,Adey Abeba,node/10997112361,0,,38.7631284
8.9576954,Adey Abeba,node/10997112362,0,,38.7631332
8.9758799,Gofa Gebriel,node/10997112364,0,,38.7488713
8.9758721,Gofa Gebriel,node/10997112365,0,,38.7489751
9.0196301,Abenet,node/10997125769,0,,38.7332825
8.963665,Weleta,node/10997242295,0,,38.6708623
8.9636677,Weleta,node/10997242296,0,,38.6708779
8.9666342,Weleta Tele,node/10997242298,0,,38.6731812
8.9764681,Repi Highschool,node/10997242299,0,,38.6774372
8.9765185,Repi Highschool,node/10997242300,0,,38.6774017
9.0576594,Sara Ampol,node/10997243557,0,,38.8741609
9.0575648,Sara Ampol,node/10997243558,0,,38.874351
9.0480764,Kara Condominium,node/10997243559,0,,38.8693718
9.0480356,Kara Condominium,node/10997243560,0,,38.8695015
9.0107982,Torhayloch,node/10997360870,0,,38.7207531
9.0114511,Mexico,node/10997382833,0,,38.7447026
9.0114533,Mexico,node/10997382834,0,,38.7445835
9.01285,Mexico,node/10997495133,0,,38.7440492
9.01282,Mexico,node/10997495134,0,,38.74405
9.0163639,Darmar,node/10997495135,0,,38.7345884
9.0329801,Piassa Arada,node/10998041498,0,,38.7545702
9.0334582,Piassa Arada,node/10998041499,0,,38.7537202
9.025295,Shola,node/10998041503,0,,38.7949306
9.0251357,Shola,node/10998041504,0,,38.7947575
8.8954024,Kality Meneharia,node/11033818190,0,,38.7722516
8.9361073,Kality Maseltegna,node/11033818192,0,,38.7642175
8.9994656,AU (Mikael) Rounrdabout,node/11033818193,0,,38.7406449
9.0089885,Mexico,node/11033818195,0,,38.7438741
9.0089241,Mexico,node/11033818196,0,,38.7440373
8.9945922,Bulgaria Mazoria,node/11033818197,0,,38.7474194
9.0316048,Autobis Tera,node/11033818199,0,,38.7373077
9.0299591,Autobis Tera,node/11033818200,0,,38.7377146
8.9864921,Kera,node/11033903482,0,,38.7483364
8.9450004,Saris Abo,node/11034015157,0,,38.7661144
9.0331054,Piassa Arada,node/11034015158,0,,38.7522899
9.0321742,Piassa Arada,node/11034015159,0,,38.7511155
9.03055,Autobis Tera,node/11034031010,0,,38.7370369
9.0626384,Shero Meda,node/11034031011,0,,38.7612633
9.0583756,Tsehay Chora (ShiroMeda),node/11034031012,0,,38.7598757
9.0351037,Abune Petros,node/11034031013,0,,38.7493262
9.0777204,Kuskoam,node/11034054993,0,,38.7572407
9.0321373,Arat Kilo,node/11034209866,0,,38.7654122
8.9753965,Kara Kore,node/11034280233,0,,38.6806691
8.9825611,Ayer Tena,node/11034280234,0,,38.6960927
8.9753861,Kara Kore,node/11034280236,0,,38.6805349
9.0426561,Lion Zoo (PEPSI Kiosk),node/11034427397,0,,38.7614325
9.0571131,Abo Mazoriya,node/11034427398,0,,38.777181
9.0608545,Yeha,node/11034427399,0,,38.7835816
9.0622785,Gurara,node/11034427400,0,,38.7880233
9.0624066,Gurara,node/11034427401,0,,38.7888027
8.9535755,Saris,node/11034511605,0,,38.7634093
8.9535945,Saris,node/11034511606,0,,38.7636248
9.0296904,Autobis Tera,node/11034611751,0,,38.7371486
9.0221498,Megenagna,node/11034647605,0,,38.8004821
9.0115667,Torhailoch,node/11035234709,0,,38.7220211
9.0376857,Chid Tera,node/11035240260,0,,38.7214866
8.9837379,Ayer Tena,node/11035502832,0,,38.6971291
8.9836981,Ayer Tena,node/11035502833,0,,38.7015659
8.9914198,Bisrate Gebrael,node/11035532608,0,,38.7255627
9.0191017,Zenebewerk Hotel,node/11035607129,0,,38.7682089
9.0107497,Estifanos,node/11035607130,0,,38.7636411
9.0109263,Lideta Condominium,node/11035607131,0,,38.7386025
8.9882771,Zenebework,node/11035662205,0,,38.7080773
9.0165403,Darmar,node/11035734852,0,,38.7377271
8.9270084,Hana Maryam,node/11035734855,0,,38.7418753
9.058672,Bercheko Condominium,node/11035818337,0,,38.700756
8.9231915,Alem Gena,node/11035914858,0,,38.6529741
8.9494175,Noc,node/11035914859,0,,38.6701962
8.9490541,Noc,node/11035914860,0,,38.6699835
8.9665643,Welete Tele,node/11035914861,0,,38.6732105
8.9635929,Welete,node/11035914862,0,,38.6708945
8.9641803,Weleta,node/11035914863,0,,38.6707668
8.9666144,Weleta Tele,node/11035914864,0,,38.6731872
8.9834038,Ayer Tena,node/11035914865,0,,38.6967597
