stop_lat,stop_name,location_type,stop_id,parent_station,stop_lon
9.03018495,official name,1,relation/10550061,,38.73733835
9.0210263001,C.M.C,0,way/604046026,,38.8504558
9.0209365501,C.M.C,0,way/604046027,,38.85044875
9.0206309001,Meri,0,way/604046028,,38.86039005
9.0205342501,Meri,0,way/604046029,,38.86039745
9.0212283001,Ayat,0,way/604046052,,38.8717948
9.0211369001,Ayat,0,way/604046053,,38.87179745
9.0213594001,St. Michael,0,way/758915882,,38.8426211
9.0214511001,St. Michael,0,way/758915883,,38.8426345
9.0208269001,Management Institute,0,way/758919087,,38.8284090499
9.0209051001,Management Institute,0,way/758919088,,38.8283603999
9.0216842501,Civil Service College,0,way/758919089,,38.83479945
9.0217686501,Civil Service College,0,way/758919090,,38.83479775
9.0104366001,Bambis,0,way/758922739,,38.76879995
9.0103406001,Bambis,0,way/758922740,,38.76877485
9.01099095,St. Urael,0,way/758922741,,38.77470515
9.0148321501,Hayahulet 2,0,way/758922742,,38.7832101499
9.0149132501,Hayahulet 2,0,way/758922743,,38.7832128499
9.0161997001,Hayahulet 1,0,way/758922744,,38.7893457
9.0162805001,Hayahulet 1,0,way/758922745,,38.7893058
9.0178812001,Lem Hotel,0,way/758922746,,38.7959009999
9.0179702501,Lem Hotel,0,way/758922747,,38.7958714999
9.0196319001,Megenagna,0,way/758922751,,38.8026662
9.0201812501,Gurd Sholla 2,0,way/758922752,,38.81016615
9.0202704501,Gurd Sholla 2,0,way/758922753,,38.8101826
9.0190550501,Gurd Sholla 1,0,way/758922754,,38.8199118
9.0191373501,Gurd Sholla 1,0,way/758922755,,38.8199363
9.0114466001,Tor Hailoch,0,way/758926923,,38.7228792001
9.0113509001,Tor Hailoch,0,way/758926924,,38.7228400001
9.0120903001,Cocacola,0,way/758926925,,38.72925215
9.0120082001,Cocacola,0,way/758926926,,38.72924475
9.0113260501,St. Lideta,0,way/758926927,,38.7358812
9.0114191001,St. Lideta,0,way/758926928,,38.735902
9.0104883001,Tegbared,0,way/758926929,,38.74251165
9.0105720501,Tegbared,0,way/758926930,,38.74252605
9.0110042001,Mexico,0,way/758926931,,38.7486780499
9.0111035001,Mexico,0,way/758926932,,38.7486304499
9.0118976001,Leghar,0,way/758926933,,38.75364485
9.0118055501,Leghar,0,way/758926934,,38.7536616
9.0119426001,Stadium,0,way/758926935,,38.75765945
9.0120396501,Stadium,0,way/758926936,,38.75768125
9.0110094501,St. Estifanos,0,way/758926937,,38.7633933
9.0110866501,St. Estifanos,0,way/758926938,,38.7634148
9.0341520001,Gojam Berenda,0,way/759354435,,38.7383589
9.0342421001,Gojam Berenda,0,way/759354436,,38.73838775
9.0345698501,Atikilt Tera,0,way/759354437,,38.7469346
9.0346634001,Atikilt Tera,0,way/759354438,,38.7469217
8.938011,Kality,0,way/759359409,,38.7631070001
8.93795435,Kality,0,way/759359410,,38.7630034001
8.94501825,Abo Junction,0,way/759359411,,38.7663008501
8.9449765,Abo Junction,0,way/759359412,,38.7662190501
8.9519971333,Saris,0,way/759359413,,38.7634466333
8.9519912333,Saris,0,way/759359414,,38.7633591333
8.9567954,Adey Abeba,0,way/759359415,,38.76388145
8.9568021,Adey Abeba,0,way/759359416,,38.76379965
8.9903485,Lancha,0,way/759359417,,38.75926535
8.9903366,Lancha,0,way/759359418,,38.75916345
8.9952452,Temenja Yazh,0,way/759359419,,38.7598284334
8.9952399,Temenja Yazh,0,way/759359420,,38.7597271667
9.0005732,Riche,0,way/759359421,,38.7587088
9.00058575,Riche,0,way/759359422,,38.7586096
9.00485825,Meshwalekya,0,way/759359423,,38.7588805
9.00486215,Meshwalekya,0,way/759359424,,38.7587524
9.0154149,Darmar,0,way/759359425,,38.73475
9.01542485,Darmar,0,way/759359426,,38.73466315
9.0212786,Abnet,0,way/759359427,,38.73335125
9.0212687,Abnet,0,way/759359428,,38.73341865
9.0283819,Sebategna,0,way/759359429,,38.73298775
9.0284011,Sebategna,0,way/759359430,,38.7330763
9.0340910501,Autobus Tera,0,way/759359431,,38.7329878
9.0340079501,Autobus Tera,0,way/759359432,,38.7329908
8.9731988,Nifas Silk 2,0,way/759365358,,38.7607979501
8.97316965,Nifas Silk 2,0,way/759365359,,38.7606849501
8.9657149,Nifas Silk 1,0,way/759365360,,38.7629963
8.96571355,Nifas Silk 1,0,way/759365361,,38.7628904
9.0165395,Beherawi Theatre,0,node/847244293,,38.7525538
9.0209237,Black Lion,0,node/847244423,,38.7521415
9.0344007,4 Kilo,0,node/4832025024,,38.7632408
9.0223057,Lamberet Terminal (Bus),0,node/4884374622,,38.8158571
8.9929728,Sar Bet (Roundabout),0,node/5248250425,,38.738182
9.0164409,Ambassador,0,node/5330678521,,38.7553162
9.0120865,A.A. Natoinal Stadium,0,node/5736089088,,38.7570615
9.0295451,Mebrathail,0,node/6251054285,,38.7146778
9.0654733,Asko,0,node/6307600909,,38.6928185
8.9976331,Bole Printing Press,0,node/6373574986,,38.7718334
9.0331479,Arada,0,node/6728583386,,38.7516761
9.0094665,Mexico,0,node/6814022390,,38.7444332
8.9644773,Mebrat Condominium,0,node/6967142984,,38.7438796
8.9673396,Mebrat,0,node/6967165728,,38.7486643
8.9771232,Gofa Gebriel,0,node/6967179322,,38.7491221
8.9825519,Kera (Gofa Road),0,node/6967179323,,38.7498599
9.0277111,Tewodros Square,0,node/6967225474,,38.7516602
8.9655968,German Square,0,node/6967234177,,38.732897
8.9899905,Friendship Building,0,node/6967281153,,38.7859995
9.0319356,Piassa (Downtown Cafe),0,node/6967281241,,38.7512565
9.0330123,Piassa Arada (2),0,node/6967281242,,38.7526242
9.0418236,Gojo,0,node/6967318740,,38.6217166
9.0203188,Megenagna Terminal,0,node/7022361366,,38.8026673
8.9885373,Bole Millenium,0,node/7022397409,,38.7897496
8.9887535,Bole Millenium,0,node/7022397410,,38.789886
8.9937973,Goro School,0,node/7022397411,,38.8267584
8.9720161,Bole Arabsa,0,node/7022397416,,38.8906061
8.9732168,Bole Arabsa,0,node/7022397417,,38.8903477
9.0561038,Aba Kiros Roundabout,0,node/7022397418,,38.8785675
9.0689298,Yeka Abado G13,0,node/7022397420,,38.875565
9.0688377,Yeka Abado G13,0,node/7022397421,,38.8756232
9.0626109,Gurara,0,node/7037142410,,38.7894476
9.0224201,Marathon Motor (Megenagna),0,node/7037142417,,38.8000289
9.060739,Yeha,0,node/7037142419,,38.7836264
9.0608445,Tena Tabya,0,node/7037142420,,38.7839285
9.0598571,Biret Dildiy (Bono Wuha),0,node/7037142421,,38.7811505
9.0042786,Atlas,0,node/7037142423,,38.7797667
8.9983386,Bole Medhanialem,0,node/7037142424,,38.7860596
8.9984556,Bole Medhanialem,0,node/7037142426,,38.7862428
9.0221273,Dinberwa Hospital,0,node/7037142428,,38.7866932
9.0345238,Kokebe Tsebah School,0,node/7037142430,,38.7802113
9.034441,Kokebe Tsebah School,0,node/7037142431,,38.7799476
9.031876,Belgium Embassy,0,node/7037142433,,38.7839469
9.0311083,British Embassy,0,node/7037142434,,38.784892
9.0309087,British Embassy,0,node/7037142435,,38.7855544
9.0287538,Abebe Sook,0,node/7037142436,,38.7887162
9.0250779,Shola Gebeya,0,node/7037142438,,38.7952986
9.0244101,Yeka Michael,0,node/7037142439,,38.7961373
9.0180934,Megenagna,0,node/7037142441,,38.8021491
9.0182711,Megenagna,0,node/7037142442,,38.8017521
8.8857631,Gelan Condominium,0,node/7037142444,,38.7838409
8.8844583,08 Adarash,0,node/7037142445,,38.7856311
8.8769042,Meshuwalekia Akaki,0,node/7037142446,,38.7866432
8.8738867,Akaki Beretaberet,0,node/7037142448,,38.7887564
8.870907,G7 (Tulu Dimtu),0,node/7037142450,,38.8207065
8.8736126,Tulu Dimtu (Adebabay),0,node/7037142451,,38.8198223
8.8552763,Tulu Dimtu,0,node/7037142454,,38.8042339
8.8556159,Tulu Dimtu,0,node/7037142455,,38.8041524
8.8597556,Akaki Korkoro,0,node/7037142456,,38.7961539
8.8668237,Belay Ab Moters (Alem Bank),0,node/7037142458,,38.7987744
8.8688691,Tulu Dimtu (Taf Gas Station),0,node/7037142459,,38.8051915
8.8722685,Arsema,0,node/7037142460,,38.8136608
8.8747821,Tulu Dimtu Adebabay,0,node/7037142462,,38.8201689
8.8658608,Project 12 Akababi,0,node/7037142464,,38.8218482
8.8592154,Mahiber Betoch,0,node/7037142465,,38.8148895
8.9869933,Bole Dildiy,0,node/7037142466,,38.7912061
9.02034,Megenagna / Zefmesh,0,node/7037142467,,38.8000136
9.0212969,Megenagna,0,node/7037142469,,38.8010592
9.0217137,Megenagna,0,node/7037142470,,38.8015921
9.0215363,Abysinia Cafe Area,0,node/7037142471,,38.8100422
9.0213396,Abysinia Cafe Area,0,node/7037142472,,38.810853
9.0196778,Century Mall,0,node/7037142474,,38.8132781
9.0187352,Gurd-shola,0,node/7037142475,,38.8215105
9.0239816,Menaheria,0,node/7037142476,,38.8192066
9.0238758,Menaheria,0,node/7037142477,,38.8192354
9.003632,Gerji Mebrat Haile,0,node/7037142479,,38.814876
9.0037638,Gerji Mebrat Haile,0,node/7037142483,,38.8132574
9.0253421,Lamberet,0,node/7037142484,,38.8251916
9.0258842,Lamberet Area,0,node/7037183485,,38.8271787
9.0260507,Lamberet Area,0,node/7037183486,,38.8273076
9.0259969,Lamberet Area,0,node/7037183487,,38.8271189
8.9913503,Yerer Goro,0,node/7037183490,,38.8294063
8.9913122,Yerer Goro,0,node/7037183491,,38.8292124
9.020263,Se'alite Mihret Church,0,node/7037183492,,38.8265756
9.0203852,Management Institute,0,node/7037183493,,38.82686
9.0203048,Sealite Mihret,0,node/7037183494,,38.8273219
9.0216167,Civil Service College,0,node/7037183495,,38.8342032
9.021312,St. Michael,0,node/7037183496,,38.8414217
9.0215489,St. Micheal Church,0,node/7037183497,,38.8425033
9.0283709,Salite Mihret,0,node/7037183498,,38.8331954
9.0285264,Hillside (Ethio-China Mebrathaile),0,node/7037183499,,38.8333256
9.030459,Wessen Michael,0,node/7037183501,,38.838592
9.0330948,Wessen,0,node/7037183504,,38.8442968
9.0330982,Wessen (Mariam),0,node/7037183507,,38.8446898
9.0342084,Kotebe Teachers College,0,node/7037183508,,38.8466963
9.0357649,Yabem Hotel,0,node/7037183509,,38.8533863
9.036101,Kotebe Gebriel,0,node/7037183510,,38.8545188
9.0207031,Yetebaberut,0,node/7037183515,,38.8539074
9.0207092,Meri,0,node/7037183516,,38.8603565
9.0205124,Meri (Yetebaberut),0,node/7037183518,,38.8610727
9.0208331,Ayat,0,node/7037183519,,38.8686047
9.0210633,Ayat Zone 2,0,node/7037183520,,38.8678248
9.0379427,Kara (Turn),0,node/7037183521,,38.8606002
9.0401552,Medhanalem Church,0,node/7037183523,,38.8640163
9.0106828,Safari,0,node/7037183525,,38.852259
9.0043876,Summit (MOHA),0,node/7037183527,,38.8520658
8.9941038,Tena Tabeya,0,node/7037183529,,38.860685
8.9863905,Summit Condominiums,0,node/7037183531,,38.857405
8.9894728,Gate 2,0,node/7037183532,,38.8582866
9.0213287,Ayat Train Station,0,node/7037183535,,38.8719812
9.0211208,CMC,0,node/7037183536,,38.872594
9.0212396,Ayat Square,0,node/7037183537,,38.8767684
9.0216916,Feres Bet,0,node/7037183538,,38.8862575
9.0170704,Police Tabia,0,node/7037183539,,38.8946069
9.0222555,Tsebel,0,node/7037183540,,38.891209
9.0219034,Bono Meskid,0,node/7037183541,,38.8902931
9.0113906,Ayat Chefe Condominium,0,node/7037183542,,38.8946677
9.0109368,Ayat Chefe Condominium,0,node/7037183543,,38.8944878
9.0023517,Nebu Mikael,0,node/7037183545,,38.8767662
8.9965746,Ayat Adebabay Hulet (2),0,node/7037183546,,38.8851706
8.9963324,Bole Arabsa (3),0,node/7037183547,,38.8855436
8.9841602,Bole Arabsa (2),0,node/7037183548,,38.8851362
8.9733148,Bole Arabsa,0,node/7037183550,,38.8902717
8.9654075,St. Gebereal,0,node/7037183551,,38.8849449
9.0354891,Yeka Condominium 1,0,node/7037183552,,38.877919
9.0381306,Tafo Gebrael,0,node/7037183554,,38.8777819
9.0505157,Tafo Condominium 1,0,node/7037183555,,38.8779667
9.0425957,Tafo Mebrathail,0,node/7037183557,,38.8773973
9.0427743,Tafo Mebrathail,0,node/7037183558,,38.877866
9.0465834,Tafo Condominium 2,0,node/7037183559,,38.8779122
9.0557042,Aba Kiros Roundabout,0,node/7037183561,,38.8777974
9.0501511,Kara Condominium,0,node/7037183562,,38.8705589
9.0666282,Yeka Abado,0,node/7037183563,,38.8647703
9.0571811,Sara Ampol (Gedera),0,node/7037183565,,38.8737753
9.0580264,Sara Ampol,0,node/7037183567,,38.8742538
9.0606875,Aba Kiros,0,node/7037183569,,38.8812971
9.0630654,Makefafeya,0,node/7037183570,,38.8841651
9.0670494,Gari Tera,0,node/7037183571,,38.8892044
9.0707009,CCD,0,node/7037183572,,38.8938058
9.0718221,140,0,node/7037183573,,38.8952147
9.0818058,Legedadi Mission,0,node/7037183574,,38.9074861
9.0821737,Legedadi Mission,0,node/7037183575,,38.90832
8.8832064,Selam Building,0,node/7041052894,,38.7771628
8.8910898,Gojo Hotel,0,node/7041052895,,38.7768399
8.8958596,Kality Meneharia,0,node/7041052896,,38.7717913
8.9029458,Cheralia Factory,0,node/7041052897,,38.7668359
8.9029223,Cheralia Factory,0,node/7041052898,,38.7667452
8.9113422,Kality Gebriel,0,node/7041052900,,38.7638335
8.9124672,Kality Prison,0,node/7041052901,,38.7633323
8.9713916,Gofa Camp,0,node/7041052926,,38.7417161
8.9683942,Mekanisa (Old Revenues Office),0,node/7041052927,,38.73129
8.9656974,German Square,0,node/7041052928,,38.7327236
8.9616036,German Bridge,0,node/7041052930,,38.7327953
8.9556239,Gebriel Bridge,0,node/7041052932,,38.7324437
8.955596,Gebriel Bridge,0,node/7041052934,,38.7327233
8.9469471,Mebrathile (EEPCo),0,node/7041052935,,38.7339608
8.9790248,Mekanisa School,0,node/7041052936,,38.7341955
8.9785916,Abo,0,node/7041052937,,38.7339384
8.973373,Sheged Hotel,0,node/7041052938,,38.7246092
8.9673959,Jemo Michael,0,node/7041052939,,38.720836
8.966996,Jemo Michael,0,node/7041052940,,38.7209392
8.9614893,Jemo YBP (All Mart),0,node/7041052942,,38.7152564
8.9606358,Jemo 1,0,node/7041052944,,38.7123763
8.9604074,Jemo 1,0,node/7041052945,,38.7124284
8.9595125,Mestawet Fabrica,0,node/7041052946,,38.7084697
8.958513,Mestawet Fabrica,0,node/7041052948,,38.7059934
8.9564,Jemo 3,0,node/7041052949,,38.6992718
8.9556244,Jemo 3,0,node/7041052950,,38.6985348
8.9866742,Zenebework,0,node/7041052951,,38.7077567
8.9657858,Mickael Bridge,0,node/7041052953,,38.7272059
8.9813118,Gerar,0,node/7041052954,,38.6894646
8.9793804,Repi (Gerar),0,node/7041052955,,38.6852022
8.9753751,Gofa Gebriel (2),0,node/7041052959,,38.7488548
8.9753633,JFK Building,0,node/7041052962,,38.7452732
8.9822682,MOHA (Pepsi Factory),0,node/7041052965,,38.7560783
8.9555778,Addis Sefer (Gebriel),0,node/7041052966,,38.7743852
8.9555403,Addis Sefer (Gebriel),0,node/7041052967,,38.77441
8.9762662,Gotera (Oilibiya),0,node/7041052969,,38.7600125
8.976182,Gotera (Oilibiya),0,node/7041052970,,38.7598239
8.9697308,St. Joseph Church,0,node/7041052975,,38.7620577
8.9686822,St. Joseph Church,0,node/7041052976,,38.7623204
8.9659447,kadisco Building,0,node/7041052977,,38.7627885
8.965927,kadisco Building,0,node/7041052978,,38.762999
8.9637596,Kadisco,0,node/7041052979,,38.7630788
8.9583017,Adey Abeba,0,node/7041052980,,38.7640609
8.9582595,Adey Abeba,0,node/7041052982,,38.7638459
8.9528662,Saris (CBE),0,node/7041071286,,38.7635583
8.9527596,Saris (CBE/Shoa Bakery),0,node/7041071287,,38.7633266
8.9500425,Universal Leather Factory,0,node/7041071288,,38.7637856
8.9450003,Abo Junction,0,node/7041071289,,38.7661044
8.9450733,Abo Junction,0,node/7041071290,,38.7663069
8.9380959,Customs (Train Station),0,node/7041071291,,38.763132
8.9323275,Kality Maseltegna,0,node/7041071295,,38.766627
8.9298185,Wehalemat,0,node/7041071296,,38.7681616
8.9950292,Bulgaria Mazoria,0,node/7041071342,,38.7478244
8.9971703,Begtera,0,node/7041071344,,38.7475059
8.9990638,AU (Mikael) Rounrdabout,0,node/7041071347,,38.7394459
8.9990569,AU (Mikael) Rounrdabout,0,node/7041071348,,38.7395945
8.9937942,Bulgaria,0,node/7041071350,,38.7478465
8.9941475,Global Hotel,0,node/7041071352,,38.7595772
8.9941836,Global Hotel,0,node/7041071353,,38.7598183
8.9953383,Beklo Bet (Global),0,node/7041071354,,38.7596352
9.000141,Tele Garage,0,node/7041071355,,38.7584812
9.0043253,Riche,0,node/7041071356,,38.7586986
9.0166957,6th (Raddison Blu),0,node/7041071359,,38.7669535
9.017718,Filweha (Hotsprings),0,node/7041071360,,38.7572645
9.0175554,Filweha (Hotsprings),0,node/7041071362,,38.7570579
9.0138328,Ghion Hotel (Enterance),0,node/7041071364,,38.7576145
9.009822,St. Joseph School,0,node/7041071366,,38.758961
9.0098008,St. Joseph School,0,node/7041071367,,38.7591876
9.0104995,St. Joseph School,0,node/7041071370,,38.7592761
9.0105316,Admas University College,0,node/7041071371,,38.7590434
9.0118612,Lalibela Hotel,0,node/7041071372,,38.7570112
9.0121294,Stadium,0,node/7041071374,,38.7560438
9.011849,Legehar,0,node/7041071376,,38.7545386
9.0109604,Legehar (Old Train Station),0,node/7041071378,,38.7533069
9.0105723,Legehar (Old Train Station),0,node/7041071379,,38.7529712
9.0097755,Mexico,0,node/7041071380,,38.7461963
9.0031416,African Union,0,node/7041071382,,38.7414166
9.0053059,Popolare,0,node/7041071383,,38.7423863
9.0046908,Guenet Hotel,0,node/7041071384,,38.7466748
9.0032786,Guenet Hotel,0,node/7041071385,,38.74694
9.0210743,Tikur Anbessa Hospital,0,node/7041071386,,38.7488977
9.0175858,Goma Quteba,0,node/7041071387,,38.7464317
9.0214263,Abenet,0,node/7041071388,,38.7334947
9.0132791,Lideta Condominium,0,node/7041071389,,38.7345522
9.0157856,Darmar,0,node/7041071390,,38.7348248
8.9925902,3 Kutir Mazoriya (Total),0,node/7041071395,,38.7152417
8.995414,Minaye Building,0,node/7041071397,,38.7184074
8.9998642,Old Airport (Mobil),0,node/7041071399,,38.7191221
9.0099949,Tor Hailoch,0,node/7041071400,,38.7206897
9.0133411,Keranio Mewcha,0,node/7041071401,,38.7100309
9.0213057,Holand,0,node/7041071402,,38.7159484
9.0245409,Meseret Edget,0,node/7041071403,,38.714954
9.0278226,Teklehaymanot,0,node/7041071404,,38.7440603
9.0247481,Kebele 11,0,node/7041071405,,38.7458014
9.0262634,Tewodros Square,0,node/7041071406,,38.75166
9.0263826,Tewodros Square,0,node/7041071407,,38.7517909
9.0218352,Black Lion,0,node/7041071411,,38.7521859
9.0158768,National Theatre,0,node/7041071414,,38.751592
9.0156938,National Theatre,0,node/7041071415,,38.7513097
9.0139102,A.A. Commercial College,0,node/7041071416,,38.7494881
9.0138228,A.A. Commercial College,0,node/7041071418,,38.7495568
9.0114261,Buna Ena Shay,0,node/7041071419,,38.7490599
9.0119916,Mexico Shebelle Hotel,0,node/7041071423,,38.7468862
9.0105894,TVET College (Tegbare'd),0,node/7041071425,,38.7429038
9.0103865,Federal Police (Tegbare'd),0,node/7041071429,,38.7426638
9.0109303,Lideta (Balcha Hospital),0,node/7041071430,,38.738603
9.0111161,Lideta (Balcha Hospital),0,node/7041071431,,38.7385604
9.0112357,Lideta Condominium,0,node/7041071432,,38.7377839
9.0093091,Dessie Hotel,0,node/7041071434,,38.7338119
9.0115829,Lideta High Court,0,node/7041071437,,38.733431
9.0121559,Hintsa College,0,node/7041071439,,38.7293132
9.0119411,Coca Cafe,0,node/7041071441,,38.7292339
9.011282,Mekonenoch (Golf) Club,0,node/7041071444,,38.7265458
9.0115616,Tor Hailoch Junction,0,node/7041071446,,38.7220202
9.0119442,Tor Hailoch,0,node/7041071447,,38.7216866
9.0139112,Tor Hailoch,0,node/7041071448,,38.7206478
9.013939,Tor Hailoch,0,node/7041071449,,38.7209168
9.0194506,Keranio Bridge,0,node/7041071450,,38.7089411
9.0175679,Medhanialem,0,node/7041071451,,38.7049748
9.0176634,Keranio Adebabay,0,node/7041071452,,38.7006446
9.0180779,Kokebe,0,node/7041071453,,38.6994971
9.0195382,Yeshi Debele,0,node/7041071454,,38.6954056
9.0190748,Yeshi Debele,0,node/7041071455,,38.6957701
9.0110433,St. Urael Church,0,node/7041071459,,38.7752596
9.0104908,Salcost Apartments (NOC),0,node/7041071461,,38.766397
9.0118738,St. Estifanos Church,0,node/7041071462,,38.7626376
9.0199107,St. Gebriel,0,node/7041071464,,38.7675809
9.0193852,Zenebewerk Hotel,0,node/7041071465,,38.7680315
9.0206693,Meles Zenawi Foundation,0,node/7041071466,,38.7715231
9.0194316,Azmari Bet (Traditional Music Club),0,node/7041071468,,38.770643
9.0166401,Kazanchis (6th),0,node/7041071469,,38.7702335
9.0196382,Hilton Hotel (Apartments),0,node/7041071471,,38.7638714
9.0233468,Women Square,0,node/7041071473,,38.7772342
9.0234508,Women Square,0,node/7041071474,,38.7771738
9.0319312,Ministry Of Education,0,node/7041071479,,38.7633615
9.0321438,Sellasie Church (4 Kilo),0,node/7041071480,,38.7652099
9.032458,Bel Air,0,node/7041071481,,38.7728461
9.0324918,Addis View Hotel,0,node/7041071482,,38.7730493
9.0385863,Menlik II Hospital,0,node/7041071483,,38.7730546
9.0388201,Menlik Hospital,0,node/7041071484,,38.7719268
9.036585,St. George Church,0,node/7041071579,,38.7522608
9.0363918,St. George Church,0,node/7041071580,,38.7524122
9.0354406,Piassa,0,node/7041071592,,38.7523243
9.0352553,Habtegiorgis Bridge,0,node/7041071594,,38.7491242
9.0343899,Kurtu Building,0,node/7041071595,,38.7438917
9.0341887,Kurtu Building,0,node/7041071596,,38.7437548
9.0343321,Pharmacy,0,node/7041071597,,38.7434135
9.0343947,Gojam Berenda,0,node/7041071598,,38.737968
9.0342308,Autobis Tera (3),0,node/7041071599,,38.7337775
9.03371,Autobus Tera,0,node/7041071600,,38.7298446
9.0338533,Darsema Grosery,0,node/7041071601,,38.7294433
9.04636,Girum Hospital,0,node/7041071604,,38.7200106
9.0407262,Woreda 7 TVET,0,node/7041071605,,38.7212396
9.0366318,Sefere Salam,0,node/7041071606,,38.7219216
9.037044,Kolfe,0,node/7041071607,,38.7173824
9.0373422,Abysinia Coffee,0,node/7041071608,,38.7164487
9.0338162,Degu Hotel,0,node/7041071609,,38.7151531
9.0335338,18 Mazoria,0,node/7041071610,,38.7130781
9.0335825,18 Mazoria,0,node/7041071612,,38.7135105
9.0333303,Luwkanda,0,node/7041071614,,38.7093322
9.0340139,Comprensive,0,node/7041071615,,38.704541
9.0327975,Realstate,0,node/7041071616,,38.6951186
9.034058,Police Tabiya,0,node/7041071619,,38.6888917
9.0353789,Feli Doro (3),0,node/7041071622,,38.6853297
9.0389362,Ras Mekonene Bridge (Seba Dereja),0,node/7041071628,,38.7568178
9.0385989,5 Kilo (History Museum),0,node/7041071629,,38.7625491
9.0408311,5 Kilo University,0,node/7041071630,,38.761951
9.0427151,Lion Zoo (PEPSI Kiosk),0,node/7041071633,,38.7615693
9.0438891,Yekatit 12 Hospital,0,node/7041071636,,38.7603878
9.0436921,Yeatit 12 Hospital,0,node/7041071637,,38.7593176
9.0386136,Red-Cross (St. George Total),0,node/7041071638,,38.7527639
9.0386684,St. George Church (Total),0,node/7041071639,,38.7517494
9.0436522,Semen Hotel,0,node/7041071640,,38.7488778
9.0446929,Semen Hotel,0,node/7041071641,,38.7482928
9.0486023,Kelemwerk,0,node/7041071642,,38.7461719
9.0488673,Kelemwerk,0,node/7041071643,,38.7458026
9.0523631,Semen Mazegaga,0,node/7041071646,,38.7433813
9.0537306,Semen Mazagaja,0,node/7041071647,,38.7424925
9.0541015,Shegole Bank,0,node/7041071648,,38.7200104
9.0474202,Pawlos Hospital,0,node/7041071649,,38.7277601
9.0514832,Finance,0,node/7041071650,,38.7221677
9.0513651,Medhanialem (TOTAL),0,node/7041071651,,38.7220512
9.0528369,Finance,0,node/7041071653,,38.7201878
9.0531245,Finance,0,node/7041071654,,38.7199027
9.0544244,Winget Chaf,0,node/7041071655,,38.7149847
9.0576087,Awolia,0,node/7041071660,,38.7116367
9.0577975,Gulele Fana,0,node/7041071661,,38.7067279
9.0582376,Gulele Fana,0,node/7041071662,,38.7065488
9.0593548,Berchiko,0,node/7041071663,,38.7034077
9.0665816,Gebriel (Sansusi),0,node/7041071665,,38.69045
9.053538,Mezan,0,node/7041071719,,38.7722233
9.0470252,3rd Shaleka,0,node/7041071721,,38.7690705
9.0461753,6 kilo (University),0,node/7041071723,,38.7615547
9.0513004,Meksaye Hizunan Medhanialem,0,node/7041071725,,38.7622054
9.052326,Teferi Mekonen,0,node/7041071726,,38.7622236
9.0541533,Sebseba Maekel,0,node/7041071729,,38.7625698
9.0649811,Eyesus,0,node/7041071737,,38.7715088
9.0585516,Hamle 19,0,node/7041071738,,38.7680987
9.0710901,Dil Ber,0,node/7041071749,,38.7374387
9.0638294,Anbessa Garage (Shegole),0,node/7041071753,,38.7204079
9.0843712,Entoto Kela,0,node/7041071755,,38.7230011
9.1051152,Weserbi Realestate,0,node/7041071758,,38.7095299
9.1095355,Classy Water,0,node/7041071759,,38.7147037
9.1100449,Medret Hotel,0,node/7041071760,,38.7158285
9.1176074,Kburea,0,node/7041071761,,38.7300979
9.1179357,Kenenisa,0,node/7041071762,,38.7304557
9.1273122,Shefunea,0,node/7041071763,,38.7395293
9.1277902,Shefine,0,node/7041071764,,38.7397834
9.1339361,Doro Erbata,0,node/7041071772,,38.7522344
9.1341343,Abo Gabriel,0,node/7041071773,,38.7524529
9.1408321,Tulu Fati,0,node/7041071774,,38.7549356
9.1449015,Ashewa,0,node/7041071775,,38.7538733
9.1560016,Tabya Hotel,0,node/7041071776,,38.7542489
8.9929589,Sar Bet (Roundabout),0,node/7047495429,,38.738359
9.0286142,United Bank (Ashewa Meda),0,node/7047495432,,38.6600221
8.9208064,Sefera,0,node/7047495433,,38.7346499
8.9473775,Lafto,0,node/7049122264,,38.7443229
8.935835,Hana Mariam (2),0,node/7049122265,,38.7440895
8.9387647,Haile Garment,0,node/7049122266,,38.7345586
9.0304285,Yekiber Demena Church,0,node/7049921444,,38.8779866
9.0204726,Megenagna Terminal,0,node/7049921445,,38.8024339
9.0220882,Hill Bottom (Recreation),0,node/7049921447,,38.8759579
9.0304125,Zone 8,0,node/7049921448,,38.8775474
9.0476858,6 Kilo,0,node/7054842410,,38.7617178
9.0476498,6 Kilo,0,node/7054842414,,38.7617169
9.0101478,Legehar (Old Train Station),0,node/7055060064,,38.7533495
9.0359897,Kotebe Gebriel,0,node/7055598734,,38.8546711
9.0269686,Ahmed Building,0,node/7055598736,,38.8299268
9.0363488,St. Mary Church,0,node/7055598738,,38.7579049
9.0335541,Piassa Arada,0,node/7055598739,,38.7535483
9.0327818,Piassa Arada,0,node/7055598742,,38.7534018
9.0363807,St. Mary Church,0,node/7055598743,,38.7579442
9.0274541,NOC End,0,node/7055598744,,38.8307544
9.0341209,Kotebe Teachers College,0,node/7056754511,,38.8467717
9.0630764,Meskelegna (Ababdo),0,node/7056754514,,38.8732637
9.020907,Megenagna,0,node/7056754516,,38.8022361
9.0041945,Atlas,0,node/7057002158,,38.779674
9.0329242,Piassa Arada,0,node/7057002161,,38.7528717
9.0389386,Ras Mekonene Bridge (Seba Dereja),0,node/7057002162,,38.7568279
9.0226675,Gibi Gebriel Church,0,node/7057002163,,38.7626361
8.9904207,Brass Clinic (Bole),0,node/7057187392,,38.7929906
8.9903142,Brass Clinic (Bole),0,node/7057187393,,38.7932003
9.0379471,St.Gorgis,0,node/7062689844,,38.7519784
9.0358742,St. George Church (2),0,node/7062689845,,38.751629
9.0345896,Piassa,0,node/7062689848,,38.7549398
9.0325203,4 Kilo,0,node/7062689850,,38.764362
9.0344021,4 Kilo,0,node/7062689851,,38.7630946
9.0441091,Education Bureau (6 Kilo),0,node/7062689854,,38.7636034
9.0471236,Jan Meda,0,node/7062689855,,38.7690204
9.0557922,Frensaye Kela,0,node/7062689856,,38.7742742
9.0551762,Frensaye Kela,0,node/7062689857,,38.7736282
9.0569998,Abo Mazoriya,0,node/7062689858,,38.7777387
9.0623294,Beret Dildye (Gurara),0,node/7062689859,,38.7881845
8.9730894,Mamo (NFSL TVET),0,node/7067942461,,38.7608987
8.988213,Agona Cinema,0,node/7067942462,,38.7595747
8.9882665,Agona Cinema,0,node/7067942463,,38.7597959
8.9899694,Concord Hotel,0,node/7067942464,,38.7593562
9.0004682,Tele Garage,0,node/7067942465,,38.7587377
9.0145395,Zerihun Building,0,node/7067990019,,38.7824519
8.9897614,SNAP Building,0,node/7070861696,,38.7872174
8.9908557,Friendship,0,node/7070861697,,38.7844888
8.9917592,Heber Restaurant,0,node/7070861698,,38.7822311
8.992295,RWANDA (Werbek House),0,node/7070861699,,38.7791533
8.9924,Rwanda,0,node/7070861701,,38.7798477
8.9966227,Bole Printing Press,0,node/7070861702,,38.7723732
8.9976714,Bole Printing Press,0,node/7070861703,,38.7715908
8.9993469,Mega Printing Press,0,node/7070861704,,38.7708659
9.001132,Shewa Dabo,0,node/7070861705,,38.7697078
9.0014126,Getu Commercial Center,0,node/7070861706,,38.7697673
9.004953,Dembel City Center,0,node/7070861707,,38.7678519
9.0100482,Flamingo,0,node/7070861710,,38.7634195
9.0358425,Piassa,0,node/7070861712,,38.7527123
9.0074376,Anbessa Garage,0,node/7070861713,,38.8054033
9.0221276,Ayat Roundabout,0,node/7070861714,,38.876525
9.0401288,Gebriel,0,node/7070861716,,38.8777949
9.0527134,Semen Mazegaja | ሰሜን ማዘጋጃ,0,node/7074233342,,38.7433527
9.0559007,Del Ber School,0,node/7074233343,,38.7411604
9.0592088,Adisu Gebeya,0,node/7074233344,,38.7379037
9.061605,Kelebat,0,node/7074233345,,38.7355505
9.0679367,Oilibiya (Dil Ber),0,node/7074233346,,38.7347909
9.0463006,Pastor,0,node/7074267433,,38.7301845
9.051161,Medhanialem,0,node/7074267434,,38.7228618
9.0554455,Winget,0,node/7074267435,,38.7138884
9.0576131,Kela,0,node/7074269464,,38.6101592
9.0576152,Kela,0,node/7074269465,,38.6101611
9.0452427,Semen Hotel,0,node/7074275407,,38.7481339
8.9866969,Kera,0,node/7074294627,,38.7484333
9.0653014,Asko,0,node/7074299254,,38.6922669
9.0286512,Sebategna,0,node/7074324043,,38.733098
9.0317912,Autobis Tera (2),0,node/7074324044,,38.7324012
9.0347276,Autobis Tera,0,node/7074324045,,38.7321005
8.9733512,Mekanisa,0,node/7074326525,,38.7315967
8.9822244,Abo Mazoria,0,node/7074326526,,38.7343058
8.9894962,Gate 2,0,node/7074330387,,38.8580841
8.9942098,Tena Tabeya,0,node/7074330389,,38.8605382
8.9984544,Condminium (Gate),0,node/7074330391,,38.8602323
9.0014062,Gomista,0,node/7074330392,,38.8573283
9.0040839,Summit (MOHA),0,node/7074330394,,38.8517162
9.0106601,Safari,0,node/7074330397,,38.8518265
8.999474,Alemayehu,0,node/7074330400,,38.820944
9.0005663,Alemayehu,0,node/7074330401,,38.8196821
9.0050845,Condominium,0,node/7074330403,,38.8095474
9.026612,Ethio-china,0,node/7074330407,,38.8287819
9.0403987,Kara,0,node/7074330409,,38.8643277
9.0616842,Chereta,0,node/7074347184,,38.7010211
9.0714003,Sansusi,0,node/7074387585,,38.6891038
9.0285405,Kersa (2),0,node/7074496216,,38.6722328
9.0326531,Ashewa Meda,0,node/7074496217,,38.6653802
9.0326414,Ashewa Meda,0,node/7074496218,,38.6653823
9.0258997,United Bank (Ashewa Meda),0,node/7074496219,,38.6569665
9.027689,St. Gebriel,0,node/7074496221,,38.6515848
9.0276843,St. Gebriel,0,node/7074496222,,38.6515743
9.0417975,Gojo,0,node/7074496225,,38.6216778
9.0010346,Alem Bank,0,node/7074504387,,38.6776598
8.9831312,Ayer Tena,0,node/7074504388,,38.6982583
9.0045877,Betel,0,node/7074504390,,38.6944335
8.9700751,Mebrat Nigist Hotel,0,node/7074525370,,38.7486994
9.0116457,Lideta Kefetega Firdbet,0,node/7074541084,,38.7326808
8.9368661,Haile Garment,0,node/7074561391,,38.7363202
8.9493593,Mebrathile (EEPCo),0,node/7074561392,,38.7334502
8.9309368,Hana Mariam,0,node/7074561393,,38.7544146
8.9361698,Hana Mariam (2),0,node/7074561394,,38.7444615
8.95299,Meskelgna,0,node/7074561395,,38.7448233
9.0357438,Piassa,0,node/7074585943,,38.7514315
9.0324015,Arat Kilo,0,node/7074585944,,38.7633143
8.9953761,Beklo Bet (Global),0,node/7074599697,,38.759835
9.0055846,Dembel City Center,0,node/7074691520,,38.7673017
9.010735,Mexico,0,node/7074707878,,38.7471393
9.0127963,ERA Office (Big Mak),0,node/7074707880,,38.7478601
9.0092034,Saint Josphe School,0,node/7074707881,,38.7591385
9.0124825,St. Estifanos Church,0,node/7074707883,,38.7628296
8.9725713,Mamo (NFSL TVET),0,node/7074819178,,38.7607684
8.9339802,Kality Maseltegna,0,node/7074841188,,38.7643672
8.9585362,Dildiy Mariam,0,node/7075101457,,38.7498569
8.9837243,Kera (Gofa Stop),0,node/7075101459,,38.7498944
9.009717,Tor Hailoch,0,node/7075129253,,38.7208842
9.0117428,Torhayloch,0,node/7075129254,,38.7207996
9.0117788,Tor Hailoch,0,node/7075129255,,38.7222467
9.0043941,Riche,0,node/7076294502,,38.7588986
8.9645236,Mebrat Condominium,0,node/7076294503,,38.7438551
8.9638868,Kadisco,0,node/7076294504,,38.7633289
9.0089349,Flamingo,0,node/7076294505,,38.7646677
8.9984013,Condminium (Gate),0,node/7076294507,,38.8601035
9.0418835,Michael (2),0,node/7076294509,,38.7325725
9.0622823,Shero Meda,0,node/7076294510,,38.7612538
9.0618175,Shero Meda,0,node/7076294511,,38.7613619
9.0716602,Del Ber,0,node/7076294512,,38.7369836
9.0618235,Shiromeda,0,node/7076294516,,38.7613887
9.0447597,6 Kilo (Akim Genbata),0,node/7076310930,,38.7612093
9.0626379,Shiromeda Anbessa bus stop,0,node/7076310931,,38.7612397
9.0507372,Medhanialem,0,node/7077424942,,38.7619991
9.0163885,Ambassador,0,node/7077601626,,38.7551039
9.0216085,Lamberet,0,node/7077785205,,38.8139111
9.0655587,G-7 (Meskelegna),0,node/7077785207,,38.8676583
9.064013,Meskelegna (Ababdo),0,node/7077785208,,38.8732834
9.0480304,Kara Condominium,0,node/7077785209,,38.8695121
9.031811,Autobis Tera (2),0,node/7077863009,,38.7325536
8.9960545,Tropical,0,node/7077863010,,38.6833448
9.0003767,Alem Bank,0,node/7077863012,,38.6779208
8.9965876,Tropical,0,node/7077863014,,38.6830207
8.9923549,Kidane Mihret,0,node/7077863015,,38.6892387
9.004479,Bethel,0,node/7077863016,,38.6941906
9.0151128,Mendida,0,node/7077863017,,38.7004836
9.019638,Abinet,0,node/7077863018,,38.7327417
9.0280905,Sebategna,0,node/7077863019,,38.7329768
9.0088714,Mexico,0,node/7078164250,,38.7440208
8.9381825,Haile Garment,0,node/7078164251,,38.7349155
8.9729343,Mekanisa,0,node/7078164254,,38.7311018
8.9820586,Abo Mazoria,0,node/7078164255,,38.7345326
9.0088201,Mexico,0,node/7078164256,,38.7437936
9.0330269,Autobis Tera (1),0,node/7078406225,,38.7323925
8.9876369,Zenebework,0,node/7078406227,,38.7090191
8.9822919,Ayer Tena,0,node/7078406228,,38.6949214
8.9755975,Kara Kore,0,node/7078406231,,38.6817556
8.9763865,Kara Kore,0,node/7078406235,,38.6823873
8.9822452,Ayer Tena (Gerar-Repi),0,node/7078406236,,38.6939258
8.9795049,Repi (Gerar),0,node/7078406237,,38.6853911
8.9852814,Zenebework (Crossing),0,node/7078406238,,38.7051886
8.992776,3 Kutir Mazoriya (Total),0,node/7078406239,,38.715946
9.0330007,Autobis Tera (1),0,node/7078406240,,38.7322299
9.0049451,Condominium,0,node/7080251773,,38.8100534
8.993889,Goro School,0,node/7080251774,,38.8268744
9.0071789,Anbessa Garage,0,node/7080251776,,38.8056204
9.0110366,Estifanos,0,node/7080440194,,38.7636615
9.0104866,BAMBIS,0,node/7080440195,,38.7690578
9.0115088,St. Urael Church,0,node/7080440196,,38.7752996
9.0147285,Lex Plaza,0,node/7080440197,,38.7823039
9.0164226,22 (Haya Hulet),0,node/7080440198,,38.7896417
9.0194097,Megenagna (Bethelhem Bldg.),0,node/7080440200,,38.8004816
9.019032,Megenagna (CBE Bank),0,node/7080440203,,38.8005914
9.0177169,Lem Hotel,0,node/7080440204,,38.7955696
9.0162149,22 (Haya Hulet),0,node/7080440205,,38.7896635
9.0102033,BAMBIS,0,node/7080440206,,38.7694936
9.0104304,Mexico,0,node/7080440208,,38.7467585
9.0331073,Piassa Arada (3),0,node/7080527281,,38.7522923
9.0098462,Mexico,0,node/7080527282,,38.7462899
8.9863213,Kera,0,node/7080527284,,38.7487773
8.96688,Mebrat,0,node/7080611085,,38.7487535
9.0120423,Mexico Shebelle Hotel,0,node/7080611091,,38.746773
9.0412736,Michael,0,node/7080893992,,38.7322629
9.034717,Autobis Tera,0,node/7080893993,,38.732023
9.0460782,Pastor,0,node/7080893994,,38.7306587
9.0560646,Winget,0,node/7080893995,,38.713458
9.0613645,Chereta,0,node/7080893996,,38.7009781
9.0715888,Sansusi,0,node/7080894001,,38.6891732
9.0574672,Abo Mazoriya,0,node/7081034797,,38.7785478
9.0441923,Education Bureau (6 Kilo),0,node/7081034799,,38.7640045
9.0648091,Total (Dil Ber),0,node/7084255331,,38.732915
9.0341775,Piassa Arada,0,node/7084255333,,38.7533521
9.0594855,Addisu Gebeya,0,node/7084255334,,38.7374497
9.0638908,Tsion Cafe (Addisu Gebeya),0,node/7084255335,,38.733166
9.0653883,Total (Dil Ber),0,node/7084255336,,38.7327389
9.0337517,Ummar School,0,node/7084722454,,38.7405402
9.0341036,Autobus Tera,0,node/7084722456,,38.7337992
9.0341305,Gojam Berenda (Tefera Buillding),0,node/7084722457,,38.7418327
9.0404538,Dej. Wube (Ras Abebe School),0,node/7084722458,,38.7533374
9.0440672,Wube Bereha,0,node/7084722459,,38.7544994
9.0515491,Menen,0,node/7084722460,,38.7588473
9.0584002,Tsehay Chora (ShiroMeda),0,node/7084722461,,38.7598297
9.0274958,Sebategna (Taem Bakery),0,node/7084873006,,38.7332661
9.0188835,Mola Maru (Jos Hansen),0,node/7084873007,,38.7380924
9.0167149,Geja Sefer (Darmar),0,node/7084873008,,38.7382054
8.9856954,Kera (Green Market),0,node/7084873009,,38.7486804
8.9841757,Kera (Mexico Stop),0,node/7084873010,,38.7518917
8.9824212,MOHA (Pepsi Factory),0,node/7084873011,,38.7560749
8.9547202,Saris (Shoa Bakery),0,node/7084873012,,38.7635412
8.9844206,Kera (Saris Stop),0,node/7084873013,,38.7509324
9.002055,Guenet Hotel (Orbis),0,node/7084873014,,38.7469466
9.0111972,St. Lideta Church,0,node/7084873015,,38.736541
9.0192478,Abenet (Joshansen),0,node/7084873016,,38.733649
8.9951157,Canada Embassy,0,node/7084932737,,38.7373207
8.9973163,Mechare Meda,0,node/7084932738,,38.7311778
8.9892732,Bisrate Gebrael,0,node/7084932739,,38.7239615
8.9850622,Zenebework (Crossing),0,node/7084932740,,38.705264
8.9838697,Ayer Tena (Alemu Abera),0,node/7084932741,,38.6960209
8.9917639,Kidane Mihret (Roundabout),0,node/7084932742,,38.6887357
8.9910254,Kidane Mihret (2),0,node/7084932743,,38.690106
8.9834187,Ayer Tena (Alemu Abera),0,node/7084932744,,38.6967733
9.0056187,Augusta Bridge (Tor Hailoch),0,node/7084932745,,38.7185689
9.0114539,Mexico,0,node/7084932747,,38.7445753
8.9839859,Goro Roundabout,0,node/7098810331,,38.8285018
8.9678887,Kotebe Shet',0,node/7098810332,,38.8370059
8.9585287,Bole Lemi,0,node/7098810333,,38.8352869
8.9405669,Endorro 2,0,node/7098810334,,38.8219339
8.9007946,kilinto Right (Heniken),0,node/7098810335,,38.8152364
8.8947925,Koye Feche 4,0,node/7098810336,,38.8240221
8.8925887,Koye Feche 3,0,node/7098810337,,38.8277372
8.896302,Koye Feche 2,0,node/7098810338,,38.8313712
8.9837967,Goro Roundabout,0,node/7098810340,,38.8289328
8.9678046,Kotebe Shet',0,node/7098810341,,38.8374461
8.9573187,Bole Lemi,0,node/7098810342,,38.8354629
8.9393928,Endorro 2,0,node/7098810343,,38.8217947
8.9307029,Endorro 1,0,node/7098810344,,38.820007
8.9005132,kilinto (Heniken Brewery),0,node/7098810345,,38.8155747
9.0192718,Gurd-shola,0,node/7098833728,,38.8196082
9.021924,Civil Service College,0,node/7098833729,,38.8331381
9.021617,St. Michael,0,node/7098833730,,38.8400876
9.0193173,Sunshine Apartments,0,node/7098833731,,38.8524287
9.0019915,Gomista,0,node/7098833732,,38.8575794
8.9918735,Hasset Photo,0,node/7098833735,,38.8588022
9.0190988,Sunshine Apartments,0,node/7098833736,,38.8521013
9.0208488,CMC (Apartments),0,node/7098833737,,38.8504565
9.0213567,St. Michael,0,node/7098833738,,38.8401568
9.0337594,Merkato,0,node/7102193971,,38.7312293
9.0338552,Mesalemia (Area Police),0,node/7102193972,,38.7254909
9.0332635,Luwkanda,0,node/7102193973,,38.7086533
9.0338494,Comprensive,0,node/7102193974,,38.7049566
9.031909,Gefersa,0,node/7102193975,,38.642409
9.0563274,Gojo (Kela),0,node/7102193976,,38.6117467
9.0560454,Gojo (Kela),0,node/7102193977,,38.6120244
9.0375371,Gefersa (2),0,node/7102193978,,38.6265192
9.0356795,Gefersa,0,node/7102193979,,38.6329501
9.0328635,Ashewa Meda (1),0,node/7102193980,,38.6674596
9.0286003,Kersa (1),0,node/7102193981,,38.6760437
9.0343761,Feli Doro (2),0,node/7102193982,,38.687173
9.0344498,Mesalemia,0,node/7102193983,,38.7244946
9.0338637,Merkato,0,node/7102269985,,38.7312074
8.9821491,Ayer Tena,0,node/7103202615,,38.6977085
8.9647174,German Bridge,0,node/7103202616,,38.7316085
8.9470109,Mebrathile (EEPCo),0,node/7103202617,,38.7342372
8.9444277,Saris Abo,0,node/7103202619,,38.7692016
8.944353,Saris Abo,0,node/7103202620,,38.7666082
8.9336411,Kality Maseltegna,0,node/7103202621,,38.7645892
8.930547,Hana Mariam (Bridge),0,node/7103202622,,38.7550031
8.9653607,Mickael Bridge,0,node/7103202623,,38.72738
8.9820533,Ayer Tena,0,node/7103202625,,38.6976219
9.0323651,Bel Air,0,node/7104888674,,38.7729637
9.0211237,CMC (Apartments),0,node/7105158906,,38.8506098
9.0462589,Tafo Condominium 2,0,node/7105158907,,38.8774831
9.0502639,Tafo Condominium 1,0,node/7105158908,,38.8775457
8.9593839,Mebrat (Lafto),0,node/7105268824,,38.7490031
8.9587047,Dildiy Mariam,0,node/7105268825,,38.7497551
8.9537745,Lafto (Mickael),0,node/7105268826,,38.7504407
8.9465504,Lafto,0,node/7105268828,,38.7493803
8.9558865,Lafto (Primary School),0,node/7105268830,,38.7450783
9.0184923,Post Office (Ambassador),0,node/7105398617,,38.753418
9.0461705,6 kilo (University),0,node/7105398618,,38.7614232
9.0522977,Teferi Mekonen,0,node/7105398619,,38.7623138
9.022269,Marathon Motor (Megenagna),0,node/7105584907,,38.7999868
9.0332665,Tourist Hotel (4 Kilo),0,node/7105584908,,38.762507
9.0341288,Piassa Arada,0,node/7105584909,,38.7532588
9.0332715,Tourist Hotel (4 Kilo),0,node/7105584911,,38.7625094
9.0289345,Abebe Sook,0,node/7105584912,,38.7888307
9.0358919,Abune Petros,0,node/7105840324,,38.7492708
9.0424895,Yohannes,0,node/7105840325,,38.745898
9.0472271,Arbegnoch Primary School,0,node/7105840326,,38.7421685
9.0485317,Enqulal Fabrica,0,node/7105840327,,38.7376837
9.0434044,Yohannes,0,node/7105840330,,38.7450108
9.0481067,Enqulal Fabrica,0,node/7105840331,,38.7373533
8.9209066,Sefera,0,node/7107670562,,38.7350351
8.94963,Mebrathile (EEPCo),0,node/7107670563,,38.7332384
8.9829863,Mekanisa Abo,0,node/7107670564,,38.7341183
8.9606298,Jemmo 2,0,node/7107789218,,38.6879228
9.0319297,Piassa (Downtown Cafe),0,node/7107789219,,38.7511477
8.9605732,Jemmo 2,0,node/7107789220,,38.6878636
8.9860956,Kera,0,node/7108224469,,38.7483037
9.0166264,6th (Raddison Blu),0,node/7110438104,,38.7675202
9.0171928,Kazanchis (6th),0,node/7110438105,,38.7701955
9.0231177,Aware Roundabout,0,node/7110438106,,38.7758778
9.0234853,Signal,0,node/7110438107,,38.7815333
9.0221973,Dinberwa Hospital,0,node/7110438108,,38.7867845
9.0212061,Lem Hotel,0,node/7110438109,,38.7940254
9.022362,Lamberet (Queens),0,node/7110438110,,38.8157252
9.0348925,Kotebe 01,0,node/7110438111,,38.8281186
9.0349074,Kotebe 01,0,node/7110438113,,38.8281855
9.0217059,Shola (United Bank),0,node/7110438114,,38.7948696
9.021194,Sumeya Mosque,0,node/7110438115,,38.792498
9.023369,Signal,0,node/7110438116,,38.7815645
8.9104302,Kality Gebriel,0,node/7110725239,,38.7640618
8.9572931,Addis Sefer (Overpass),0,node/7110725240,,38.7673729
8.9799499,Bole Mickael (2),0,node/7110725241,,38.7723221
8.9867261,Bole Bridge,0,node/7110725242,,38.7903601
8.9948785,MOENCO,0,node/7110725243,,38.7957512
9.0009401,Sport Academy,0,node/7110725244,,38.7988652
9.0077883,Anbessa Garage,0,node/7110725245,,38.8030776
9.0158283,IVECO,0,node/7110725246,,38.8026698
9.0076034,Anbessa Garage,0,node/7110725247,,38.8032793
9.0037859,Emperial Hotel,0,node/7110725248,,38.8009424
8.9950941,MOENCO,0,node/7110725249,,38.7961036
8.9910443,Bole (Bora Amusement),0,node/7110725250,,38.7946816
8.9795995,Bole Mickael (2),0,node/7110725251,,38.7721474
8.9603711,Addis Sefer,0,node/7110725252,,38.7676814
8.9458024,Saris Abo,0,node/7110725253,,38.7692055
8.9234126,Kality (Correctional Facility),0,node/7110725254,,38.7648588
8.8959395,Kality Meneharia,0,node/7110725256,,38.7718808
9.0354591,4 Kilo (Berhan Selam Printing),0,node/7111821010,,38.7588358
9.0325113,Piassa (EPPCO),0,node/7111821011,,38.7538404
9.0317457,Autobis Tera (Adarash),0,node/7111821013,,38.7374552
9.0301828,Autobis Tera (Adarash),0,node/7111821015,relation/10550061,38.7373348
9.0216842,Dinberwa Hospital (1),0,node/7111821016,,38.7887833
9.0301871,Autobis Tera (Adarash),0,node/7112123456,relation/10550061,38.7373419
9.0374496,Chid Tera,0,node/7112123457,,38.7215949
9.0294949,Mebrathail,0,node/7112123458,,38.7149359
9.0173854,Kolfe Keranyo,0,node/7112123459,,38.7177803
9.0193846,Keranio Bridge,0,node/7112123460,,38.708993
9.0170237,Kolfe Keranyo,0,node/7112123462,,38.7176821
9.0370321,Abysinia Coffee,0,node/7112123463,,38.7163686
9.0376714,Chid Tera,0,node/7112123464,,38.7208971
8.9998854,Old Airport (Mobil),0,node/7112215078,,38.7188624
9.008471,Minaye (Shoa Supermarket),0,node/7112215079,,38.7196192
9.0208524,Holand,0,node/7112215080,,38.7158287
9.0361682,18 Mazoria (Atena Tera),0,node/7112215081,,38.7141478
9.0409736,Atena Tera,0,node/7112215082,,38.7125982
9.0491202,Winget TVET,0,node/7112215083,,38.7116581
9.0555289,Winget,0,node/7112215084,,38.7124575
9.0494004,Winget TVET,0,node/7112280389,,38.7117843
9.0448145,kolfe (Atena Tera),0,node/7112280390,,38.7122352
9.0414434,Atena Tera,0,node/7112280391,,38.712721
9.0362317,18 Mazoria (Atena Tera),0,node/7112280392,,38.7143961
9.0244809,Meseret Edget,0,node/7112280393,,38.7152453
9.0056155,Augusta Bridge (Tor Hailoch),0,node/7112280394,,38.7188519
8.8596281,Mahiber Betoch,0,node/7112648156,,38.8146269
8.865212,Project 12 Akababi,0,node/7112648157,,38.8210444
8.8701237,G7 (Tulu Dimtu),0,node/7112648158,,38.8204129
8.871336,Belay Ab Moters,0,node/7112648159,,38.7965426
8.8797285,Gelan Condominium,0,node/7112648160,,38.7794514
8.894811,Kality Total,0,node/7112648161,,38.7728422
8.8973286,Akaki Subcity Office (Menaheria),0,node/7112648162,,38.770309
8.9224149,Kality (Correctional Facility),0,node/7112648163,,38.7641522
8.9281178,Techtra Engineering,0,node/7112648164,,38.7676362
8.9572677,Adey Abeba,0,node/7112648165,,38.7637599
8.9323914,Kality Maseltegna,0,node/7112648166,,38.7669427
8.9298175,Wehalemat,0,node/7112648167,,38.768315
8.8837788,Awash Bank (Akaki Kality),0,node/7112648168,,38.7768426
8.8799589,Gelan Condominium,0,node/7112648169,,38.7793211
8.8716847,Belay Ab Moters,0,node/7112648170,,38.7963837
8.8675171,Belay Ab Moters (Alem Bank),0,node/7112648171,,38.798439
8.8705655,TAF Oil (Tulu Dimtu),0,node/7112648172,,38.8091005
8.9580023,Addis Sefer (NFSL W09),0,node/7112755336,,38.7723166
8.9590585,Addis Sefer,0,node/7112755337,,38.7710152
9.0278217,Teklehaymanot,0,node/7112755338,,38.7439418
9.0314996,Merkato (Dubai Tera),0,node/7112755340,,38.7376384
9.0308454,Merkato (Dubai Tera),0,node/7112755342,,38.7381207
9.0194238,Meteorology,0,node/7112755343,,38.7468282
9.0148435,Sengatera,0,node/7112755344,,38.7468427
8.9587021,Addis Sefer,0,node/7112755345,,38.7706049
9.0462468,Girum Hospital,0,node/7113004009,,38.7199737
9.0509733,Ras Hailu (Medhanialem),0,node/7113004010,,38.7211613
9.0572551,Awolia,0,node/7113004011,,38.7114101
9.0640587,Bercheko Fabrica (Asko),0,node/7113004012,,38.6983516
9.0598807,Gulele,0,node/7113004013,,38.70588
9.0507813,Ras Hailu (Medhanialem),0,node/7113004014,,38.7210939
9.040909,Woreda 7 TVET,0,node/7113004015,,38.7212829
9.0380466,Chid Tera,0,node/7113004016,,38.7213725
9.0312199,Autobis Tera (Adarash 2),0,node/7113004018,,38.7365754
9.0426217,Michael (2),0,node/7113004020,,38.73268
9.0485205,Pawlos Hospital (Saba Mosque),0,node/7113004021,,38.7261371
9.0643796,Anbessa Garage (Shegole),0,node/7113004022,,38.7205811
9.0641379,Shegole (Mender 7),0,node/7113004024,,38.7266132
9.0641466,Shegole (Mender 7),0,node/7113004026,,38.726699
9.0589167,Hassen & Hussein Mosque (Shegole),0,node/7113004027,,38.7189551
9.0548351,Shegole Bank,0,node/7113004028,,38.7198445
9.0409541,Michael,0,node/7113004029,,38.7321449
9.0652655,Eyesus,0,node/7113158623,,38.7712666
8.9931107,Wello Sefer,0,node/7122983960,,38.7741153
8.9891423,Kassech Kitfo,0,node/7122983961,,38.7720567
8.9855755,Ambasel,0,node/7122983962,,38.7679985
8.9840055,WAGGA (Singer Liquior Store),0,node/7122983963,,38.7662234
8.9814923,Wengalawit,0,node/7122983964,,38.7635127
8.9817105,Wengalawit,0,node/7122983968,,38.7636059
8.9857381,MEDCO,0,node/7122983969,,38.7680101
8.98977,Tebaber Berta,0,node/7122983970,,38.7723942
8.9930626,Wello Sefer,0,node/7122983972,,38.7739711
9.0113972,Beshale Area,0,node/7123180286,,38.8356151
9.0185063,Megenagna,0,node/7123180287,,38.802106
9.0111777,Jacros,0,node/7123180289,,38.821148
9.0100121,Safari,0,node/7123180290,,38.8526604
9.0116739,Safari (Summit),0,node/7123180291,,38.8657082
9.0115148,Safari (Summit),0,node/7123180293,,38.8657494
9.0099646,Safari,0,node/7123180295,,38.8513684
9.011279,Beshale Area,0,node/7123180296,,38.8356503
9.0189315,Gurd Shola,0,node/7123180297,,38.8201425
9.0194519,Megenagna,0,node/7123180298,,38.803506
8.9882804,Meskel Flower,0,node/7123265052,,38.7650036
8.9911645,Loza (Adot),0,node/7123265053,,38.7659652
8.9934001,Nazra Hotel,0,node/7123265054,,38.7663984
8.9959487,Yetam Hotel,0,node/7123265055,,38.7666123
8.9980982,Kebele Kibeb,0,node/7123265056,,38.7667571
8.9999844,Mulu Shewa (Gazebo),0,node/7123265061,,38.7669271
8.9979306,Kebele Kibeb,0,node/7123265062,,38.7668423
8.9959132,Yetam Hotel,0,node/7123265063,,38.7667132
8.9937071,Nazra Hotel,0,node/7123265064,,38.7665439
8.9910552,Loza (Adot),0,node/7123265065,,38.7660467
8.9885268,Meskel Flower,0,node/7123265066,,38.7652457
8.9921561,Total 3 Kuter Mazoria,0,node/7182111861,,38.7180191
8.9865485,kera,0,node/7182111862,,38.7466164
8.8967488,Kality Menaheriya,0,node/7214490241,,38.7708485
8.9943894,3 Kutir (TZNA Area),0,node/10672961242,,38.717673
9.011721,Lideta High Court,0,node/10672961244,,38.733585
8.9839135,Ayer Tena Wereda 1,0,node/10750378219,,38.7024743
8.9925223,Sar Bet,0,node/10755917239,,38.7394551
8.9924619,Sar Bet,0,node/10755917241,,38.7392871
8.986057,kera,0,node/10755917242,,38.7471398
8.9900132,Kera,0,node/10755917243,,38.7418629
8.995096,Sar Bet,0,node/10755917244,,38.7376124
8.9973975,karl Square,0,node/10755917245,,38.7309965
8.9970773,karl Square,0,node/10755917246,,38.7302642
8.9927368,Bisrate Gebrael,0,node/10755917247,,38.7268512
8.9914228,Bisrate Gebrael,0,node/10755917248,,38.7255644
8.9888937,Bisrate Gebrael,0,node/10755917249,,38.7226976
8.9922875,Total 3 Kuter Mazoria,0,node/10755917250,,38.7175917
8.8967652,kality Meneharia,0,node/10766121857,,38.7708737
8.9319554,kality Maseltegna,0,node/10766121859,,38.7669453
8.9632423,Kadisco Roundabout,0,node/10766121860,,38.7668102
8.9816305,Bole Mickael,0,node/10766121861,,38.7761571
8.9966149,Bole Printing Press,0,node/10766121862,,38.7721247
9.0100526,Flamingo,0,node/10766121863,,38.7634141
9.0125659,St. Estifanos,0,node/10766121864,,38.7626278
9.035146,4 Kilo (Menlik),0,node/10766121865,,38.7629874
9.0352952,4 Kilo (Menlik),0,node/10766121866,,38.7631121
9.0214342,Place Parking (Gibi Gebriel),0,node/10766121867,,38.7641345
9.01014,Flamingo,0,node/10766121868,,38.7636218
8.9944147,Wollo Sefer,0,node/10766121869,,38.7743234
8.9813203,Bole Mikael,0,node/10766121871,,38.7765268
8.9737518,Mamo (Nifas Silk),0,node/10766121872,,38.765481
8.9321192,kality Maseltegna,0,node/10766121873,,38.7670877
8.8957067,kality Meneharia,0,node/10766121874,,38.7721261
9.0056744,Olympia,0,node/10766454593,,38.7674734
8.9867247,Bole Roundabout,0,node/10766454594,,38.7908923
9.003043,African Union,0,node/10768858718,,38.7411322
9.0296176,Autobis Tera Adarash,0,node/10768858719,,38.7370362
9.0026517,Guenet Hotel (Orbis),0,node/10768858720,,38.7470064
8.9837078,Kera (Gofa Stop),0,node/10768858721,,38.750024
8.9813388,Kera (Gofa Road),0,node/10768858722,,38.7496962
8.9651822,German Square,0,node/10768858723,,38.7340469
9.0239162,Lamberet Menaheria,0,node/10781643820,,38.8198728
9.0322896,4 kilo (Children Theatre),0,node/10781643821,,38.7650098
9.0328365,4 kilo (Children Theatre),0,node/10781643822,,38.7666152
9.0325481,Bel Air,0,node/10781643823,,38.7736753
9.0344084,Kebena,0,node/10781643824,,38.7768069
9.0350794,Kokebe Tsebah (Kebena),0,node/10781643825,,38.7794124
9.0324942,Kenya Embassy (Kebena),0,node/10781643826,,38.7823515
9.0309005,British Embassy,0,node/10781643827,,38.785575
9.0289673,Abebe Sook,0,node/10781643828,,38.7888226
9.0251295,Shola (Yeka Court),0,node/10781643829,,38.7947497
9.0232585,Shola Abyssinia Bank,0,node/10781643830,,38.7984062
9.0224046,Megenagna (Marathon Motors),0,node/10781643831,,38.7997354
9.0208971,Megenagna,0,node/10781643832,,38.8010368
9.0208722,Megenagna (Israel Embassy),0,node/10781643833,,38.8048559
9.0240444,Lamberet Menaheria,0,node/10781643834,,38.8199227
9.0297042,Kotebe,0,node/10781643835,,38.836729
9.0304539,Kotebe,0,node/10781643836,,38.8385612
9.0348007,Kotebe Teachers College,0,node/10781643837,,38.8490303
9.0363204,Kotebe Gebriel,0,node/10781643838,,38.8553365
9.0358505,Kotebe Gebriel,0,node/10781643839,,38.8541265
9.032918,Wessen Grocery,0,node/10781643840,,38.8443436
9.0407203,Kara,0,node/10781643841,,38.8648947
9.0411416,Kara,0,node/10781643842,,38.8653607
9.0287927,Abebe Sook,0,node/10781844855,,38.788672
9.0313214,British Embassy,0,node/10781844856,,38.7843424
9.038677,5 Kilo St. Mary,0,node/10781844857,,38.7623866
9.0462129,6 Kilo University,0,node/10781844858,,38.7614003
9.0462072,6 Kilo University,0,node/10781844859,,38.7615945
9.0430896,6 Kilo (Lion Zoo),0,node/10781844860,,38.7615002
9.032679,Kenya Embassy (Kebena),0,node/10781844861,,38.7826601
9.0250431,Shola (Yeka Court),0,node/10781844862,,38.7953847
9.0225097,Megenagna (Marathon Motors),0,node/10781844863,,38.7998471
9.0381854,Yeka 03,0,node/10823916391,,38.8773834
8.931276,Sefera Atkilt Tera,0,node/10842065101,,38.7341685
8.9358559,kality Maseltegna,0,node/10842065103,,38.7646885
8.9948043,Bulgaria,0,node/10842065104,,38.7478806
8.9379429,Kality Customs,0,node/10842129005,,38.7628904
8.9644696,Germen Square,0,node/10842129006,,38.7330813
8.93579,Hana Mariam,0,node/10842129008,,38.7441345
8.9373819,Gomista,0,node/10842129009,,38.7703639
8.948706,Nigd bank,0,node/10842129010,,38.780123
8.9342123,kality Maseltegna,0,node/10842129011,,38.7642814
8.9310906,Kadisco,0,node/10842129012,,38.7585214
8.9582797,Adey abeba,0,node/10842129013,,38.7638648
8.9457865,Saris abo,0,node/10842129015,,38.7690665
8.93876,Haile Garment,0,node/10842129016,,38.7345583
8.9546992,Saris,0,node/10842129017,,38.7635479
9.0106878,St. Joseph School,0,node/10842129018,,38.7590073
8.9834477,Bole Cargo,0,node/10842129019,,38.7819099
8.9944221,Bulgaria,0,node/10842129020,,38.7483448
8.9482742,Kore,0,node/10842129021,,38.7765022
8.9444276,Saris Abo,0,node/10842129022,,38.7691994
8.8973782,Kality Menaheria,0,node/10842129023,,38.7704449
8.9254109,Sefera Square,0,node/10842129024,,38.7340982
9.009032,Mexico,0,node/10842129025,,38.7463895
8.9092945,Kality Gebriel,0,node/10842129026,,38.7644698
8.8869211,Derartu,0,node/10842129027,,38.7821218
8.9836884,Bole Cargo,0,node/10842129028,,38.7818039
8.8948904,Kality Total,0,node/10842129029,,38.7729402
8.9927142,Noc,0,node/10842129030,,38.748144
8.9901397,Lancha,0,node/10842129031,,38.7590821
8.9375158,Haile Garment,0,node/10842129032,,38.7359129
8.9880834,Agona,0,node/10842129033,,38.759633
8.9336549,kality Maseltegna,0,node/10842129034,,38.7646465
8.9417644,Mesqelegna,0,node/10842129035,,38.7214531
9.0061765,መሿለኪያ,0,node/10842129036,,38.7586311
8.9537651,Jemo,0,node/10842129037,,38.6979529
8.9577771,Adey abeba,0,node/10842129038,,38.7640443
8.9448318,Saris Abo,0,node/10842129040,,38.7661797
8.9457862,Mebrat hayle,0,node/10842129041,,38.7343973
8.9633984,Kadisco,0,node/10842129042,,38.7669226
8.9356798,Hana Mariam,0,node/10842129043,,38.7453864
8.9729895,Mamo (NFSL),0,node/10842129045,,38.7609585
8.9490785,Medhani alem,0,node/10842129046,,38.7785848
8.9047633,Mosque (Mesged),0,node/10842129047,,38.7660661
8.9093265,Kality Gebriel,0,node/10842129048,,38.7645559
8.9859342,Bole Roundabout,0,node/10842129051,,38.7888143
8.9295556,Wuhalimat,0,node/10842129052,,38.7681435
8.9361549,Hana Mariam,0,node/10842129053,,38.7445142
8.9797944,Bole Mickael,0,node/10842129054,,38.7719673
8.9192813,Sheger building,0,node/10842129055,,38.7635639
8.9705748,Yoseph,0,node/10842129056,,38.7668114
8.9947898,Bulgaria,0,node/10842129057,,38.7477478
8.9470316,Mebrathayil,0,node/10842129058,,38.7342346
8.9250202,Sefera Square,0,node/10842129059,,38.7346011
9.0000494,Tele Garage,0,node/10842129060,,38.758701
8.9469179,Mebrathayil,0,node/10842129061,,38.7339445
8.9376734,Haile garment,0,node/10842129062,,38.7335906
9.0058652,Meshualekia,0,node/10842129063,,38.758986
8.8886505,Akaki Stadium,0,node/10842129064,,38.7759035
8.9571801,Adey abada,0,node/10842129066,,38.7640108
8.9755358,Menaheria (Zenebu Werk),0,node/10842129069,,38.706617
8.9602509,Adis sefer,0,node/10842129070,,38.767446
8.930883,Kadisco,0,node/10842129071,,38.758758
8.993831,Bulgaria,0,node/10842129072,,38.7478486
8.9661182,Kadisco,0,node/10842129073,,38.7627716
8.9517202,Bulbula,0,node/10842129074,,38.7861393
8.966096,Kadisko,0,node/10842129075,,38.7629867
8.9444437,Saris abo,0,node/10842129076,,38.7700795
8.8758561,Meshualekya,0,node/10842129077,,38.7874349
8.9871416,Agona,0,node/10842129078,,38.7597928
8.9771026,Gotera chaf,0,node/10842129079,,38.7595824
8.9528149,Saris,0,node/10842129080,,38.7633358
9.0106804,St. Joseph School,0,node/10842129082,,38.7593422
8.9321621,Kotari Condominium,0,node/10842129083,,38.7338312
8.9732793,Mamo,0,node/10842129084,,38.7652695
8.9448603,Saris Abo,0,node/10842129085,,38.7664084
8.9705442,Yosef,0,node/10842129086,,38.7665547
8.9068482,Kality Cheralia,0,node/10842129088,,38.7654586
8.9066965,Kality Cheralia,0,node/10842129089,,38.7653555
8.9906489,Lancha,0,node/10842129090,,38.7593009
8.9375024,Gomista,0,node/10842129091,,38.7701062
8.9375082,Haile Garment,0,node/10842129092,,38.7331196
9.0001174,Tele Garage,0,node/10842129093,,38.7584826
8.8840683,Selam Building,0,node/10842129094,,38.7767083
8.9453322,Medhani alem,0,node/10842129095,,38.7769101
8.8832033,Selam Building,0,node/10842129096,,38.7771627
8.8758518,Meshualekya,0,node/10842129097,,38.7872182
8.9531876,Saris,0,node/10842129098,,38.7635911
8.963723,Germen adebabay,0,node/10842129102,,38.7328242
8.972508,Mamo (NFSL),0,node/10842129103,,38.7607874
8.9875165,Kera,0,node/10842129105,,38.7486365
8.9867627,Agona,0,node/10842129106,,38.7599766
8.9446574,Saris abo,0,node/10842129107,,38.7701231
8.9860883,Kera,0,node/10842129108,,38.7483211
8.9952226,Temenja yasi,0,node/10842129109,,38.7598723
8.8790966,Gelan Condominium,0,node/10842129110,,38.7666013
8.9953066,Temenja yasi,0,node/10842129111,,38.7596133
9.0041803,Riche,0,node/10842129112,,38.7588933
8.9368154,Haile garment,0,node/10842129113,,38.7364242
8.9795749,Bole Mickael,0,node/10842129114,,38.7720906
8.893305,Kality,0,node/10842129115,,38.7739681
8.9835322,Ayer Tena,0,node/10842129116,,38.6971287
8.9537239,Jemo,0,node/10842129117,,38.6977027
9.0052072,Land mark,0,node/10842129118,,38.7467544
8.9411484,Meskelegna,0,node/10842129119,,38.7218311
8.9381771,Haile Garment,0,node/10842129120,,38.7349153
9.0040548,Riche,0,node/10842129121,,38.7586909
8.9476648,Kore,0,node/10842129122,,38.7841911
8.8770203,Meshualekya,0,node/10842129124,,38.7866008
8.9518942,Bulbula,0,node/10842129125,,38.7863461
8.9357353,kality Maseltegna,0,node/10842129126,,38.7643342
8.9572678,Adey abada,0,node/10842129128,,38.763701
8.9457601,Saris abo,0,node/10842129129,,38.7692278
8.9603252,Addis sefer,0,node/10842129131,,38.7676873
8.9352291,Hana mariam,0,node/10842129132,,38.744852
8.9866879,Kera,0,node/10842129133,,38.7484325
8.9757898,Gotera chaf,0,node/10842129134,,38.7601404
8.8972852,Akaki Subcity Office (Menaheria),0,node/10842129135,,38.770318
8.9411922,Condominium,0,node/10842129136,,38.7717099
8.8789992,Gelan Condominium,0,node/10842129137,,38.7666701
8.9295931,Wuhalimat,0,node/10842129139,,38.7683276
9.0098761,Mexico,0,node/10842129140,,38.7461882
9.0312472,Grand Anwar Mosque,0,node/10845731573,,38.7413343
9.0247282,kebele 11,0,node/10845731574,,38.7457773
9.0028738,Guenet hotel,0,node/10845731575,,38.7468651
8.9923344,Lancia,0,node/10845731576,,38.7589891
8.9825134,Pepsi,0,node/10845731577,,38.755826
8.9919399,Lancia,0,node/10845731578,,38.7591215
9.0279893,Tekle Haimanot,0,node/10845731579,,38.7438378
8.9441872,Saris Abo,0,node/10845731580,,38.7666459
9.0120319,Legehar,0,node/10845731581,,38.7544517
8.9840808,Kera,0,node/10845731582,,38.7521404
8.9380577,Kality Customs,0,node/10845731583,,38.7631799
9.0342603,Gojam Berenda,0,node/10845731584,,38.7378007
9.0343553,Gojam Berenda,0,node/10845731585,,38.7381021
8.8869148,Derartu,0,node/10845731586,,38.7818893
8.9824223,Pepsi,0,node/10845731587,,38.7557408
8.9943898,Global Hotel,0,node/10845731588,,38.7596457
8.9208636,Sheger Building,0,node/10845731589,,38.7637542
9.0343246,Autobus Tera,0,node/10845731590,,38.734431
9.0027786,Guenet hotel,0,node/10845731591,,38.7469738
9.0279685,Tekle Haimanot,0,node/10845731592,,38.7439714
8.9970419,Beg Tera,0,node/10845731593,,38.7476261
8.9943499,Global Hotel,0,node/10845731594,,38.7598651
8.9223845,Kality Correctional,0,node/10845731595,,38.7641252
8.9029367,Cheralia Factory,0,node/10845731596,,38.7667306
9.0246149,kebele 11,0,node/10845731597,,38.7457421
9.0310422,Grand Anwar Mosque,0,node/10845731598,,38.7414003
9.0165472,National Theatre,0,node/10845731599,,38.7526758
8.95346,Saris,0,node/10845731601,,38.767986
8.9968163,Beg Tera,0,node/10845731602,,38.7475303
9.014753,Sengatera,0,node/10845731603,,38.7468099
9.0096228,Mexico,0,node/10845731604,,38.746301
8.9937615,Bulgaria,0,node/10845749005,,38.7479845
8.8956285,kality Meneharia,0,node/10845840895,,38.7720203
8.9841307,Ayer Tena,0,node/10845840896,,38.6966586
8.9637758,Germen adebabay,0,node/10845840897,,38.7330269
8.8948231,Kality Total,0,node/10846106471,,38.7728316
8.9869946,Bole Bridge,0,node/10881147490,,38.7912092
8.9867302,Bole Bridge,0,node/10881147492,,38.7903563
9.0341009,Autobus Tera,0,node/10883106542,,38.7338003
8.907041,Bajaj Tera,0,node/10886135782,,38.7415025
8.904156,Chera,0,node/10886135783,,38.7479978
8.8772921,Gelan Condominium,0,node/10886135784,,38.7622377
8.8549158,Total,0,node/10886135785,,38.7845626
8.8737817,Tulu Dimtu,0,node/10886135787,,38.8197795
8.8738791,Tulu Dimtu,0,node/10886135789,,38.8202354
8.8709574,G7,0,node/10886135790,,38.820802
8.8541896,Total,0,node/10886135791,,38.7847209
8.8758233,Gelan Condominium,0,node/10886135793,,38.7630121
8.9906055,Bole Bridge,0,node/10886281950,,38.7928534
8.9955183,Bole Medhanyalem,0,node/10886281951,,38.7887705
8.9973425,Edna Mall Squar,0,node/10886281952,,38.7870108
9.0043569,Adey Ababa Stadium,0,node/10886281953,,38.7892817
9.0150262,22 Mazoria,0,node/10886281954,,38.7872566
9.0150056,22 Mazoria,0,node/10886281956,,38.787438
9.0082739,Freedom,0,node/10886281958,,38.7887083
9.0069454,Werku Building,0,node/10886281997,,38.7890587
9.0042976,Adey Ababa Stadium,0,node/10886281998,,38.7893444
8.9977034,Edna Mall Squar,0,node/10886281999,,38.7869491
8.995948,Bole Medhanyalem,0,node/10886282000,,38.7885714
8.9906936,Bole Bridge,0,node/10886282001,,38.7929596
9.0161537,22 Mazoria,0,node/10886427067,,38.7881236
9.017758,Lem Hotel,0,node/10886427068,,38.7950715
9.0198841,Megenagna,0,node/10886427069,,38.8019786
9.0191878,Gurd Shola,0,node/10886427070,,38.8200261
9.0218654,Civil Servis College,0,node/10886427071,,38.8345374
9.0209806,Yetebaberut,0,node/10886427072,,38.8536095
9.0214852,Ayat,0,node/10886427073,,38.8750186
9.0215577,Civil Servis College,0,node/10886427074,,38.8350083
9.0211711,Ayat,0,node/10886427075,,38.8737977
9.0204163,Meshageria,0,node/10886427076,,38.8598848
9.020619,Yetebaberut,0,node/10886427077,,38.8535182
8.9907378,Bole Bora Amusement,0,node/10886883544,,38.7941243
9.0185543,Megenagna,0,node/10886883546,,38.8016982
9.0078296,Anbessa Garage,0,node/10886883547,,38.8034449
9.0037737,Emperial Hotel,0,node/10886883548,,38.8009392
8.9950343,Hayat Hospital,0,node/10886883549,,38.7961015
8.9916604,Bole Bora Amusement,0,node/10886883550,,38.7949793
9.0199832,Sun shine,0,node/10886991025,,38.852562
9.0200202,Megenagna,0,node/10886991026,,38.8042842
9.021578,Meshualekia,0,node/10886991027,,38.841553
9.0110042,Safari,0,node/10886991028,,38.8522797
9.004015,Summit,0,node/10886991029,,38.8519977
9.004282,Summit,0,node/10886991031,,38.8517386
9.010941,Safari,0,node/10886991032,,38.8519018
9.0199154,Sun shine,0,node/10886991033,,38.8520834
9.021324,Meshualekia,0,node/10886991034,,38.8415391
9.021353,Michael,0,node/10886991035,,38.8392942
9.0187135,Gurd Shola,0,node/10886991036,,38.8211275
8.9901805,Bole Bridge,0,node/10887120324,,38.7938037
8.9948468,Hayat Hospital,0,node/10887120325,,38.7956759
9.0001969,Sport Accadamy,0,node/10887120326,,38.798384
9.0027661,Emperial Hotel,0,node/10887120327,,38.8000262
9.0187177,Mulugeta Building,0,node/10887120328,,38.8016319
9.0155127,IVECO,0,node/10889510244,,38.8031146
8.9603848,93 Mazoria,0,node/10890083966,,38.7855121
8.9623057,Kaldisco,0,node/10890083967,,38.7863684
8.9642046,Key Afer,0,node/10890083968,,38.7872114
8.9901805,Bole Bridge,0,node/10890083969,,38.7938037
8.9948468,Hayat Hospital,0,node/10890083970,,38.7956759
8.9642211,Key Afer,0,node/10890290096,,38.7873203
8.9604784,93 Mazoria,0,node/10890290097,,38.785703
8.9581348,Kebele,0,node/10890290098,,38.7875752
9.0080412,Anbessa Garage,0,node/10893030388,,38.8031745
9.0035488,Jacros,0,node/10893030389,,38.8169267
8.9993201,Alem Ayew Building,0,node/10893030390,,38.8210973
8.9923039,Goro,0,node/10893030392,,38.8283586
8.9917123,Goro,0,node/10893030394,,38.8287738
8.9939213,Goro School,0,node/10893030395,,38.8266397
8.9992455,Alem Ayew Building,0,node/10893030396,,38.8210064
9.0035377,Jacros,0,node/10893030397,,38.8166485
8.9999982,Sport Accadamy,0,node/10893030398,,38.7986195
8.9911487,Bole Bridge,0,node/10893030400,,38.7947324
9.0122741,Figa,0,node/10893316186,,38.8336594
9.0110639,Mesgid,0,node/10893316189,,38.8366122
9.0121764,Figa,0,node/10893316190,,38.8335762
8.984658,Bole Mickael,0,node/10898980600,,38.7731313
9.0162838,Ambasader,0,node/10898980601,,38.7551282
9.0069448,Dembel,0,node/10898980602,,38.7662663
9.0123922,Stadium,0,node/10898980603,,38.7586647
9.0192676,Metrology,0,node/10898980604,,38.7466456
9.0217285,Tikur Anbesa,0,node/10898986005,,38.7476072
9.0207753,Tikur Anbesa,0,node/10898986007,,38.7476005
9.0188878,Metrology,0,node/10898986008,,38.7467207
9.0164136,Ambasader,0,node/10898986009,,38.7553118
9.011485,Stadium,0,node/10898986010,,38.760062
9.0038396,Dembel,0,node/10898986011,,38.7686303
8.9979213,Bole Printing Press,0,node/10898986012,,38.7717243
8.9849144,Bole Mickael,0,node/10898986014,,38.7734946
9.0318094,Cinema Ras,0,node/10899009892,,38.7413697
9.0317766,Cinema Ras,0,node/10899009893,,38.7414723
8.992509,Rwanda,0,node/10899150564,,38.7781683
9.0017627,Shewa Dabo,0,node/10899150565,,38.7693116
9.0120704,St. Estifanos Church,0,node/10899150566,,38.7626611
9.0321752,Piassa Arada,0,node/10899150567,,38.7511048
9.0330229,Piassa Arada,0,node/10899150568,,38.7525581
9.0264157,Tewodros Square,0,node/10899150569,,38.7517894
9.0210948,Tikur Anbesa,0,node/10899150570,,38.7522625
9.019064,Post Office,0,node/10899150571,,38.7529153
9.0138467,Ghion Hotel,0,node/10899150572,,38.7576138
8.9885561,Bole Bridge,0,node/10899278324,,38.7897689
8.9908062,Friendship Building,0,node/10899278325,,38.7840796
8.9923825,Rwanda,0,node/10899278326,,38.7798445
8.9908613,Friendship Building,0,node/10899278327,,38.7844715
8.9887169,Bole Bridge,0,node/10899278328,,38.7898626
9.0084115,Anbessa Garage,0,node/10899524535,,38.8038533
9.0049309,Condominium - Gerji Mebrat hayle,0,node/10899524536,,38.8100683
9.0036683,Gerji Mebrat hayle,0,node/10899524537,,38.814209
8.9913434,Goro,0,node/10899524538,,38.8294024
8.900477,kilinto Right,0,node/10899524539,,38.815561
8.875391,Tulu Dimtu,0,node/10899524540,,38.8197599
8.900461,kilinto Right,0,node/10899524542,,38.8150743
8.9912832,Goro,0,node/10899524543,,38.8292469
9.0035919,Gerji Mebrat hayle,0,node/10899524544,,38.8134376
9.0050654,Condominium - Gerji Mebrat hayle,0,node/10899524545,,38.8095948
9.0071868,Anbessa Garage,0,node/10899524547,,38.8055809
9.011198,Mesgid,0,node/10899590290,,38.8364067
8.994461,Saint Georgis,0,node/10899590291,,38.8518486
8.994389,Saint Georgis,0,node/10899590293,,38.8515329
8.9493529,Mebrathile,0,node/10899652823,,38.7332958
8.9556186,Gebriel Bridge,0,node/10899652824,,38.7324445
8.965384,Mickael Bridge,0,node/10899652825,,38.7273491
8.9727473,Zenebewerk,0,node/10899652826,,38.7121031
8.975714,Chaina Camp,0,node/10899652827,,38.7055213
8.981635,Ayer Tena,0,node/10899652829,,38.6982059
8.9385233,Haile Garment,0,node/10901428140,,38.7348966
8.9201595,Sefera,0,node/10901428141,,38.7353205
8.9311784,Sefera Atkilt Tera,0,node/10901428142,,38.7337094
8.9208099,Sefera,0,node/10901428143,,38.734667
8.8870433,Mesalemia,0,node/10901522017,,38.7519617
8.9032086,Chera Medhanilem,0,node/10901522018,,38.7484085
8.935726,Haile Garment,0,node/10901522020,,38.7346387
8.9034769,Chera Medhanilem,0,node/10901522021,,38.7491293
8.8871115,Mesalemia,0,node/10901522022,,38.7524365
8.9530332,Saris,0,node/10901643508,,38.7629397
8.9431476,58 Mazoria,0,node/10901643510,,38.7540078
8.9405222,Kidane Mihret Stebel,0,node/10901643511,,38.7500946
9.0084289,Mexico,0,node/10902267327,,38.7447143
9.0084377,Mexico,0,node/10902267330,,38.7448728
8.9990666,AU (Mikael) Rounrdabout,0,node/10902267332,,38.7393711
8.9990162,AU (Mikael) Rounrdabout,0,node/10902267333,,38.7395668
8.9923567,Sar Bet,0,node/10902267334,,38.7381301
8.9923453,Sar Bet,0,node/10902267335,,38.7383324
8.9822679,Abo Mazoria,0,node/10902267336,,38.7342938
8.9823292,Abo Mazoria,0,node/10902267337,,38.7344209
8.9729293,Mekanisa,0,node/10902267338,,38.7311351
8.9728812,Mekanisa,0,node/10902267339,,38.7312498
8.9555964,Gebriel Bridge,0,node/10902267340,,38.732719
8.9432326,58 Mazoria,0,node/10903393900,,38.7539257
8.9487486,Varnelo Squer,0,node/10903398373,,38.7267004
8.9594798,Jemmo 1,0,node/10903398374,,38.7117668
8.9585188,Jemmo 1,0,node/10903398375,,38.712128
8.9524535,Jemmo Medhanialem,0,node/10903398376,,38.7161087
8.9525568,Jemmo Medhanialem,0,node/10903398377,,38.7162235
8.9490672,Kebele,0,node/10903398378,,38.7221583
8.9491872,Kebele,0,node/10903398379,,38.7221797
8.9488837,Varnelo Squer,0,node/10903398380,,38.7267159
8.9951163,Sar Bet,0,node/10904734315,,38.7373285
8.9936468,Austria Embassy,0,node/10904734316,,38.7276618
8.9922476,Total 3 Kuter Mazoria,0,node/10904734318,,38.7177291
9.0330017,Autobus Tera,0,node/10905160356,,38.7322404
9.033026,Autobus Tera,0,node/10905160357,,38.7323851
9.0282768,Sebategna,0,node/10905160358,,38.7329553
9.0283274,Sebategna,0,node/10905160359,,38.7331326
9.021201,Abenet,0,node/10905160360,,38.7333187
9.0196344,Abenet,0,node/10905160361,,38.7335682
9.0158211,Darmar,0,node/10905160362,,38.7346366
9.0154497,Darmar,0,node/10905160363,,38.7347971
9.0133778,Lideta Condominium,0,node/10905160364,,38.7343382
9.0133623,Lideta Condominium,0,node/10905160365,,38.7345056
9.0094187,Dessie Hotel,0,node/10905160366,,38.7337879
9.0093029,Dessie Hotel,0,node/10905160367,,38.7339331
9.0046165,Lideta,0,node/10905160368,,38.7337058
9.0041332,Lideta,0,node/10905160369,,38.7338158
9.0001611,AU (Mikael) Rounrdabout,0,node/10905160370,,38.7393722
8.9999889,AU (Mikael) Rounrdabout,0,node/10905160371,,38.7400667
8.9840367,Kera,0,node/10905641592,,38.7518774
8.9606229,Jemmo 1,0,node/10905771998,,38.7123799
8.9688439,Jemmo Mickael,0,node/10905771999,,38.7216431
9.0192423,Metrology,0,node/10905772000,,38.7468034
8.9969985,karl Square,0,node/10905772001,,38.7304143
8.9883364,Bisrate Gebrael,0,node/10905772002,,38.7227062
8.9687533,Jemmo Mickael,0,node/10905772003,,38.7218663
8.9604031,Jemmo 1,0,node/10905772004,,38.7124299
8.9493317,Noc,0,node/10905866700,,38.6701812
8.9339514,Alem Gena,0,node/10905876026,,38.6639521
8.933851,Alem Gena,0,node/10905876027,,38.6640124
8.9493415,Noc,0,node/10905876029,,38.670031
8.9538566,Jemmo 3 Squer,0,node/10905876030,,38.6965362
8.9552123,Jemmo 3 Squer,0,node/10905876031,,38.697557
9.0220649,Post Office,0,node/10905982178,,38.7520387
8.9652918,Germen Square,0,node/10905982179,,38.732839
8.9664306,Germen Square,0,node/10905982180,,38.7325545
8.9717027,Gofa,0,node/10906020778,,38.7418952
8.9716231,Gofa,0,node/10906020779,,38.7419996
8.9816221,Ayer Tena,0,node/10906074341,,38.6979766
8.9644965,Germen Square,0,node/10906074342,,38.7320917
8.9646595,Germen Square,0,node/10906074343,,38.732112
8.9883474,Mesked,0,node/10907679395,,38.6922537
8.9913753,Kidane Mihret,0,node/10907679396,,38.6892908
8.9958978,Tropical,0,node/10907679398,,38.683541
9.0003808,Alem Bank,0,node/10907679399,,38.677926
9.0010321,Alem Bank,0,node/10907679400,,38.6776565
8.9957016,Tropical,0,node/10907679401,,38.6841485
8.9915373,Kidane Mihret,0,node/10907679402,,38.689491
8.9884696,Mesked,0,node/10907679403,,38.6925125
8.9757717,Chaina Camp,0,node/10907679404,,38.7060819
8.9730472,Zenebewerk,0,node/10907725405,,38.7121867
8.9655559,Mickael Bridge,0,node/10907725406,,38.7275949
8.9648278,Germen Square,0,node/10907781477,,38.7333383
8.9844811,Kera,0,node/10907781478,,38.7500865
8.9843837,Kera,0,node/10907781479,,38.7502058
8.9770976,Gofa Gebriel,0,node/10907781480,,38.7490157
8.9770919,Gofa Gebriel,0,node/10907781481,,38.7491174
8.9832814,Mekanisa Abo,0,node/10908143594,,38.7343726
8.9830621,Mekanisa Abo,0,node/10908143595,,38.7341531
9.0088673,Mexico,0,node/10908143596,,38.7440188
9.0088181,Mexico,0,node/10908143597,,38.7438
9.0263912,Tewodros Square,0,node/10908191497,,38.7516402
8.9739466,Mekanisa,0,node/10908191498,,38.7321651
8.9738507,Mekanisa,0,node/10908191499,,38.7322539
9.0187971,Post Office,0,node/10908191500,,38.7524753
8.9493572,Mebrathile,0,node/10908661149,,38.7334477
9.0159317,Coca Cola,0,node/10909186645,,38.729496
9.0294352,Merab Hotel,0,node/10909186646,,38.735361
9.0213907,Abenet,0,node/10909186647,,38.7334955
9.0293588,Merab Hotel,0,node/10909186648,,38.7353749
9.016555,Kolfe Keranyo,0,node/10909186649,,38.7180312
9.0203575,Holand,0,node/10909186650,,38.7159578
9.0204824,Holand,0,node/10909186651,,38.7162551
9.017036,Kolfe Keranyo,0,node/10909186652,,38.7176312
9.0171583,Kolfe Keranyo,0,node/10909186653,,38.7179346
9.0122446,Torhayloch,0,node/10909186654,,38.7202541
9.0120497,Torhayloch,0,node/10909186655,,38.7202419
9.0134653,Keranio Mewcha,0,node/10909186657,,38.7097752
9.0133225,Keranio Mewcha,0,node/10909186658,,38.7097861
9.0140592,Mewcha,0,node/10909186659,,38.7049946
9.0139288,Mewcha,0,node/10909186660,,38.7050058
9.0153041,Mendida,0,node/10909186661,,38.699427
9.0151509,Mendida,0,node/10909186662,,38.6995858
9.0037697,Betel,0,node/10909186663,,38.6937692
9.0036921,Betel,0,node/10909186664,,38.6937746
9.0017481,Alem Bank,0,node/10909186665,,38.6775777
9.0016995,Alem Bank,0,node/10909186666,,38.677633
8.9868549,Zenebewerk,0,node/10911198617,,38.7080844
8.9867824,Zenebewerk,0,node/10911198618,,38.7081829
8.9838764,Ayer Tena,0,node/10911198619,,38.6960194
9.0114518,Mexico Shebelle Hotel,0,node/10911242345,,38.7446969
9.0114526,Mexico Shebelle Hotel,0,node/10911242346,,38.7445773
9.0117415,Lideta,0,node/10911242347,,38.7336365
9.0115482,Lideta,0,node/10911242348,,38.7336469
9.001869,Alem Bank,0,node/10911242349,,38.6772002
9.0018954,Alem Bank,0,node/10911242350,,38.6769434
8.9834957,Ayer Tena,0,node/10911695404,,38.7007283
9.0044227,Betel,0,node/10911717876,,38.6943792
9.0043775,Betel,0,node/10911717877,,38.6941796
8.9831049,Ayer Tena,0,node/10911725505,,38.6982237
8.9879977,Zenebewerk,0,node/10912835918,,38.7080303
8.9880219,Zenebewerk,0,node/10912835920,,38.7079594
9.0295143,Mebrat Haile,0,node/10913852032,,38.714679
9.0294826,Mebrat Haile,0,node/10913852033,,38.7149385
9.0334554,18 Mazoria,0,node/10913852034,,38.7146172
9.0334598,18 Mazoria,0,node/10913852035,,38.714468
9.0196268,Abenet,0,node/10913863174,,38.7327435
9.0194053,Abenet,0,node/10913863175,,38.7327231
9.0159095,Coca Cola,0,node/10913863176,,38.7296372
9.0117875,Torhayloch,0,node/10913863177,,38.7222401
9.0096837,Torhayloch,0,node/10913863178,,38.7208808
9.0056583,Augusta Bridge,0,node/10913863179,,38.7185634
9.0055925,Augusta Bridge,0,node/10913863180,,38.7188581
9.0000925,Old Airport,0,node/10913863181,,38.7188599
8.9998426,Old Airport,0,node/10913863182,,38.7191188
8.9932525,3 Kutir Mazoriya (Total),0,node/10913863183,,38.7170227
8.9926315,3 Kutir Mazoriya (Total),0,node/10913863184,,38.7158494
8.9756363,Kara Kore,0,node/10913974717,,38.6817486
8.9754009,Kara Kore,0,node/10913974718,,38.6814504
8.9813701,Gerar,0,node/10913974719,,38.6894126
8.9813486,Gerar,0,node/10913974720,,38.6894421
8.9829716,Ayer Tena,0,node/10913974721,,38.6982009
9.0116587,Mexico,0,node/10914160973,,38.746198
9.0102476,Mexico,0,node/10914160974,,38.7438026
8.987734,Zenebewerk,0,node/10914160976,,38.708928
8.9849086,Zenebewerk,0,node/10914160977,,38.7049751
8.9853381,Zenebewerk Meneharia,0,node/10914680945,,38.7053463
8.9852574,Zenebewerk Meneharia,0,node/10914680946,,38.7056363
9.0417169,Atena Tera,0,node/10914784456,,38.71237
9.0414427,Atena Tera,0,node/10914784457,,38.7127192
9.028352,Tekle Haimanot,0,node/10915613002,,38.7426711
9.0281855,Tekle Haimanot,0,node/10915613003,,38.742622
9.0658063,Asko,0,node/10915905485,,38.6937551
9.065919,Asko,0,node/10915905486,,38.6937141
9.0612502,Chereta,0,node/10915905487,,38.7010467
9.0612523,Chereta,0,node/10915905488,,38.7011727
9.0575666,Gulele Fana,0,node/10915905489,,38.7069671
9.0576638,Gulele Fana,0,node/10915905490,,38.7070447
9.0572628,Awolia,0,node/10915905491,,38.7114229
9.0576104,Awolia,0,node/10915905492,,38.7116493
9.0555179,Winget,0,node/10915905493,,38.7124522
9.0554488,Winget,0,node/10915905494,,38.7127252
9.018116,Kokebe,0,node/10918141989,,38.6993091
9.0178995,Kokebe,0,node/10918141990,,38.6991634
9.0188526,Yeshi Debele,0,node/10918141991,,38.6969603
9.0185642,Yeshi Debele,0,node/10918141992,,38.6971815
9.0177704,Keranio Adebabay,0,node/10918141993,,38.7017975
9.0176675,Keranio Adebabay,0,node/10918141994,,38.7006389
9.0178222,Medhanalem,0,node/10918141995,,38.7049143
9.0175512,Medhanalem,0,node/10918141996,,38.7047128
9.0115804,Torhayloch,0,node/10918245686,,38.7208703
9.0099639,Torhayloch,0,node/10918245687,,38.720685
9.0114229,Torhayloch,0,node/10918314820,,38.7225031
9.0128836,Torhayloch,0,node/10918339958,,38.7206095
9.0118511,Legehar,0,node/10922141942,,38.7544283
9.0691686,Zebera,0,node/10923884107,,38.7174162
9.0630022,Addisu Gebeya,0,node/10923884109,,38.7350114
9.0625854,Addisu Gebeya,0,node/10923884110,,38.7352489
9.0670589,Bera Tera,0,node/10923884111,,38.725597
9.0689759,Zebera,0,node/10923884112,,38.7174444
9.0594889,Addisu Gebeya,0,node/10923941250,,38.7374564
9.059208,Addisu Gebeya,0,node/10923941251,,38.7379019
9.0528165,Semen Mazegaga,0,node/10923941252,,38.7431266
9.0528691,Semen Mazegaga,0,node/10923941253,,38.7432318
9.0483987,Shola,0,node/10923941254,,38.7461562
9.0484505,Shola,0,node/10923941255,,38.7462522
9.0446634,Semen Hotel,0,node/10923941256,,38.7483104
9.0446029,Semen Hotel,0,node/10923941257,,38.7485012
9.0425995,Yohanes,0,node/10923941258,,38.745274
9.0425158,Yohanes,0,node/10923941259,,38.7453414
9.0346843,Eritrea Hotel,0,node/10923941260,,38.7394065
9.0347991,Eritrea Hotel,0,node/10923941261,,38.7393526
9.0552727,Medhanalem,0,node/10924087993,,38.7517928
9.0552482,Medhanalem,0,node/10924087994,,38.7518779
9.0520868,Chelote,0,node/10924087995,,38.7497489
9.0521299,Chelote,0,node/10924087996,,38.7496604
9.0479898,Shola,0,node/10924087997,,38.746423
9.0480732,Shola,0,node/10924087998,,38.7465175
9.0385287,St. George Church,0,node/10924088002,,38.7516855
9.0385651,St. George Church,0,node/10924088003,,38.7518109
9.0365858,Piassa,0,node/10924088004,,38.7522648
9.0341764,Piassa,0,node/10924116805,,38.7533491
9.0650022,Kechenie,0,node/10924116806,,38.7492165
9.0652478,Kechenie,0,node/10924116808,,38.7496684
9.0639755,Shegole,0,node/10924211089,,38.7268465
9.0640548,Shegole,0,node/10924211090,,38.7269586
9.0590346,Rufael,0,node/10924211093,,38.7274953
9.0590438,Rufael,0,node/10924211094,,38.7274376
9.0544658,Tureta Deldy,0,node/10924211095,,38.7329754
9.054531,Tureta Deldy,0,node/10924211096,,38.7330307
9.0492619,Enqulal Fabrica,0,node/10924211097,,38.7377403
9.0492678,Enqulal Fabrica,0,node/10924211098,,38.7378298
9.0444679,Ras Desta,0,node/10924212637,,38.7440337
9.0444022,Ras Desta,0,node/10924212638,,38.7439161
9.0375917,Sebara Babur,0,node/10924212640,,38.7483682
9.0358617,Abune Petros,0,node/10924212641,,38.749271
9.0359205,Abune Petros,0,node/10924212642,,38.7494119
9.04258,Yohanes,0,node/10924212643,,38.7458165
9.0426863,Yohanes,0,node/10924212644,,38.7459326
9.0230837,Shola Abyssinia Bank,0,node/10924342466,,38.79823
9.0307347,British Embassy,0,node/10924342467,,38.7854804
9.0385815,Menlik Hospital,0,node/10924342468,,38.7730502
9.0385052,Menlik Hospital,0,node/10924342469,,38.7728666
9.0437484,6 Kilo,0,node/10924342470,,38.7618512
9.0453786,6 Kilo,0,node/10924342471,,38.7613161
9.0352542,Piassa,0,node/10924981547,,38.7527884
9.0168504,Kazanchis,0,node/10924981836,,38.7714084
9.0167816,Kazanchis,0,node/10924981837,,38.7712817
9.0199981,Meneharya,0,node/10924981839,,38.767286
9.0462061,6 Kilo,0,node/10924981840,,38.7614317
9.046202,6 Kilo,0,node/10924981841,,38.7615616
9.0430636,6 Kilo (Lion Zoo),0,node/10925096455,,38.7613028
9.0509212,Medhanalem,0,node/10925096457,,38.7621679
9.0609308,Shiromeda,0,node/10925096458,,38.7616364
9.0610296,Shiromeda,0,node/10925096459,,38.7618074
9.0350989,Abune Petros,0,node/10925161777,,38.7493321
9.0353615,Abune Petros,0,node/10925161778,,38.7492809
9.0385895,St. George Total,0,node/10925161780,,38.7526253
9.0338335,Raguel Church,0,node/10925161781,,38.7411822
9.0340374,Raguel Church,0,node/10925161782,,38.7413278
9.0352768,Piassa,0,node/10925161783,,38.7491307
9.0350881,Piassa,0,node/10925161784,,38.749266
9.0115722,Mexico,0,node/10925195639,,38.7462619
9.0572967,Winget,0,node/10925695034,,38.7130281
9.0576478,Winget,0,node/10925695035,,38.7136024
9.0630668,Shegole,0,node/10925835130,,38.7201372
9.0630348,Shegole,0,node/10925835131,,38.7202097
9.051016,Medhanalem,0,node/10925835153,,38.7226821
9.0512021,Medhanalem,0,node/10925835154,,38.7228048
9.047368,Pawlos Hospital,0,node/10925835155,,38.7275912
9.0474739,Pawlos Hospital,0,node/10925835156,,38.7277025
9.0462435,Pastor,0,node/10925835157,,38.7306013
9.0460773,Pastor,0,node/10925835158,,38.7305979
9.041653,Michael,0,node/10925835159,,38.7324674
9.0418749,Michael,0,node/10925835160,,38.732621
9.0356953,Autobus Tera,0,node/10925835161,,38.731876
9.0357033,Autobus Tera,0,node/10925835162,,38.731937
8.9844426,Summit Condominiums,0,node/10925946103,,38.8548285
8.9909634,Summit Condominiums,0,node/10925946104,,38.8525995
9.0206981,Meshageria,0,node/10925966505,,38.8598883
9.0212039,Derartu Adebabay,0,node/10925966506,,38.8751635
9.0215357,Derartu Adebabay,0,node/10925966507,,38.8751433
9.0403679,Gebreal,0,node/10925966508,,38.8773377
9.0402783,Gebreal,0,node/10925966509,,38.8778174
9.0556893,Aba Kiros,0,node/10925966510,,38.877831
9.0561133,Aba Kiros,0,node/10925966511,,38.878549
8.9732139,Bole Arabsa,0,node/10926028111,,38.8903446
8.9726241,Bole Arabsa,0,node/10926028112,,38.8904396
8.9932453,Maseltegna,0,node/10926028113,,38.8850892
8.9932023,Maseltegna,0,node/10926028114,,38.8854551
9.0100814,Sun shine,0,node/10926028115,,38.8780839
9.0100956,Sun shine,0,node/10926028116,,38.8779385
9.0215285,Ayat,0,node/10926028117,,38.8770142
8.9875932,Mariam,0,node/10926040103,,38.8848989
8.9875847,Mariam,0,node/10926040104,,38.8852531
9.0212341,Ayat,0,node/10926074605,,38.8767405
8.9910294,Summit Condominiums,0,node/10926094674,,38.8529201
9.0195894,Megenagna,0,node/10926094675,,38.8033659
9.0203394,Megenagna,0,node/10926817920,,38.8038784
9.057063,Tafo Square,0,node/10926817921,,38.8779123
9.0566681,Tafo Square,0,node/10926817922,,38.8780073
9.0021737,Sun shine,0,node/10926849848,,38.8763861
9.0011674,Summit Chafe,0,node/10926849849,,38.8537813
9.0015569,Summit Chafe,0,node/10926849850,,38.8537842
8.9918731,Goro,0,node/10926849851,,38.8299574
8.9917492,Goro,0,node/10926849852,,38.8303339
9.0194791,Se'alite Mihret,0,node/10926896755,,38.8256621
9.0198404,Se'alite Mihret,0,node/10926896756,,38.8254269
9.0109362,Ayat Chefe Condominium,0,node/10926896757,,38.8944977
9.0113892,Ayat Chefe Condominium,0,node/10926896758,,38.8946434
9.0207778,Ayat,0,node/10928177661,,38.8758009
8.9846036,Summit Condominiums,0,node/10928876312,,38.854445
8.9844416,Summit Condominiums,0,node/10928876313,,38.8548242
9.0273248,Tewodros Square,0,node/10929299420,,38.751565
9.0273553,Tewodros Square,0,node/10929299421,,38.7517149
9.0209798,Tikur Anbesa,0,node/10929299422,,38.7480915
9.0105347,Mexico,0,node/10929337801,,38.7449001
9.0119557,Stadium,0,node/10929337802,,38.7559408
9.0121328,Stadium,0,node/10929337803,,38.7559437
9.0195364,Megenagna,0,node/10929412718,,38.8009614
9.0190569,Megenagna,0,node/10929412719,,38.8005907
9.0155693,22 Mazoria,0,node/10929412721,,38.787267
9.0211986,Lem Hotel,0,node/10929694820,,38.7940688
9.0210828,Lem Hotel,0,node/10929694821,,38.7939939
9.0235014,Signal,0,node/10929694822,,38.7815067
9.0233755,Signal,0,node/10929694823,,38.781471
9.0280712,Abuare Gebeya,0,node/10929694824,,38.7718347
9.0279894,Abuare Gebeya,0,node/10929694825,,38.7718123
9.0270034,Tewodros Square,0,node/10929694826,,38.7520638
9.0268625,Tewodros Square,0,node/10929694827,,38.7520149
9.0285216,Tekle Haimanot,0,node/10929694828,,38.744541
9.0284531,Tekle Haimanot,0,node/10929694829,,38.74454
9.020064,Megenagna,0,node/10929694830,,38.8009431
9.0200336,Megenagna,0,node/10929694831,,38.8005994
9.0127448,Torhayloch,0,node/10929752934,,38.7209032
9.0225048,Megenagna,0,node/10931788261,,38.7998465
9.021325,Megenagna,0,node/10931788262,,38.8010821
9.0303308,Kotebe,0,node/10931809323,,38.8385778
9.0284671,Se'alite Mihret,0,node/10931809324,,38.8331547
9.0283689,Se'alite Mihret,0,node/10931809325,,38.833187
9.0216042,Lamberet,0,node/10931809326,,38.8139293
9.0214909,Lamberet,0,node/10931809327,,38.813953
9.0404534,Kara,0,node/10931809328,,38.8642169
9.0404001,Kara,0,node/10931809329,,38.864319
9.0216983,Megenagna,0,node/10931809330,,38.8015712
9.0224128,Megenagna,0,node/10931850027,,38.799743
9.0344299,Kokebe Tsebah (Kebena),0,node/10931850028,,38.7799581
9.036142,4 Kilo,0,node/10931884718,,38.7628341
9.0571169,Ferensay,0,node/10931884719,,38.7769686
9.0570142,Ferensay,0,node/10931884720,,38.7769596
9.0535366,Mezan,0,node/10931884721,,38.7722195
9.0535794,Mezan,0,node/10931884722,,38.7721316
9.0470261,Jan Meda,0,node/10931884723,,38.7690665
9.0471196,Jan Meda,0,node/10931884724,,38.7690208
9.0180915,Megenagna,0,node/10931937848,,38.8021444
8.9633989,Kadisco,0,node/10931937849,,38.766754
9.0347501,Kebena,0,node/10931995346,,38.776629
9.0436018,6 Kilo,0,node/10932040828,,38.7618304
9.0386325,St. George Total,0,node/10932040829,,38.7526555
9.038614,St. George Total,0,node/10932040830,,38.7527659
9.017586,Lem Hotel,0,node/10932115661,,38.7950974
9.0239221,Lamberet,0,node/10932115662,,38.8198719
9.0107294,Mexico,0,node/10932115666,,38.7471433
9.0104411,Mexico,0,node/10932115667,,38.7467607
9.0249902,Shola Gebeya,0,node/10933668851,,38.796095
9.0253078,Shola Gebeya,0,node/10933668852,,38.7963986
9.0290044,Beg Tera,0,node/10933668868,,38.8021516
9.0289126,Beg Tera,0,node/10933668869,,38.802143
9.0315916,Zebera,0,node/10933668870,,38.8093843
9.0314928,Zebera,0,node/10933668871,,38.8094344
9.0355162,Kidane Mihret,0,node/10933668873,,38.818742
9.0355971,Kidane Mihret,0,node/10933668874,,38.8186176
9.0113969,St. Urael Church,0,node/10933970678,,38.7750759
9.0110384,St. Urael Church,0,node/10933970679,,38.7752362
9.004269,Atlas,0,node/10934121405,,38.7797684
9.0041884,Atlas,0,node/10934121406,,38.779678
9.0103387,St. Urael Church,0,node/10934121407,,38.7748368
9.0104642,St. Urael Church,0,node/10934121408,,38.7749361
8.9842694,Kera,0,node/10934142102,,38.7516693
8.9841384,Kera,0,node/10934142103,,38.7516071
9.0324426,4 Kilo,0,node/10934274056,,38.7632997
9.0324401,4 Kilo,0,node/10934274057,,38.7635199
9.012454,St. Estifanos,0,node/10934274058,,38.762845
9.0109591,Buna Ena Shay,0,node/10934274059,,38.7482685
9.0106827,Buna Ena Shay,0,node/10934274060,,38.748215
9.032283,4 Kilo,0,node/10936313832,,38.7645933
9.0323383,4 Kilo,0,node/10936313833,,38.7648081
9.0289759,Sebategna,0,node/10936490562,,38.7321818
9.028913,Sebategna,0,node/10936490563,,38.7322093
9.0258457,Amanuel Total,0,node/10936490564,,38.7211312
9.0258301,Amanuel Total,0,node/10936490565,,38.721144
9.0576027,Winget,0,node/10936621813,,38.7131944
9.0486146,Enqulal Fabrica,0,node/10936724096,,38.7375414
9.0485559,Enqulal Fabrica,0,node/10936724097,,38.7377157
8.9975486,karl Square,0,node/10937101933,,38.731079
9.0441444,6 Kilo,0,node/10937167108,,38.7611528
9.0441155,6 Kilo,0,node/10937167109,,38.7613175
8.9877236,Kera,0,node/10937209934,,38.7484685
9.0652302,Kechenie,0,node/10937271651,,38.7497889
9.0338624,Mesalemia,0,node/10961301939,,38.7254794
9.0339779,Mesalemia,0,node/10961301940,,38.7255313
9.0338527,Merkato,0,node/10961301941,,38.7312096
9.0337645,Merkato,0,node/10961301942,,38.7312282
9.028926,Tekle Haimanot,0,node/10961408041,,38.7433286
9.0264526,Abuare Roundabout,0,node/10961408042,,38.7757907
9.0265186,Abuare Roundabout,0,node/10961408043,,38.7759091
9.0178983,Keranio Adebabay,0,node/10961408397,,38.7007101
9.014972,Mendida,0,node/10961408398,,38.7004401
9.0151204,Mendida,0,node/10961408399,,38.7004576
8.9983425,Bole Medhanyalem,0,node/10963292174,,38.7860616
8.9984526,Bole Medhanyalem,0,node/10963292175,,38.7862416
9.0231558,Weybla Mariam,0,node/10963817572,,38.688451
9.0233344,Weybla Mariam,0,node/10963817573,,38.6882249
9.0159879,22 Mazoria,0,node/10963932669,,38.7889432
8.9884101,Bisrate Gebrael,0,node/10964879159,,38.7226406
9.0333084,Luwkanda,0,node/10970584167,,38.7086432
9.0332835,Luwkanda,0,node/10970584168,,38.7086485
9.0335266,18 Mazoria,0,node/10970584169,,38.7126753
9.0335023,18 Mazoria,0,node/10970584170,,38.7126794
9.0372905,Abysinia Coffee,0,node/10970584171,,38.7164132
9.037294,Abysinia Coffee,0,node/10970584172,,38.7164416
9.0337305,18 Mazoria,0,node/10970748190,,38.7149465
9.0515413,4 Menta Adebabay,0,node/10970748192,,38.7087797
9.0514981,4 Menta Adebabay,0,node/10970748193,,38.7088057
9.0503697,Tero Mosque,0,node/10970748194,,38.7058937
9.0503743,Tero Mosque,0,node/10970748195,,38.7058901
9.0294218,Sebategna,0,node/10970823802,,38.7327781
9.0294686,Sebategna,0,node/10970823803,,38.732906
9.0350955,Piassa Arada,0,node/10970829160,,38.7492677
9.033556,Piassa Arada,0,node/10970912911,,38.7535518
9.0542225,Rufael,0,node/10970912912,,38.6992026
9.0542148,Rufael,0,node/10970912913,,38.6992201
8.9922493,Selefia Mosque,0,node/10973319411,,38.6737826
8.9922388,Selefia Mosque,0,node/10973319412,,38.6737682
9.0343357,Piassa Arada,0,node/10973319413,,38.7498429
9.0343492,Piassa Arada,0,node/10973319414,,38.749831
9.0610285,Shiromeda,0,node/10973319416,,38.7606274
9.0610076,Shiromeda,0,node/10973319417,,38.760666
8.8697296,Akaki Gebeya,0,node/10973446898,,38.7886493
8.8697306,Akaki Gebeya,0,node/10973446899,,38.7886284
8.8769656,Meshualekya,0,node/10973446900,,38.7865309
8.9482942,Mebrathayil,0,node/10973631794,,38.734517
8.9481457,Mebrathayil,0,node/10973631795,,38.7344951
8.9473757,Lafto,0,node/10973631797,,38.7443373
8.8668288,Yeshi Total,0,node/10973672014,,38.7987757
8.866829,Yeshi Total,0,node/10973672015,,38.798782
9.0206661,Megenagna,0,node/10973929780,,38.8028464
9.0339313,Biretabret,0,node/10973929781,,38.8234705
9.0375694,Hanna Mariam,0,node/10973929783,,38.8316053
9.037593,Hanna Mariam,0,node/10973929784,,38.8316071
9.0374618,Kotebe Teachers College,0,node/10973929786,,38.8388573
9.0390977,Kotebe Gebriel,0,node/10973929787,,38.8505525
9.039072,Kotebe Gebriel,0,node/10973929788,,38.8505551
9.0357328,Kotebe,0,node/10973960231,,38.8279461
9.035744,Kotebe,0,node/10973960232,,38.8279666
9.0343234,Kebena,0,node/10973960233,,38.7769466
9.0637787,Yeka Abado,0,node/10974036529,,38.8735567
9.0638007,Yeka Abado,0,node/10974036530,,38.8734371
8.9948109,Taxi Tera,0,node/10989247669,,38.8092174
8.9888758,Bole Bridge,0,node/10989247670,,38.7944031
9.0048732,Summit,0,node/10989247671,,38.8517594
9.0050343,Summit,0,node/10989247672,,38.8520615
8.9791887,Bole Mickael,0,node/10989306740,,38.7737291
8.979439,Bole Mickael,0,node/10989306742,,38.7732491
8.9647488,Riventy,0,node/10989306744,,38.798111
8.9647649,Riventy,0,node/10989306745,,38.7981165
9.0436398,Lomi Meda,0,node/10989322787,,38.6992761
9.0437269,Lomi Meda,0,node/10989322788,,38.6991228
9.0423415,Philiphs,0,node/10989322789,,38.7046602
9.0423608,Philiphs,0,node/10989322790,,38.7046575
9.0417374,Atena Tera,0,node/10989322793,,38.7116317
9.041685,Atena Tera,0,node/10989322794,,38.7113214
9.0418861,Atena Tera,0,node/10989352901,,38.7128543
9.0419946,Atena Tera,0,node/10989352903,,38.7136815
9.037404,Kolfe,0,node/10989352904,,38.7169566
9.0373552,Kolfe,0,node/10989388405,,38.7170428
9.0376969,Chid Tera,0,node/10989388406,,38.7213864
9.0375624,Chid Tera,0,node/10989388407,,38.7215618
9.0339795,Tourist Hotel,0,node/10989495135,,38.760933
9.0331899,Tourist Hotel,0,node/10989495136,,38.7627083
9.0365548,St. George Church,0,node/10989495137,,38.752267
9.0365649,St. George Church,0,node/10989495138,,38.7523885
9.0280891,Amanuel Church,0,node/10989606497,,38.723026
9.0280827,Amanuel Church,0,node/10989606498,,38.7230514
9.0330957,Mesalemia,0,node/10989606501,,38.7246409
9.0330994,Mesalemia,0,node/10989606502,,38.7246228
9.0170151,Coca Cola,0,node/10989606503,,38.729182
9.0169029,Coca Cola,0,node/10989606504,,38.7293902
9.0216869,Tikur Anbesa,0,node/10989700748,,38.7477611
9.0214822,Tikur Anbesa,0,node/10989700750,,38.7476433
9.0198621,Megenagna,0,node/10989765272,,38.8028176
9.0331305,Tourist Hotel,0,node/10991706244,,38.7619614
9.018399,Ambasader,0,node/10991706246,,38.7538719
9.0182782,Ambasader,0,node/10991706247,,38.7539744
9.0515112,Manen,0,node/10991763449,,38.7588533
9.0515112,Manen,0,node/10991763450,,38.7588598
8.8840593,Selam Building,0,node/10992050085,,38.7766907
8.944348,Saris Abo,0,node/10992073740,,38.7693473
8.8832126,Selam Building,0,node/10992247910,,38.7771744
8.8801893,Gelan Condominium,0,node/10992247911,,38.768463
8.8801651,Gelan Condominium,0,node/10992247913,,38.7684764
8.8738823,Breta bret,0,node/10994789635,,38.7887302
8.867782,Akaki CBE,0,node/10994942333,,38.7888076
8.8679415,Akaki CBE,0,node/10994942334,,38.7887141
9.0098456,Mexico,0,node/10995013009,,38.7462885
8.9470636,Lafto,0,node/10995013010,,38.7443751
8.9537702,Lafto (Mickael),0,node/10995013013,,38.7504178
8.9473785,Lafto,0,node/10995013014,,38.7443174
9.0051854,Woyira Sefer,0,node/10995113524,,38.7070388
9.0050595,Woyira Sefer,0,node/10995113525,,38.7068721
8.9932233,Total 3 Kutir mazoria,0,node/10996939227,,38.7170312
8.9671943,Mebrat,0,node/10997112356,,38.7486669
8.9671522,Mebrat,0,node/10997112357,,38.7487468
8.9621911,Biharetsege,0,node/10997112358,,38.7515775
8.9622089,Biharetsege,0,node/10997112359,,38.7515885
8.9576758,Adey Abeba,0,node/10997112361,,38.7631284
8.9576954,Adey Abeba,0,node/10997112362,,38.7631332
8.9758799,Gofa Gebriel,0,node/10997112364,,38.7488713
8.9758721,Gofa Gebriel,0,node/10997112365,,38.7489751
9.0196301,Abenet,0,node/10997125769,,38.7332825
8.963665,Weleta,0,node/10997242295,,38.6708623
8.9636677,Weleta,0,node/10997242296,,38.6708779
8.9666342,Weleta Tele,0,node/10997242298,,38.6731812
8.9764681,Repi Highschool,0,node/10997242299,,38.6774372
8.9765185,Repi Highschool,0,node/10997242300,,38.6774017
9.0576594,Sara Ampol,0,node/10997243557,,38.8741609
9.0575648,Sara Ampol,0,node/10997243558,,38.874351
9.0480764,Kara Condominium,0,node/10997243559,,38.8693718
9.0480356,Kara Condominium,0,node/10997243560,,38.8695015
9.0107982,Torhayloch,0,node/10997360870,,38.7207531
9.0114511,Mexico,0,node/10997382833,,38.7447026
9.0114533,Mexico,0,node/10997382834,,38.7445835
9.01285,Mexico,0,node/10997495133,,38.7440492
9.01282,Mexico,0,node/10997495134,,38.74405
9.0163639,Darmar,0,node/10997495135,,38.7345884
9.0329801,Piassa Arada,0,node/10998041498,,38.7545702
9.0334582,Piassa Arada,0,node/10998041499,,38.7537202
9.025295,Shola,0,node/10998041503,,38.7949306
9.0251357,Shola,0,node/10998041504,,38.7947575
