location_type,stop_id,stop_name,stop_lon,stop_lat,parent_station
0,way/604046026,C.M.C,38.8504558,9.0210263001,
0,way/604046027,C.M.C,38.85044875,9.0209365501,
0,way/604046028,Meri,38.86039005,9.0206309001,
0,way/604046029,Meri,38.86039745,9.0205342501,
0,way/604046052,Ayat,38.8717948,9.0212283001,
0,way/604046053,Ayat,38.87179745,9.0211369001,
0,way/758915882,St. Michael,38.8426211,9.0213594001,
0,way/758915883,St. Michael,38.8426345,9.0214511001,
0,way/758919087,Management Institute,38.8284090499,9.0208269001,
0,way/758919088,Management Institute,38.8283603999,9.0209051001,
0,way/758919089,Civil Service College,38.83479945,9.0216842501,
0,way/758919090,Civil Service College,38.83479775,9.0217686501,
0,way/758922739,Bambis,38.76879995,9.0104366001,
0,way/758922740,Bambis,38.76877485,9.0103406001,
0,way/758922741,St. Urael,38.77470515,9.01099095,
0,way/758922742,Hayahulet 2,38.7832101499,9.0148321501,
0,way/758922743,Hayahulet 2,38.7832128499,9.0149132501,
0,way/758922744,ሃያ ሁለት 1,38.7893457,9.0161997001,
0,way/758922745,ሃያ ሁለት 1,38.7893058,9.0162805001,
0,way/758922746,Lem Hotel,38.7959009999,9.0178812001,
0,way/758922747,Lem Hotel,38.7958714999,9.0179702501,
0,way/758922751,Megenagna,38.8026662,9.0196319001,
0,way/758922752,Gurd Sholla 2,38.81016615,9.0201812501,
0,way/758922753,Gurd Sholla 2,38.8101826,9.0202704501,
0,way/758922754,Gurd Sholla 1,38.8199118,9.0190550501,
0,way/758922755,Gurd Sholla 1,38.8199363,9.0191373501,
0,way/758926923,Tor Hailoch,38.7228792001,9.0114466001,
0,way/758926924,Tor Hailoch,38.7228400001,9.0113509001,
0,way/758926925,Cocacola,38.72925215,9.0120903001,
0,way/758926926,Cocacola,38.72924475,9.0120082001,
0,way/758926927,St. Lideta,38.7358812,9.0113260501,
0,way/758926928,St. Lideta,38.735902,9.0114191001,
0,way/758926929,Tegbared,38.74251165,9.0104883001,
0,way/758926930,Tegbared,38.74252605,9.0105720501,
0,way/758926931,Mexico,38.7486780499,9.0110042001,
0,way/758926932,Mexico,38.7486304499,9.0111035001,
0,way/758926933,Leghar,38.75364485,9.0118976001,
0,way/758926934,Leghar,38.7536616,9.0118055501,
0,way/758926935,Stadium,38.75765945,9.0119426001,
0,way/758926936,Stadium,38.75768125,9.0120396501,
0,way/758926937,St. Estifanos,38.7633918,9.0109756501,
0,way/758926938,St. Estifanos,38.7634133,9.0110528501,
0,way/759354435,Gojam Berenda,38.7383589,9.0341520001,
0,way/759354436,Gojam Berenda,38.73838775,9.0342421001,
0,way/759354437,Atikilt Tera,38.7469346,9.0345698501,
0,way/759354438,Atikilt Tera,38.7469217,9.0346634001,
0,way/759359409,Kality,38.7631070001,8.938011,
0,way/759359410,Kality,38.7630034001,8.93795435,
0,way/759359411,Abo Junction,38.7663008501,8.94501825,
0,way/759359412,Abo Junction,38.7662190501,8.9449765,
0,way/759359413,Saris,38.7634466333,8.9519971333,
0,way/759359414,Saris,38.7633591333,8.9519912333,
0,way/759359415,Adey Abeba,38.76388145,8.9567954,
0,way/759359416,Adey Abeba,38.76379965,8.9568021,
0,way/759359417,Lancha,38.75926535,8.9903485,
0,way/759359418,Lancha,38.75916345,8.9903366,
0,way/759359419,Temenja Yazh,38.7598284334,8.9952452,
0,way/759359420,Temenja Yazh,38.7597271667,8.9952399,
0,way/759359421,Riche,38.7587088,9.0005732,
0,way/759359422,Riche,38.7586096,9.00058575,
0,way/759359423,Meshwalekya,38.7588805,9.00485825,
0,way/759359424,Meshwalekya,38.7587524,9.00486215,
0,way/759359425,Darmar,38.73475,9.0154149,
0,way/759359426,Darmar,38.73466315,9.01542485,
0,way/759359427,Abnet,38.73335125,9.0212786,
0,way/759359428,Abnet,38.73341865,9.0212687,
0,way/759359429,Sebategna,38.73298775,9.0283819,
0,way/759359430,Sebategna,38.7330763,9.0284011,
0,way/759359431,Autobus Tera,38.7329878,9.0340910501,
0,way/759359432,Autobus Tera,38.7329908,9.0340079501,
0,way/759365358,Nifas Silk 2,38.7607979501,8.9731988,
0,way/759365359,Nifas Silk 2,38.7606849501,8.97316965,
0,way/759365360,Nifas Silk 1,38.7629963,8.9657149,
0,way/759365361,Nifas Silk 1,38.7628904,8.96571355,
0,node/847244293,Beherawi Theatre,38.7525538,9.0165395,
0,node/847244423,Black Lion,38.7521415,9.0209237,
0,node/4832025024,4 Kilo,38.7632408,9.0344007,
0,node/4884374622,Lamberet Terminal (Bus),38.8158571,9.0223057,
0,node/5248250425,Sar Bet (Roundabout),38.738182,8.9929728,
0,node/5330678521,Ambassador,38.7553162,9.0164409,
0,node/5736089088,Stadium,38.7570321,9.0120276,
0,node/6251054285,Mebrathail,38.7146778,9.0295451,
0,node/6307600909,Asko,38.6928185,9.0654733,
0,node/6373574986,Bole Printing Press,38.7718334,8.9976331,
0,node/6728583386,Arada,38.7516761,9.0331479,
0,node/6798927886,Kebede Wessene Rd.,38.8053365,8.9986049,
0,node/6814022390,Mexico,38.7444332,9.0094665,
0,node/6967142984,Mebrat Condominium,38.7438796,8.9644773,
0,node/6967165728,Mebrat,38.7486643,8.9673396,
0,node/6967179322,Gofa Gebriel,38.7491221,8.9771232,
0,node/6967179323,Kera (Gofa Road),38.7498599,8.9825519,
0,node/6967225474,Tewodros Square,38.7516602,9.0277111,
0,node/6967234177,German Square,38.732897,8.9655968,
0,node/6967281153,Friendship Building,38.7859995,8.9899905,
0,node/6967281241,Piassa (Downtown Cafe),38.7512565,9.0319356,
0,node/6967281242,Piassa Arada (2),38.7526242,9.0330123,
0,node/6967318740,Gojo,38.6217166,9.0418236,
0,node/7022361366,Megenagna Terminal,38.8026673,9.0203188,
0,node/7022397409,Bole Millenium,38.7897496,8.9885373,
0,node/7022397410,Bole Millenium,38.789886,8.9887535,
0,node/7022397411,Goro School,38.8267584,8.9937973,
0,node/7022397413,Summit Condominiums,38.8569749,8.9842709,
0,node/7022397414,Summit Condominiums,38.8570885,8.9842404,
0,node/7022397416,Bole Arabsa,38.8906061,8.9720161,
0,node/7022397417,Bole Arabsa,38.8903477,8.9732168,
0,node/7022397418,Aba Kiros Roundabout,38.8785328,9.0561234,
0,node/7022397420,Yeka Abado,38.875565,9.0689298,
0,node/7022397421,Yeka Abado,38.8756232,9.0688377,
0,node/7037142410,Gurara,38.7893816,9.0626023,
0,node/7037142414,Abuare Roundabout,38.7757967,9.026427,
0,node/7037142415,Abuare Roundabout,38.7759255,9.026504,
0,node/7037142417,Marathon Motor (Megenagna),38.8000289,9.0224201,
0,node/7037142419,Yeha,38.7836264,9.060739,
0,node/7037142420,Tena Tabya,38.7839285,9.0608445,
0,node/7037142421,Biret Dildiy (Bono Wuha),38.7811505,9.0598571,
0,node/7037142422,Bret Dildy (Bono Wuha),38.7810894,9.0599927,
0,node/7037142423,Atlas,38.7797667,9.0042786,
0,node/7037142424,Bole Medhanialem,38.7860596,8.9983386,
0,node/7037142426,Bole Medhanialem,38.7862428,8.9984556,
0,node/7037142427,24,38.800549,9.0098865,
0,node/7037142428,Dinberwa Hospital,38.7866932,9.0221273,
0,node/7037142430,Kokebe Tsebah School,38.7802113,9.0345238,
0,node/7037142431,Kokebe Tsebah School,38.7799476,9.034441,
0,node/7037142433,Belgium Embassy,38.7839469,9.031876,
0,node/7037142434,British Embassy,38.784892,9.0311083,
0,node/7037142435,British Embassy,38.7855544,9.0309087,
0,node/7037142436,Abebe Sook,38.7887162,9.0287538,
0,node/7037142438,Shola Gebeya,38.7952986,9.0250779,
0,node/7037142439,Yeka Michael,38.7961373,9.0244101,
0,node/7037142441,Megenagna,38.8021491,9.0180934,
0,node/7037142442,Megenagna,38.8017521,9.0182711,
0,node/7037142443,Derartu,38.7818835,8.8869301,
0,node/7037142444,Gelan Condominium,38.7838224,8.8857405,
0,node/7037142445,08 Adarash,38.785591,8.8844269,
0,node/7037142446,Meshuwalekia Akaki,38.7865253,8.8767985,
0,node/7037142448,Akaki Beretaberet,38.7887478,8.8738843,
0,node/7037142450,G7 (Tulu Dimtu),38.8207065,8.870907,
0,node/7037142454,Tulu Dimtu Unisa,38.8042339,8.8552763,
0,node/7037142455,Tulu Dimtu,38.8041524,8.8556159,
0,node/7037142456,Akaki Korkoro,38.7961539,8.8597556,
0,node/7037142459,Tulu Dimtu (Taf Gas Station),38.8051915,8.8688691,
0,node/7037142460,Arsema,38.8136608,8.8722685,
0,node/7037142461,Selam Sefer (Tapela Gar),38.8140262,8.8722281,
0,node/7037142462,Tulu Dimtu Adebabay,38.8201689,8.8747821,
0,node/7037142464,Project 12 Akababi,38.8218482,8.8658608,
0,node/7037142465,Mahiber Betoch,38.8148895,8.8592154,
0,node/7037142466,Bole Dildiy,38.7912061,8.9869933,
0,node/7037142467,Megenagna / Zefmesh,38.8000136,9.02034,
0,node/7037142469,Megenagna,38.8010735,9.0213214,
0,node/7037142470,Megenagna,38.8015921,9.0217137,
0,node/7037142471,Abysinia Cafe Area,38.8100422,9.0215363,
0,node/7037142472,Abysinia Cafe Area,38.810853,9.0213396,
0,node/7037142474,Century Mall,38.8132781,9.0196778,
0,node/7037142475,Gurd-shola,38.8215105,9.0187352,
0,node/7037142476,Menaheria,38.8192066,9.0239816,
0,node/7037142477,Menaheria,38.8192354,9.0238758,
0,node/7037142479,Gerji Mebrat Haile,38.814876,9.003632,
0,node/7037142483,Gerji Mebrat Haile,38.8132574,9.0037638,
0,node/7037142484,Lamberet,38.8251916,9.0253421,
0,node/7037183485,Lamberet Area,38.8271787,9.0258842,
0,node/7037183486,Lamberet Area,38.8273076,9.0260507,
0,node/7037183487,Lamberet Area,38.8271189,9.0259969,
0,node/7037183490,Yerer Goro,38.8294063,8.9913503,
0,node/7037183491,Yerer Goro,38.8292171,8.9913222,
0,node/7037183492,Se'alite Mihret Church,38.8265756,9.020263,
0,node/7037183493,Management Institute,38.82686,9.0203852,
0,node/7037183494,Sealite Mihret,38.8273219,9.0203048,
0,node/7037183495,Civil Service College,38.8342032,9.0216167,
0,node/7037183496,St. Michael,38.8414217,9.021312,
0,node/7037183497,St. Micheal Church,38.8425033,9.0215489,
0,node/7037183498,Salite Mihret,38.8331954,9.0283709,
0,node/7037183499,Hillside (Ethio-China Mebrathaile),38.8333256,9.0285264,
0,node/7037183501,Wessen Michael,38.838592,9.030459,
0,node/7037183502,Hanna Mariam,38.8316144,9.0375551,
0,node/7037183503,Hanna Mariam,38.8316246,9.0375969,
0,node/7037183504,Wessen,38.8442968,9.0330948,
0,node/7037183505,Wessen,38.8445812,9.033228,
0,node/7037183507,Wessen (Mariam),38.8446898,9.0330982,
0,node/7037183508,Kotebe Teachers College,38.8466963,9.0342084,
0,node/7037183509,Yabem Hotel,38.8533863,9.0357649,
0,node/7037183510,Kotebe Gebriel,38.8545188,9.036101,
0,node/7037183513,Yetebaberut,38.8526027,9.0201901,
0,node/7037183515,Yetebaberut,38.8539074,9.0207031,
0,node/7037183516,Meri,38.8603565,9.0207092,
0,node/7037183518,Meri (Yetebaberut),38.8610727,9.0205124,
0,node/7037183519,Ayat,38.8686047,9.0208331,
0,node/7037183520,Ayat Zone 2,38.8678248,9.0210633,
0,node/7037183521,Kara (Turn),38.8606002,9.0379427,
0,node/7037183523,Medhanalem Church,38.8640163,9.0401552,
0,node/7037183525,Safari,38.852259,9.0106828,
0,node/7037183527,Summit (MOHA),38.8520658,9.0043876,
0,node/7037183528,Saint Georgis,38.8513132,8.9955228,
0,node/7037183529,Tena Tabeya,38.860685,8.9941038,
0,node/7037183532,Gate 2,38.8582866,8.9894728,
0,node/7037183533,Summit Condominiums,38.8544474,8.9846055,
0,node/7037183535,Ayat Train Station,38.8719812,9.0213287,
0,node/7037183536,CMC,38.872594,9.0211208,
0,node/7037183537,Ayat Square,38.8767684,9.0212396,
0,node/7037183538,Feres Bet,38.8862575,9.0216916,
0,node/7037183539,Police Tabia,38.8946069,9.0170704,
0,node/7037183540,Tsebel,38.891209,9.0222555,
0,node/7037183541,Bono Meskid,38.8902931,9.0219034,
0,node/7037183542,Ayat Chefe Condominium,38.8946677,9.0113906,
0,node/7037183543,Ayat Chefe Condominium,38.8944878,9.0109368,
0,node/7037183545,Nebu Mikael,38.8767662,9.0023517,
0,node/7037183546,Ayat Adebabay Hulet (2),38.8851706,8.9965746,
0,node/7037183547,Bole Arabsa (3),38.8855436,8.9963324,
0,node/7037183548,Bole Arabsa (2),38.8851362,8.9841602,
0,node/7037183550,Bole Arabsa,38.8902717,8.9733148,
0,node/7037183552,Yeka Condominium 1,38.877919,9.0354891,
0,node/7037183554,Tafo Gebrael,38.8777819,9.0381306,
0,node/7037183555,Tafo Condominium 1,38.8779667,9.0505157,
0,node/7037183557,Tafo Mebrathail,38.8773973,9.0425957,
0,node/7037183558,Tafo Mebrathail,38.877866,9.0427743,
0,node/7037183559,Tafo Condominium 2,38.8779122,9.0465834,
0,node/7037183562,Kara Condominium,38.8705589,9.0501511,
0,node/7037183563,Yeka Abado,38.8647703,9.0666282,
0,node/7037183565,Sara Ampol (Gedera),38.8737753,9.0571811,
0,node/7037183567,Sara Ampol,38.8742538,9.0580264,
0,node/7037183569,Aba Kiros,38.8812971,9.0606875,
0,node/7037183570,Makefafeya,38.8841651,9.0630654,
0,node/7037183571,Gari Tera,38.8892044,9.0670494,
0,node/7037183572,CCD,38.8938058,9.0707009,
0,node/7037183573,140,38.8952147,9.0718221,
0,node/7037183574,Legedadi Mission,38.9074861,9.0818058,
0,node/7037183575,Legedadi Mission,38.90832,9.0821737,
0,node/7041052894,Selam Building,38.7771574,8.8832831,
0,node/7041052895,Gojo Hotel,38.7768265,8.8910809,
0,node/7041052896,Kality Meneharia,38.7717989,8.8958584,
0,node/7041052897,Cheralia Factory,38.7668359,8.9029458,
0,node/7041052898,Cheralia Factory,38.7667452,8.9029223,
0,node/7041052900,Kality Gebriel,38.7638335,8.9113422,
0,node/7041052901,Kality Prison,38.7633399,8.912466,
0,node/7041052912,Hana Maryam,38.7416641,8.928137,
0,node/7041052914,Tabelew,38.6590102,8.9274906,
0,node/7041052915,Ubedi Academy,38.6548173,8.9244259,
0,node/7041052916,Alem Gena,38.6526472,8.9230001,
0,node/7041052917,Alem Gena,38.652656,8.9229882,
0,node/7041052918,Mama,38.6465912,8.9213858,
0,node/7041052927,Mekanisa (Old Revenues Office),38.73129,8.9683942,
0,node/7041052928,German Square,38.7327236,8.9656974,
0,node/7041052932,Gebriel Bridge,38.7324437,8.9556239,
0,node/7041052934,Gebriel Bridge,38.7327233,8.955596,
0,node/7041052935,Mebrathile (EEPCo),38.7339608,8.9469471,
0,node/7041052936,Mekanisa School,38.7341955,8.9790248,
0,node/7041052937,Abo,38.7339384,8.9785916,
0,node/7041052938,Sheged Hotel,38.7246092,8.973373,
0,node/7041052939,Jemo Michael,38.720836,8.9673959,
0,node/7041052940,Jemo Michael,38.7209392,8.966996,
0,node/7041052942,Jemo YBP (All Mart),38.7152564,8.9614893,
0,node/7041052944,Jemmo 1,38.7123763,8.9606358,
0,node/7041052945,Jemmo 1,38.7124284,8.9604074,
0,node/7041052946,Mestawet Fabrica,38.7084697,8.9595125,
0,node/7041052948,Mestawet Fabrica,38.7059934,8.958513,
0,node/7041052949,Jemo 3,38.6992718,8.9564,
0,node/7041052950,Jemmo 3,38.6985348,8.9556244,
0,node/7041052951,Zenebework,38.7077567,8.9866742,
0,node/7041052952,Welete Maryam,38.6713097,8.9611777,
0,node/7041052953,Mickael Bridge,38.7272059,8.9657858,
0,node/7041052954,Gerar,38.689429,8.9813447,
0,node/7041052955,Repi (Gerar),38.6851955,8.9794179,
0,node/7041052957,Gebre Kirstos,38.7220154,8.9773403,
0,node/7041052958,Bisrate Gebrael,38.7228933,8.9884304,
0,node/7041052959,Gofa Gebriel (2),38.7488548,8.9753751,
0,node/7041052960,Gofa Gebriel,38.7490217,8.9771139,
0,node/7041052963,Bole Mickael,38.7772221,8.9816131,
0,node/7041052965,MOHA (Pepsi Factory),38.7560783,8.9822682,
0,node/7041052969,Gotera (Oilibiya),38.7600125,8.9762662,
0,node/7041052970,Gotera (Oilibiya),38.7598239,8.976182,
0,node/7041052975,St. Joseph Church,38.7620577,8.9697308,
0,node/7041052977,kadisco Building,38.7627885,8.9659447,
0,node/7041052978,kadisco Building,38.762999,8.965927,
0,node/7041052979,Kadisco,38.7630788,8.9637596,
0,node/7041052980,Adey Abeba,38.7640609,8.9583017,
0,node/7041052982,Adey Abeba,38.7638459,8.9582595,
0,node/7041071286,Saris (CBE),38.7635583,8.9528662,
0,node/7041071287,Saris (CBE/Shoa Bakery),38.7633266,8.9527596,
0,node/7041071289,Abo Junction,38.7661044,8.9450003,
0,node/7041071290,Abo Junction,38.7663069,8.9450733,
0,node/7041071291,Customs (Train Station),38.763132,8.9380959,
0,node/7041071295,Kality Maseltegna,38.766627,8.9323275,
0,node/7041071296,Wehalemat,38.7681692,8.9298173,
0,node/7041071342,Bulgaria Mazoria,38.7478244,8.9950292,
0,node/7041071344,Begtera,38.7475059,8.9971703,
0,node/7041071347,AU (Mikael) Rounrdabout,38.7394459,8.9990638,
0,node/7041071348,AU (Mikael) Rounrdabout,38.7395945,8.9990569,
0,node/7041071350,Bulgaria,38.7478465,8.9937942,
0,node/7041071352,Global Hotel,38.7595772,8.9941475,
0,node/7041071353,Global Hotel,38.7598183,8.9941836,
0,node/7041071354,Beklo Bet (Global),38.7596352,8.9953383,
0,node/7041071355,Tele Garage,38.7584812,9.000141,
0,node/7041071356,Riche,38.7586986,9.0043253,
0,node/7041071359,6th (Raddison Blu),38.7669535,9.0166957,
0,node/7041071360,Filweha (Hotsprings),38.7572645,9.017718,
0,node/7041071362,Filweha (Hotsprings),38.7570579,9.0175554,
0,node/7041071363,Ghion Hotel (Enterance),38.7574492,9.0137609,
0,node/7041071364,Ghion Hotel (Enterance),38.7576145,9.0138328,
0,node/7041071367,St. Joseph School,38.7591876,9.0098008,
0,node/7041071370,St. Joseph School,38.7592761,9.0104995,
0,node/7041071371,Admas University College,38.7590434,9.0105316,
0,node/7041071372,Lalibela Hotel,38.7570112,9.0118612,
0,node/7041071374,Stadium,38.7560438,9.0121294,
0,node/7041071376,Legehar,38.7545386,9.011849,
0,node/7041071377,Legehar,38.7539285,9.0117857,
0,node/7041071378,Legehar (Old Train Station),38.7533069,9.0109604,
0,node/7041071380,Mexico,38.7461963,9.0097755,
0,node/7041071382,African Union,38.7414166,9.0031416,
0,node/7041071383,Popolare,38.7423863,9.0053059,
0,node/7041071384,Guenet Hotel,38.7466748,9.0046908,
0,node/7041071385,Guenet Hotel,38.74694,9.0032786,
0,node/7041071388,Abenet,38.7334947,9.0214263,
0,node/7041071389,Lideta Condominium,38.7345522,9.0132791,
0,node/7041071390,Darmar,38.7348248,9.0157856,
0,node/7041071391,Coca Cola,38.7294714,9.0159169,
0,node/7041071392,Austria Embassy,38.7278809,8.9939406,
0,node/7041071393,Mechare Meda,38.727499,8.9936591,
0,node/7041071395,3 Kutir Mazoriya (Total),38.7152417,8.9925902,
0,node/7041071397,Minaye Building,38.7184074,8.995414,
0,node/7041071399,Old Airport (Mobil),38.7191221,8.9998642,
0,node/7041071400,Tor Hailoch,38.7206897,9.0099949,
0,node/7041071401,Keranio Mewcha,38.7100309,9.0133411,
0,node/7041071402,Holand,38.7159484,9.0213057,
0,node/7041071403,Meseret Edget,38.714954,9.0245409,
0,node/7041071404,Teklehaymanot,38.7440603,9.0278226,
0,node/7041071405,Kebele 11,38.7458014,9.0247481,
0,node/7041071406,Tewodros Square,38.75166,9.0262634,
0,node/7041071407,Tewodros Square,38.7517909,9.0263826,
0,node/7041071411,Black Lion,38.7521859,9.0218352,
0,node/7041071414,National Theatre,38.751592,9.0158768,
0,node/7041071415,National Theatre,38.7513097,9.0156938,
0,node/7041071416,A.A. Commercial College,38.7494881,9.0139102,
0,node/7041071418,A.A. Commercial College,38.7495568,9.0138228,
0,node/7041071419,Buna Ena Shay,38.7490599,9.0114261,
0,node/7041071420,Buna Ena Shay,38.7479733,9.0105922,
0,node/7041071423,Mexico Shebelle Hotel,38.7468862,9.0119916,
0,node/7041071425,TVET College (Tegbare'd),38.7429038,9.0105894,
0,node/7041071429,Federal Police (Tegbare'd),38.7426638,9.0103865,
0,node/7041071430,Lideta (Balcha Hospital),38.738603,9.0109303,
0,node/7041071431,Lideta (Balcha Hospital),38.7385604,9.0111161,
0,node/7041071432,Lideta Condominium,38.7377815,9.011233,
0,node/7041071433,Lideta Tsebel,38.733822,9.0041706,
0,node/7041071434,Dessie Hotel,38.7338119,9.0093091,
0,node/7041071435,High Court,38.7342297,9.0108572,
0,node/7041071437,Lideta High Court,38.733431,9.0115829,
0,node/7041071439,Hintsa College,38.7293132,9.0121559,
0,node/7041071441,Coca Cafe,38.7292339,9.0119411,
0,node/7041071444,Mekonenoch (Golf) Club,38.7265458,9.011282,
0,node/7041071446,Tor Hailoch Junction,38.7220202,9.0115616,
0,node/7041071447,Torhailoch,38.7216866,9.0119442,
0,node/7041071448,Tor Hailoch,38.7206478,9.0139112,
0,node/7041071449,Tor Hailoch,38.7209168,9.013939,
0,node/7041071450,Keranio Bridge,38.7089411,9.0194506,
0,node/7041071451,Medhanialem,38.7049748,9.0175679,
0,node/7041071452,Keranio Adebabay,38.7006446,9.0176634,
0,node/7041071453,Kokebe,38.6994971,9.0180779,
0,node/7041071454,Yeshi Debele,38.6954056,9.0195382,
0,node/7041071455,Yeshi Debele,38.6957701,9.0190748,
0,node/7041071456,Mariam,38.6884518,9.0231539,
0,node/7041071458,Anfo Meda,38.6742682,9.021983,
0,node/7041071459,St. Urael Church,38.7752596,9.0110433,
0,node/7041071461,Salcost Apartments (NOC),38.766397,9.0104908,
0,node/7041071462,St. Estifanos Church,38.7626376,9.0118738,
0,node/7041071464,St. Gebriel,38.7675809,9.0199107,
0,node/7041071465,Zenebewerk Hotel,38.7680315,9.0193852,
0,node/7041071466,Meles Zenawi Foundation,38.7715231,9.0206693,
0,node/7041071468,Azmari Bet (Traditional Music Club),38.770643,9.0194316,
0,node/7041071469,Kazanchis (6th),38.7702335,9.0166401,
0,node/7041071471,Hilton Hotel (Apartments),38.7638714,9.0196382,
0,node/7041071473,Women Square,38.7772342,9.0233468,
0,node/7041071474,Women Square,38.7771738,9.0234508,
0,node/7041071475,Aware Bridge,38.7765755,9.0244322,
0,node/7041071479,Arat Kilo,38.7633615,9.0319312,
0,node/7041071480,Arat Kilo,38.7652099,9.0321438,
0,node/7041071481,Bel Air,38.7728461,9.032458,
0,node/7041071482,Addis View Hotel,38.7730493,9.0324918,
0,node/7041071483,Menelik II Hospital,38.7730556,9.0385857,
0,node/7041071484,Menlik Hospital,38.7719268,9.0388201,
0,node/7041071579,Piassa Arada,38.7522029,9.0365871,
0,node/7041071580,Piassa Arada,38.7524445,9.0363947,
0,node/7041071592,Piassa Arada,38.7523326,9.0354239,
0,node/7041071594,Habtegiorgis Bridge,38.7491242,9.0352553,
0,node/7041071595,Kurtu Building,38.7438917,9.0343899,
0,node/7041071596,Kurtu Building,38.7437548,9.0341887,
0,node/7041071597,Pharmacy,38.7434135,9.0343321,
0,node/7041071598,Gojam Berenda,38.737968,9.0343947,
0,node/7041071599,Autobis Tera (3),38.7337775,9.0342308,
0,node/7041071600,Autobus Tera,38.7298446,9.03371,
0,node/7041071601,Darsema Grosery,38.7294433,9.0338533,
0,node/7041071604,Girum Hospital,38.7200106,9.04636,
0,node/7041071605,Woreda 7 TVET,38.7212396,9.0407262,
0,node/7041071606,Sefere Salam,38.7219216,9.0366318,
0,node/7041071607,Kolfe,38.7173824,9.037044,
0,node/7041071608,Abysinia Coffee,38.7164487,9.0373422,
0,node/7041071609,Degu Hotel,38.7151531,9.0338162,
0,node/7041071610,18 Mazoria,38.7130781,9.0335338,
0,node/7041071612,18 Mazoria,38.7135105,9.0335825,
0,node/7041071614,Luwkanda,38.7093322,9.0333303,
0,node/7041071615,Kolfe Secondary School,38.704541,9.0340139,
0,node/7041071616,Realstate,38.6951186,9.0327975,
0,node/7041071619,Police Tabiya,38.6888917,9.034058,
0,node/7041071620,Feli Doro (1),38.6875252,9.0342811,
0,node/7041071622,Feli Doro,38.6853297,9.0353789,
0,node/7041071628,Ras Mekonene Bridge (Seba Dereja),38.7568178,9.0389362,
0,node/7041071629,5 Kilo (History Museum),38.7625491,9.0385989,
0,node/7041071630,5 Kilo University,38.761951,9.0408311,
0,node/7041071633,Lion Zoo (PEPSI Kiosk),38.7615693,9.0427151,
0,node/7041071636,Yekatit 12 Hospital,38.7603878,9.0438891,
0,node/7041071637,Yeatit 12 Hospital,38.7593176,9.0436921,
0,node/7041071638,Red-Cross (St. George Total),38.7527639,9.0386136,
0,node/7041071639,St. George Church (Total),38.7517494,9.0386684,
0,node/7041071640,Semen Hotel,38.7488778,9.0436522,
0,node/7041071641,Semen Hotel,38.7482928,9.0446929,
0,node/7041071642,Kelemwerk,38.7461719,9.0486023,
0,node/7041071643,Kelemwerk,38.7458026,9.0488673,
0,node/7041071645,Tibeb Ediget School,38.7443439,9.0512494,
0,node/7041071646,Semen Mazegaga,38.7433813,9.0523631,
0,node/7041071647,Semen Mazagaja,38.7424925,9.0537306,
0,node/7041071648,Shegole Bank,38.7200104,9.0541015,
0,node/7041071649,Pawlos Hospital,38.7277601,9.0474202,
0,node/7041071650,Finance,38.7221677,9.0514832,
0,node/7041071651,Medhanialem (TOTAL),38.7220512,9.0513651,
0,node/7041071653,Finance,38.7201878,9.0528369,
0,node/7041071654,Finance,38.7199027,9.0531245,
0,node/7041071655,Winget Chaf,38.7149847,9.0544244,
0,node/7041071657,4 Menta Adebabay,38.7088754,9.0520588,
0,node/7041071658,Mikili Land,38.6987792,9.051327,
0,node/7041071659,Winget Adebabay,38.7137033,9.0571703,
0,node/7041071660,Awolia,38.7116367,9.0576087,
0,node/7041071661,Gulele Fana,38.7067279,9.0577975,
0,node/7041071662,Gulele Fana,38.7065488,9.0582376,
0,node/7041071663,Berchiko,38.7034077,9.0593548,
0,node/7041071665,Gebriel (Sansusi),38.69045,9.0665816,
0,node/7041071718,Bono Weha,38.7791204,9.057952,
0,node/7041071719,Mezan,38.7722233,9.053538,
0,node/7041071721,3rd Shaleka,38.7690705,9.0470252,
0,node/7041071723,6 Kilo (University),38.7615547,9.0461753,
0,node/7041071725,Meksaye Hizunan Medhanialem,38.7622054,9.0513004,
0,node/7041071726,Teferi Mekonen,38.7622236,9.052326,
0,node/7041071729,Sebseba Maekel,38.7625698,9.0541533,
0,node/7041071737,Eyesus,38.7715088,9.0649811,
0,node/7041071738,Hamle 19,38.7680987,9.0585516,
0,node/7041071740,Selassie,38.7607205,9.0692162,
0,node/7041071741,Sanba Nekersa-Shiromeda,38.7590628,9.0745256,
0,node/7041071742,Kuskoam,38.7572536,9.0777328,
0,node/7041071749,Dil Ber,38.7374397,9.0710894,
0,node/7041071753,Anbessa Garage (Shegole),38.7204079,9.0638294,
0,node/7041071754,Kebt Beret,38.7182194,9.0691617,
0,node/7041071755,Entoto Kela,38.7230011,9.0843712,
0,node/7041071758,Weserbi Realestate,38.7095299,9.1051152,
0,node/7041071759,Classy Water,38.7147037,9.1095355,
0,node/7041071760,Medret Hotel,38.7158285,9.1100449,
0,node/7041071761,Kburea,38.7300979,9.1176074,
0,node/7041071762,Kenenisa,38.7304557,9.1179357,
0,node/7041071763,Shefunea,38.7395293,9.1273122,
0,node/7041071764,Shefine,38.7397834,9.1277902,
0,node/7041071772,Doro Erbata,38.7522344,9.1339361,
0,node/7041071773,Abo Gabriel,38.7524529,9.1341343,
0,node/7041071774,Tulu Fati,38.7549356,9.1408321,
0,node/7041071775,Ashewa,38.7538733,9.1449015,
0,node/7041071776,Tabya Hotel,38.7542489,9.1560016,
0,node/7047495429,Sar Bet (Roundabout),38.738359,8.9929589,
0,node/7047495432,United Bank (Ashewa Meda),38.6600221,9.0286142,
0,node/7047495433,Sefera,38.7346499,8.9208064,
0,node/7049122264,Lafto,38.744323,8.9473774,
0,node/7049122265,Hana Mariam (2),38.7440895,8.935835,
0,node/7049122266,Haile Garment,38.7345586,8.9387647,
0,node/7049921444,Yekiber Demena Church,38.8779866,9.0304285,
0,node/7049921445,Megenagna Terminal,38.8024339,9.0204726,
0,node/7049921447,Hill Bottom (Recreation),38.8759579,9.0220882,
0,node/7049921448,Zone 8,38.8775474,9.0304125,
0,node/7049921449,Aba Kiros (Tafo) Roundabout,38.8779122,9.0570656,
0,node/7050234123,Tafo Junction,38.8790275,9.0566049,
0,node/7050327664,Megenagna Terminal,38.8021323,9.020626,
0,node/7054842410,6 Kilo,38.7617178,9.0476858,
0,node/7054842414,6 Kilo,38.7617169,9.0476498,
0,node/7055060064,Legehar (Old Train Station),38.7532161,9.0106346,
0,node/7055598734,Kotebe Gebriel,38.8546711,9.0359897,
0,node/7055598736,Ahmed Building,38.8299268,9.0269686,
0,node/7055598738,St. Mary Church,38.7579049,9.0363488,
0,node/7055598739,Piassa Arada,38.7535483,9.0335541,
0,node/7055598742,Piassa Arada,38.7534018,9.0327818,
0,node/7055598743,St. Mary Church,38.7579442,9.0363807,
0,node/7055598744,NOC End,38.8307544,9.0274541,
0,node/7056754511,Kotebe Teachers College,38.8467717,9.0341209,
0,node/7056754514,Meskelegna (Ababdo),38.8732637,9.0630764,
0,node/7056754516,Megenagna,38.8022361,9.020907,
0,node/7057002158,Atlas,38.779674,9.0041945,
0,node/7057002161,Piassa Arada,38.7528717,9.0329242,
0,node/7057002162,Ras Mekonene Bridge (Seba Dereja),38.7568279,9.0389386,
0,node/7057002163,Gibi Gebriel Church,38.7626361,9.0226675,
0,node/7057187392,Brass Clinic (Bole),38.7929906,8.9904207,
0,node/7057187393,Brass Clinic (Bole),38.7932003,8.9903142,
0,node/7062689844,St.Gorgis,38.7519784,9.0379471,
0,node/7062689845,St. George Church (2),38.751629,9.0358742,
0,node/7062689848,Piassa,38.7549398,9.0345896,
0,node/7062689850,Arat Kilo,38.764362,9.0325203,
0,node/7062689851,4 Kilo,38.7630946,9.0344021,
0,node/7062689852,Medhanialem,38.7621098,9.0506154,
0,node/7062689854,Education Bureau (6 Kilo),38.7635923,9.044142,
0,node/7062689855,Jan Meda,38.7690204,9.0471236,
0,node/7062689856,Frensaye Kela,38.7742742,9.0557922,
0,node/7062689857,Frensaye Kela,38.7736282,9.0551762,
0,node/7062689858,Abo Mazoriya,38.7777387,9.0569998,
0,node/7062689859,Gurara,38.7881845,9.0623294,
0,node/7067942461,Mamo (NFSL TVET),38.7608987,8.9730894,
0,node/7067942462,Agona Cinema,38.7595747,8.988213,
0,node/7067942463,Agona Cinema,38.7597959,8.9882665,
0,node/7067942465,Tele Garage,38.7587377,9.0004682,
0,node/7067942466,Meshualekia,38.7589773,9.0057314,
0,node/7067990019,Zerihun Building,38.7824519,9.0145395,
0,node/7067990020,6th (Raddison Blu),38.7669539,9.0166971,
0,node/7070861695,National Palace,38.7621456,9.026432,
0,node/7070861696,SNAP Building,38.7872174,8.9897614,
0,node/7070861697,Friendship,38.7844888,8.9908557,
0,node/7070861698,Heber Restaurant,38.7822311,8.9917592,
0,node/7070861699,RWANDA (Werbek House),38.7791533,8.992295,
0,node/7070861700,Wollo Sefer,38.7740953,8.9946542,
0,node/7070861701,Rwanda,38.7798477,8.9924,
0,node/7070861702,Bole Printing Press,38.7723732,8.9966227,
0,node/7070861703,Bole Printing Press,38.7715908,8.9976714,
0,node/7070861704,Mega Printing Press,38.7708659,8.9993469,
0,node/7070861705,Shewa Dabo,38.7697078,9.001132,
0,node/7070861706,Getu Commercial Center,38.7697673,9.0014126,
0,node/7070861707,Dembel City Center,38.7678519,9.004953,
0,node/7070861710,Flamingo,38.7634195,9.0100482,
0,node/7070861712,Piassa Arada,38.7528459,9.0358386,
0,node/7070861713,Anbessa Garage,38.8054033,9.0074376,
0,node/7070861714,Ayat Roundabout,38.876525,9.0221276,
0,node/7070861716,Gebriel,38.8777949,9.0401288,
0,node/7074233342,Semen Mazegaja | ሰሜን ማዘጋጃ,38.7433527,9.0527134,
0,node/7074233343,Del Ber School,38.7411604,9.0559007,
0,node/7074233344,Adisu Gebeya,38.7379037,9.0592088,
0,node/7074233345,Kelebat,38.7355505,9.061605,
0,node/7074233346,Oilibiya (Dil Ber),38.7347909,9.0679367,
0,node/7074267433,Pastor,38.7301845,9.0463006,
0,node/7074267434,Medhanialem,38.7228618,9.051161,
0,node/7074267435,Winget,38.7138884,9.0554455,
0,node/7074269464,Kela,38.6101592,9.0576131,
0,node/7074269465,Kela,38.6101611,9.0576152,
0,node/7074275407,Semen Hotel,38.7481339,9.0452427,
0,node/7074294627,Kera,38.7484333,8.9866969,
0,node/7074299254,Asko,38.6922669,9.0653014,
0,node/7074324043,Sebategna,38.733098,9.0286512,
0,node/7074324044,Autobis Tera (2),38.7324012,9.0317912,
0,node/7074324045,Autobis Tera,38.7321005,9.0347276,
0,node/7074326525,Mekanisa,38.7315967,8.9733512,
0,node/7074326526,Abo Mazoria,38.7343058,8.9822244,
0,node/7074330387,Gate 2,38.8580841,8.9894962,
0,node/7074330389,Tena Tabeya,38.8605382,8.9942098,
0,node/7074330391,Condminium (Gate),38.8602323,8.9984544,
0,node/7074330392,Gomista,38.8573283,9.0014062,
0,node/7074330394,Summit (MOHA),38.8517162,9.0040839,
0,node/7074330397,Safari,38.8518265,9.0106601,
0,node/7074330400,Alemayehu,38.820944,8.999474,
0,node/7074330401,Alemayehu,38.8196821,9.0005663,
0,node/7074330403,Condominium,38.8095474,9.0050845,
0,node/7074330407,Ethio-china,38.8287819,9.026612,
0,node/7074330409,Kara,38.8643277,9.0403987,
0,node/7074332290,Project 15,38.8850641,8.9654679,
0,node/7074332294,Kela,38.8845811,8.9772657,
0,node/7074347184,Chereta,38.7010211,9.0616842,
0,node/7074353066,Gerar,38.6894082,8.9813585,
0,node/7074374410,Jemo 3,38.6959643,8.9538291,
0,node/7074374411,Furi,38.6921288,8.951847,
0,node/7074387585,Sansusi,38.6891023,9.0714186,
0,node/7074496216,Kersa (2),38.6722328,9.0285405,
0,node/7074496217,Ashewa Meda,38.6653802,9.0326531,
0,node/7074496218,Ashewa Meda,38.6653823,9.0326414,
0,node/7074496219,United Bank (Ashewa Meda),38.6569665,9.0258997,
0,node/7074496221,St. Gebriel,38.6515848,9.027689,
0,node/7074496222,St. Gebriel,38.6515743,9.0276843,
0,node/7074496225,Gojo,38.6216778,9.0417975,
0,node/7074504387,Alem Bank,38.6776598,9.0010346,
0,node/7074504388,Ayer Tena,38.6982193,8.9831093,
0,node/7074504390,Bethel,38.6944335,9.0045877,
0,node/7074504391,Mewcha,38.7053132,9.0139079,
0,node/7074504392,Mendida,38.7004735,9.0149626,
0,node/7074525370,Mebrat Nigist Hotel,38.7486994,8.9700751,
0,node/7074541084,Lideta Kefetega Firdbet,38.7326808,9.0116457,
0,node/7074561389,Sefera Square,38.7341804,8.9249315,
0,node/7074561391,Haile Garment,38.7363202,8.9368661,
0,node/7074561392,Mebrathile (EEPCo),38.7334502,8.9493593,
0,node/7074561393,Hana Mariam,38.7544146,8.9309368,
0,node/7074561394,Hana Mariam (2),38.7444615,8.9361698,
0,node/7074561395,Meskelgna,38.7448233,8.95299,
0,node/7074585943,Piassa Arada,38.7514315,9.0357438,
0,node/7074585944,Arat Kilo,38.7633143,9.0324015,
0,node/7074599697,Beklo Bet (Global),38.759835,8.9953761,
0,node/7074691520,Dembel City Center,38.7672511,9.0055741,
0,node/7074707878,Mexico,38.7471393,9.010735,
0,node/7074707880,ERA Office (Big Mak),38.7478601,9.0127963,
0,node/7074707881,Saint Josphe School,38.7591385,9.0092034,
0,node/7074707883,St. Estifanos Church,38.7628296,9.0124825,
0,node/7074819178,Mamo (NFSL TVET),38.7607684,8.9725713,
0,node/7074841187,Kadisco,38.7585063,8.9310399,
0,node/7074841188,Kality Maseltegna,38.7643672,8.9339802,
0,node/7074921333,Teklehaimanot,38.7442895,9.0291868,
0,node/7074921334,Berbere Tera,38.7406481,9.0266712,
0,node/7075101457,Dildiy Mariam,38.7498569,8.9585362,
0,node/7075101459,Kera (Gofa Stop),38.7497528,8.9837158,
0,node/7075129253,Tor Hailoch,38.7208842,9.009717,
0,node/7075129254,Torhayloch,38.7207996,9.0117428,
0,node/7075129255,Tor Hailoch,38.7222467,9.0117788,
0,node/7076294502,Riche,38.7588986,9.0043941,
0,node/7076294503,Mebrat Condominium,38.7438551,8.9645236,
0,node/7076294504,Kadisco,38.7633289,8.9638868,
0,node/7076294505,Flamingo,38.7646677,9.0089349,
0,node/7076294507,Condminium (Gate),38.8601035,8.9984013,
0,node/7076294508,Sara Ampol (Gedera),38.8738883,9.0571285,
0,node/7076294509,Michael (2),38.7325725,9.0418835,
0,node/7076294510,Shero Meda,38.7612538,9.0622823,
0,node/7076294511,Shero Meda,38.7613619,9.0618175,
0,node/7076294512,Dil Ber,38.7369836,9.0716602,
0,node/7076294515,Shiromeda Selassie,38.7607132,9.0692159,
0,node/7076294516,Shero Meda,38.7613887,9.0618235,
0,node/7076310930,6 Kilo (Akim Genbata),38.7612093,9.0447597,
0,node/7076310931,Shero Meda,38.7612397,9.0626379,
0,node/7077424942,Medhanialem,38.7619991,9.0507372,
0,node/7077601626,Ambassador,38.7551039,9.0163885,
0,node/7077785205,Lamberet,38.8139111,9.0216085,
0,node/7077785206,Kara Condominium,38.8692642,9.0479009,
0,node/7077785207,G-7 (Meskelegna),38.8676583,9.0655587,
0,node/7077785209,Kara Condominium,38.8695121,9.0480304,
0,node/7077863009,Autobis Tera (2),38.7325536,9.031811,
0,node/7077863010,Tropical,38.6833448,8.9960545,
0,node/7077863012,Alem Bank,38.6779208,9.0003767,
0,node/7077863014,Tropical,38.6830207,8.9965876,
0,node/7077863015,Kidane Mihret,38.6892387,8.9923549,
0,node/7077863016,Bethel,38.6941906,9.004479,
0,node/7077863017,Mendida,38.7004836,9.0151128,
0,node/7077863018,Abinet,38.7327417,9.019638,
0,node/7077863019,Sebategna,38.7329768,9.0280905,
0,node/7078164250,Mexico,38.7440208,9.0088714,
0,node/7078164251,Haile Garment,38.7349155,8.9381825,
0,node/7078164254,Mekanisa,38.7311018,8.9729343,
0,node/7078164255,Abo Mazoria,38.7345326,8.9820586,
0,node/7078164256,Mexico,38.7437936,9.0088201,
0,node/7078406225,Autobis Tera (1),38.7323925,9.0330269,
0,node/7078406227,Zenebework,38.7090191,8.9876369,
0,node/7078406228,Ayer Tena,38.6949214,8.9822919,
0,node/7078406231,Kara Kore,38.6817556,8.9755975,
0,node/7078406235,Kara Kore,38.6823873,8.9763865,
0,node/7078406236,Ayer Tena (Gerar-Repi),38.6939258,8.9822452,
0,node/7078406237,Repi (Gerar),38.6853377,8.9795411,
0,node/7078406238,Zenebework (Crossing),38.7051886,8.9852814,
0,node/7078406239,3 Kutir Mazoriya (Total),38.715946,8.992776,
0,node/7078406240,Autobis Tera (1),38.7322299,9.0330007,
0,node/7080251773,Condominium,38.8100534,9.0049451,
0,node/7080251774,Goro School,38.8268744,8.993889,
0,node/7080251776,Anbessa Garage,38.8056204,9.0071789,
0,node/7080440194,Estifanos,38.76366,9.0110028,
0,node/7080440195,BAMBIS,38.7690578,9.0104866,
0,node/7080440196,St. Urael Church,38.7752996,9.0115088,
0,node/7080440197,Lex Plaza,38.7823039,9.0147285,
0,node/7080440198,22 (Haya Hulet),38.7896417,9.0164226,
0,node/7080440200,Megenagna,38.8004816,9.0194097,
0,node/7080440203,Megenagna,38.8005914,9.019032,
0,node/7080440204,Lem Hotel,38.7955696,9.0177169,
0,node/7080440205,22 (Haya Hulet),38.7896635,9.0162149,
0,node/7080440206,BAMBIS,38.7694936,9.0102033,
0,node/7080440208,Mexico,38.7467585,9.0104304,
0,node/7080527282,Mexico,38.7462899,9.0098462,
0,node/7080527284,Kera,38.7487773,8.9863213,
0,node/7080611085,Mebrat,38.7487535,8.96688,
0,node/7080611091,Mexico Shebelle Hotel,38.746773,9.0120423,
0,node/7080893992,Michael,38.7322629,9.0412736,
0,node/7080893993,Autobis Tera,38.732023,9.034717,
0,node/7080893994,Pastor,38.7306587,9.0460782,
0,node/7080893995,Winget,38.713458,9.0560646,
0,node/7080893996,Chereta,38.7009781,9.0613645,
0,node/7080894001,Sansusi,38.6891732,9.0715888,
0,node/7081034796,5 Kilo (History Museum),38.7624277,9.0385658,
0,node/7081034797,Abo Mazoriya,38.7785478,9.0574672,
0,node/7081034799,Education Bureau (6 Kilo),38.7640045,9.0441923,
0,node/7084255331,Total (Dil Ber),38.732915,9.0648091,
0,node/7084255333,Piassa Arada,38.7533521,9.0341775,
0,node/7084255334,Addisu Gebeya,38.7374497,9.0594855,
0,node/7084255335,Tsion Cafe (Addisu Gebeya),38.733166,9.0638908,
0,node/7084255336,Total (Dil Ber),38.7327389,9.0653883,
0,node/7084722454,Ummar School,38.7405402,9.0337517,
0,node/7084722456,Autobis Tera (3),38.7337992,9.0341036,
0,node/7084722457,Gojam Berenda (Tefera Buillding),38.7418327,9.0341305,
0,node/7084722458,Dej. Wube (Ras Abebe School),38.7533374,9.0404538,
0,node/7084722459,Wube Bereha,38.7544994,9.0440672,
0,node/7084722460,Menen,38.7588473,9.0515491,
0,node/7084722461,Tsehay Chora (ShiroMeda),38.7598297,9.0584002,
0,node/7084873006,Sebategna (Taem Bakery),38.7332661,9.0274958,
0,node/7084873007,Mola Maru (Jos Hansen),38.7380924,9.0188835,
0,node/7084873008,Geja Sefer (Darmar),38.7382054,9.0167149,
0,node/7084873009,Kera (Green Market),38.7486804,8.9856954,
0,node/7084873010,Kera (Mexico Stop),38.7518917,8.9841757,
0,node/7084873011,MOHA (Pepsi Factory),38.7560749,8.9824212,
0,node/7084873012,Saris (Shoa Bakery),38.7635412,8.9547202,
0,node/7084873013,Kera (Saris Stop),38.7509324,8.9844206,
0,node/7084873014,Guenet Hotel (Orbis),38.7469466,9.002055,
0,node/7084873015,St. Lideta Church,38.736541,9.0111972,
0,node/7084873016,Abenet (Joshansen),38.733649,9.0192478,
0,node/7084932737,Canada Embassy,38.7373207,8.9951157,
0,node/7084932738,Mechare Meda,38.7311778,8.9973163,
0,node/7084932739,Bisrate Gebrael,38.7239615,8.9892732,
0,node/7084932740,Zenebework (Crossing),38.705264,8.9850622,
0,node/7084932741,Ayer Tena,38.6961239,8.9838449,
0,node/7084932742,Kidane Mihret (Roundabout),38.6887357,8.9917639,
0,node/7084932743,Kidane Mihret (2),38.690106,8.9910254,
0,node/7084932745,Augusta Bridge (Tor Hailoch),38.7185689,9.0056187,
0,node/7084932747,Mexico,38.7445753,9.0114539,
0,node/7098810331,Goro Roundabout,38.8285018,8.9839859,
0,node/7098810332,Kotebe Shet',38.8370059,8.9678887,
0,node/7098810333,Bole Lemi,38.8352869,8.9585287,
0,node/7098810334,Endorro 2,38.8219339,8.9405669,
0,node/7098810335,Kilinto Right (Heniken),38.8152364,8.9007946,
0,node/7098810336,Koye Feche 4,38.8240221,8.8947925,
0,node/7098810337,Koye Feche 3,38.8277372,8.8925887,
0,node/7098810338,Koye Feche 2,38.8313712,8.896302,
0,node/7098810339,Koye Feche,38.8268887,8.9046728,
0,node/7098810340,Goro Roundabout,38.8289328,8.9837967,
0,node/7098810341,Kotebe Shet',38.8374461,8.9678046,
0,node/7098810342,Bole Lemi,38.8354629,8.9573187,
0,node/7098810343,Endorro 2,38.8217947,8.9393928,
0,node/7098810344,Endorro 1,38.820007,8.9307029,
0,node/7098810345,kilinto (Heniken Brewery),38.8155747,8.9005132,
0,node/7098833728,Gurd-shola,38.8196082,9.0192718,
0,node/7098833729,Civil Service College,38.8331381,9.021924,
0,node/7098833730,St. Michael,38.8400876,9.021617,
0,node/7098833731,Sunshine Apartments,38.8524287,9.0193173,
0,node/7098833732,Gomista,38.8575794,9.0019915,
0,node/7098833735,Hasset Photo,38.8588022,8.9918735,
0,node/7098833736,Sunshine Apartments,38.8521013,9.0190988,
0,node/7098833737,CMC (Apartments),38.8504565,9.0208488,
0,node/7098833738,St. Michael,38.8401568,9.0213567,
0,node/7102193971,Merkato,38.7312293,9.0337594,
0,node/7102193972,Mesalemia (Area Police),38.7254909,9.0338552,
0,node/7102193973,Luwkanda,38.7086533,9.0332635,
0,node/7102193974,Comprensive,38.7049566,9.0338494,
0,node/7102193975,Gefersa,38.642409,9.031909,
0,node/7102193976,Gojo (Kela),38.6117467,9.0563274,
0,node/7102193977,Gojo (Kela),38.6120244,9.0560454,
0,node/7102193978,Gefersa (2),38.6265192,9.0375371,
0,node/7102193979,Gefersa,38.6329501,9.0356795,
0,node/7102193980,Ashewa Meda (1),38.6674596,9.0328635,
0,node/7102193981,Kersa (1),38.6760437,9.0286003,
0,node/7102193982,Feli Doro (2),38.687173,9.0343761,
0,node/7102193983,Mesalemia,38.7244946,9.0344498,
0,node/7102269985,Merkato,38.7312074,9.0338637,
0,node/7103202615,Ayer Tena,38.6977085,8.9821491,
0,node/7103202616,German Bridge,38.7316085,8.9647174,
0,node/7103202617,Mebrathile (EEPCo),38.7342372,8.9470109,
0,node/7103202619,Saris Abo,38.7692016,8.9444277,
0,node/7103202620,Saris Abo,38.7666082,8.944353,
0,node/7103202621,Kality Maseltegna,38.7645892,8.9336411,
0,node/7103202622,Hana Mariam (Bridge),38.7550031,8.930547,
0,node/7103202623,Mickael Bridge,38.72738,8.9653607,
0,node/7103202625,Ayer Tena,38.6976219,8.9820533,
0,node/7104888674,Bel Air,38.7729637,9.0323651,
0,node/7105158906,CMC (Apartments),38.8506098,9.0211237,
0,node/7105158907,Tafo Condominium 2,38.8774831,9.0462589,
0,node/7105158908,Tafo Condominium 1,38.8775457,9.0502639,
0,node/7105268824,Mebrat (Lafto),38.7490031,8.9593839,
0,node/7105268825,Dildiy Mariam,38.7497551,8.9587047,
0,node/7105268826,Lafto (Mickael),38.7504407,8.9537745,
0,node/7105268828,Lafto,38.7493803,8.9465504,
0,node/7105268830,Lafto (Primary School),38.7450783,8.9558865,
0,node/7105398617,Post Office (Ambassador),38.7534558,9.0185243,
0,node/7105398618,6 Kilo,38.761425,9.0462,
0,node/7105398619,Teferi Mekonen,38.7623138,9.0522977,
0,node/7105584907,Marathon Motor (Megenagna),38.7999868,9.022269,
0,node/7105584908,Arat Kilo,38.762507,9.0332665,
0,node/7105584909,Piassa Arada,38.7532588,9.0341288,
0,node/7105584911,Arat Kilo,38.7625094,9.0332715,
0,node/7105584912,Abebe Sook,38.7888307,9.0289345,
0,node/7105840324,Abune Petros,38.7492708,9.0358919,
0,node/7105840325,Yohannes,38.745898,9.0424895,
0,node/7105840326,Arbegnoch Primary School,38.7421685,9.0472271,
0,node/7105840327,Enqulal Fabrica,38.7376837,9.0485317,
0,node/7105840330,Yohannes,38.7450108,9.0434044,
0,node/7105840331,Enqulal Fabrica,38.7373533,9.0481067,
0,node/7107670562,Sefera,38.7350358,8.9209077,
0,node/7107670563,Mebrathile (EEPCo),38.7332384,8.94963,
0,node/7107670564,Mekanisa Abo,38.7341183,8.9829863,
0,node/7107789218,Jemmo 2,38.6879228,8.9606298,
0,node/7107789219,Piassa (Downtown Cafe),38.7511477,9.0319297,
0,node/7107789220,Jemmo 2,38.6878636,8.9605732,
0,node/7108224469,Kera,38.7483037,8.9860956,
0,node/7110438104,6th (Raddison Blu),38.7675202,9.0166264,
0,node/7110438105,Kazanchis (6th),38.7701955,9.0171928,
0,node/7110438106,Aware Roundabout,38.7758778,9.0231177,
0,node/7110438107,Signal,38.7815333,9.0234853,
0,node/7110438108,Dinberwa Hospital,38.7867845,9.0221973,
0,node/7110438109,Lem Hotel,38.7940254,9.0212061,
0,node/7110438110,Lamberet (Queens),38.8157252,9.022362,
0,node/7110438111,Kotebe 01,38.8281186,9.0348925,
0,node/7110438113,Kotebe 01,38.8281855,9.0349074,
0,node/7110438114,Shola (United Bank),38.7948696,9.0217059,
0,node/7110438115,Sumeya Mosque,38.792498,9.021194,
0,node/7110438116,Signal,38.7815645,9.023369,
0,node/7110725239,Kality Gebriel,38.7640618,8.9104302,
0,node/7110725240,Addis Sefer (Overpass),38.7673729,8.9572931,
0,node/7110725241,Bole Mickael (2),38.7723221,8.9799499,
0,node/7110725242,Bole Bridge,38.7903601,8.9867261,
0,node/7110725243,MOENCO,38.7957512,8.9948785,
0,node/7110725244,Sport Academy,38.7988652,9.0009401,
0,node/7110725245,Anbessa Garage,38.8030776,9.0077883,
0,node/7110725247,Anbessa Garage,38.8032793,9.0076034,
0,node/7110725248,Emperial Hotel,38.8009424,9.0037859,
0,node/7110725250,Bole (Bora Amusement),38.7947105,8.9910225,
0,node/7110725251,Bole Mickael (2),38.7721474,8.9795995,
0,node/7110725252,Addis Sefer,38.7676814,8.9603711,
0,node/7110725253,Saris Abo,38.7692206,8.945759,
0,node/7110725254,Kality (Correctional Facility),38.7648588,8.9234126,
0,node/7110725256,Kality Meneharia,38.7718808,8.8959395,
0,node/7111821010,Arat Kilo,38.7588358,9.0354591,
0,node/7111821011,Piassa (EPPCO),38.7538404,9.0325113,
0,node/7111821013,Autobis Tera,38.7374552,9.0317457,
0,node/7111821015,Autobis Tera,38.7372851,9.0302352,
0,node/7111821016,Dinberwa Hospital (1),38.7887833,9.0216842,
0,node/7112123457,Chid Tera,38.721592,9.0374493,
0,node/7112123458,Mebrathail,38.7149359,9.0294949,
0,node/7112123459,Kolfe Keranyo,38.7177803,9.0173854,
0,node/7112123460,Keranio Bridge,38.708993,9.0193846,
0,node/7112123462,Kolfe Keranyo,38.7176821,9.0170237,
0,node/7112123463,Abysinia Coffee,38.7163686,9.0370321,
0,node/7112123464,Chid Tera,38.7208971,9.0376714,
0,node/7112215078,Old Airport (Mobil),38.7188624,8.9998854,
0,node/7112215079,Minaye (Shoa Supermarket),38.7196192,9.008471,
0,node/7112215080,Holand,38.7158287,9.0208524,
0,node/7112215081,18 Mazoria (Atena Tera),38.7141478,9.0361682,
0,node/7112215082,Atena Tera,38.7125982,9.0409736,
0,node/7112215083,Winget TVET,38.7116581,9.0491202,
0,node/7112215084,Winget,38.7124575,9.0555289,
0,node/7112280388,Winget,38.7127274,9.0554541,
0,node/7112280389,Winget TVET,38.7117843,9.0494004,
0,node/7112280390,kolfe (Atena Tera),38.7122352,9.0448145,
0,node/7112280391,Atena Tera,38.712721,9.0414434,
0,node/7112280392,18 Mazoria (Atena Tera),38.7143961,9.0362317,
0,node/7112280393,Meseret Edget,38.7152453,9.0244809,
0,node/7112280394,Augusta Bridge (Tor Hailoch),38.7188519,9.0056155,
0,node/7112648156,Mahiber Betoch,38.8146269,8.8596281,
0,node/7112648157,Project 12 Akababi,38.8210444,8.865212,
0,node/7112648158,G7 (Tulu Dimtu),38.8204129,8.8701237,
0,node/7112648159,Belay Ab Moters,38.7965426,8.871336,
0,node/7112648160,Gelan Condominium,38.779459,8.8797273,
0,node/7112648161,Kality Total,38.7728422,8.894811,
0,node/7112648162,Akaki Subcity Office (Menaheria),38.770309,8.8973286,
0,node/7112648163,Kality (Correctional Facility),38.7641522,8.9224149,
0,node/7112648164,Techtra Engineering,38.7676362,8.9281178,
0,node/7112648165,Adey Abeba,38.7637599,8.9572677,
0,node/7112648166,Kality Maseltegna,38.7669427,8.9323914,
0,node/7112648167,Wehalemat,38.768315,8.9298175,
0,node/7112648168,Awash Bank (Akaki Kality),38.7768426,8.8837788,
0,node/7112648169,Gelan Condominium,38.7793211,8.8799589,
0,node/7112648170,Belay Ab Moters,38.7963837,8.8716847,
0,node/7112648172,TAF Oil (Tulu Dimtu),38.8091005,8.8705655,
0,node/7112755338,Teklehaymanot,38.7439418,9.0278217,
0,node/7112755340,Autobis Tera,38.7376384,9.0314996,
0,node/7112755342,Autobis Tera,38.7381207,9.0308454,
0,node/7112755343,Meteorology,38.7468282,9.0194238,
0,node/7113004009,Girum Hospital,38.7199737,9.0462468,
0,node/7113004010,Ras Hailu (Medhanialem),38.7211613,9.0509733,
0,node/7113004011,Awolia,38.7114101,9.0572551,
0,node/7113004012,Bercheko Fabrica (Asko),38.6983516,9.0640587,
0,node/7113004013,Gulele,38.70588,9.0598807,
0,node/7113004014,Ras Hailu (Medhanialem),38.7210939,9.0507813,
0,node/7113004015,Woreda 7 TVET,38.7212829,9.040909,
0,node/7113004016,Chid Tera,38.7213725,9.0380466,
0,node/7113004018,Autobis Tera,38.7365754,9.0312199,
0,node/7113004020,Michael (2),38.73268,9.0426217,
0,node/7113004021,Pawlos Hospital (Saba Mosque),38.7261371,9.0485205,
0,node/7113004022,Anbessa Garage (Shegole),38.7205811,9.0643796,
0,node/7113004024,Shegole (Mender 7),38.7266132,9.0641379,
0,node/7113004026,Shegole (Mender 7),38.726699,9.0641466,
0,node/7113004027,Hassen & Hussein Mosque (Shegole),38.7189551,9.0589167,
0,node/7113004028,Shegole Bank,38.7198445,9.0548351,
0,node/7113004029,Michael,38.7321449,9.0409541,
0,node/7113158623,Eyesus,38.7712666,9.0652655,
0,node/7122983960,Wello Sefer,38.7741153,8.9931107,
0,node/7122983961,Kassech Kitfo,38.7720567,8.9891423,
0,node/7122983962,Ambasel,38.7679985,8.9855755,
0,node/7122983963,WAGGA (Singer Liquior Store),38.7662234,8.9840055,
0,node/7122983964,Wengalawit,38.7635127,8.9814923,
0,node/7122983968,Wengalawit,38.7636059,8.9817105,
0,node/7122983969,MEDCO,38.7680101,8.9857381,
0,node/7122983970,Tebaber Berta,38.7723942,8.98977,
0,node/7122983972,Wello Sefer,38.7739711,8.9930626,
0,node/7123180286,Beshale Area,38.8356151,9.0113972,
0,node/7123180287,Megenagna,38.802106,9.0185063,
0,node/7123180289,Jacros,38.821148,9.0111777,
0,node/7123180290,Safari,38.8526604,9.0100121,
0,node/7123180291,Safari (Summit),38.8657082,9.0116739,
0,node/7123180293,Safari (Summit),38.8657494,9.0115148,
0,node/7123180295,Safari,38.8513684,9.0099646,
0,node/7123180296,Beshale Area,38.8356503,9.011279,
0,node/7123180297,Gurd Shola,38.8201425,9.0189315,
0,node/7123180298,Megenagna,38.803506,9.0194519,
0,node/7123265052,Meskel Flower,38.7650036,8.9882804,
0,node/7123265053,Loza (Adot),38.7659652,8.9911645,
0,node/7123265054,Nazra Hotel,38.7663984,8.9934001,
0,node/7123265055,Yetam Hotel,38.7666123,8.9959487,
0,node/7123265056,Kebele Kibeb,38.7667571,8.9980982,
0,node/7123265061,Mulu Shewa (Gazebo),38.7669271,8.9999844,
0,node/7123265062,Kebele Kibeb,38.7668423,8.9979306,
0,node/7123265063,Yetam Hotel,38.7667132,8.9959132,
0,node/7123265064,Nazra Hotel,38.7665439,8.9937071,
0,node/7123265065,Loza (Adot),38.7660467,8.9910552,
0,node/7123265066,Meskel Flower,38.7652457,8.9885268,
0,node/7182111861,Total 3 Kuter Mazoria,38.7180191,8.9921561,
0,node/7182111862,Kera,38.7468023,8.9865792,
0,node/7214490240,4 Kilo Minilik School,38.7629695,9.0351361,
0,node/7214490241,Kality Menaheriya,38.7708485,8.8967488,
0,node/10672522047,Holeta,38.497947,9.0675662,
0,node/10672522056,Sademo,38.53199,9.065884,
0,node/10672522057,Cheshire Ethiopia,38.5920589,9.0712731,
0,node/10672721751,Delta Fuel Station,38.8085926,8.8504983,
0,node/10672739809,Sidama Awash NOC,38.8243789,8.8412588,
0,node/10672739811,Atlas Resort,38.8396009,8.8314833,
0,node/10672739815,ODDA Fuel Station,38.818065,8.8447465,
0,node/10672961242,3 Kutir (TZNA Area),38.717673,8.9943894,
0,node/10672961244,Lideta High Court,38.7335924,9.0117316,
0,node/10750378219,Ayer Tena,38.7024743,8.9839135,
0,node/10755917239,Sar Bet,38.7394551,8.9925223,
0,node/10755917241,Sar Bet,38.7392871,8.9924619,
0,node/10755917242,Kera,38.7469304,8.9859671,
0,node/10755917243,Kera,38.7418629,8.9900132,
0,node/10755917244,Sar Bet,38.7376124,8.995096,
0,node/10755917245,karl Square,38.7309965,8.9973975,
0,node/10755917246,karl Square,38.7302642,8.9970773,
0,node/10755917247,Bisrate Gebrael,38.7268512,8.9927368,
0,node/10755917248,Bisrate Gebrael,38.7255644,8.9914228,
0,node/10755917249,Bisrate Gebrael,38.7226976,8.9888937,
0,node/10755917250,Total 3 Kuter Mazoria,38.7175917,8.9922875,
0,node/10766121857,kality Meneharia,38.7708737,8.8967652,
0,node/10766121859,kality Maseltegna,38.7669453,8.9319554,
0,node/10766121860,Kadisco Roundabout,38.7668102,8.9632423,
0,node/10766121861,Bole Mickael,38.7761571,8.9816305,
0,node/10766121862,Bole Printing Press,38.7721247,8.9966149,
0,node/10766121863,Flamingo,38.7634141,9.0100526,
0,node/10766121864,St. Estifanos,38.7626278,9.0125659,
0,node/10766121865,4 Kilo (Menlik),38.7629874,9.035146,
0,node/10766121866,4 Kilo (Menlik),38.7631121,9.0352952,
0,node/10766121867,Place Parking (Gibi Gebriel),38.7641345,9.0214342,
0,node/10766121868,Flamingo,38.7636218,9.01014,
0,node/10766121869,Wollo Sefer,38.7743234,8.9944147,
0,node/10766121871,Bole Mikael,38.7761469,8.9812653,
0,node/10766121872,Mamo (Nifas Silk),38.765481,8.9737518,
0,node/10766121873,kality Maseltegna,38.7670877,8.9321192,
0,node/10766121874,kality Meneharia,38.7721261,8.8957067,
0,node/10766454593,Olympia,38.7674734,9.0056744,
0,node/10766454594,Bole Roundabout,38.7908923,8.9867247,
0,node/10768858714,German Square,38.7341844,8.965437,
0,node/10768858715,Gofa Camp,38.7420458,8.97192,
0,node/10768858718,African Union,38.7411322,9.003043,
0,node/10768858719,Autobis Tera,38.7370315,9.0296254,
0,node/10768858720,Guenet Hotel (Orbis),38.7470064,9.0026517,
0,node/10768858723,German Square,38.7340469,8.9651822,
0,node/10781643820,Lamberet Menaheria,38.8198728,9.0239162,
0,node/10781643821,Arat Kilo,38.7650098,9.0322896,
0,node/10781643822,4 kilo (Children Theatre),38.7666152,9.0328365,
0,node/10781643823,Bel Air,38.7736753,9.0325481,
0,node/10781643824,Kebena,38.7768069,9.0344084,
0,node/10781643825,Kokebe Tsebah (Kebena),38.7794124,9.0350794,
0,node/10781643826,Kenya Embassy (Kebena),38.7823515,9.0324942,
0,node/10781643827,British Embassy,38.785575,9.0309005,
0,node/10781643828,Abebe Sook,38.7888226,9.0289673,
0,node/10781643829,Shola (Yeka Court),38.7947497,9.0251295,
0,node/10781643830,Shola Abyssinia Bank,38.7984062,9.0232585,
0,node/10781643831,Megenagna (Marathon Motors),38.7997354,9.0224046,
0,node/10781643832,Megenagna,38.8010368,9.0208971,
0,node/10781643833,Megenagna (Israel Embassy),38.8048559,9.0208722,
0,node/10781643834,Lamberet Menaheria,38.8199227,9.0240444,
0,node/10781643835,Kotebe,38.836729,9.0297042,
0,node/10781643836,Kotebe,38.8385612,9.0304539,
0,node/10781643837,Kotebe Teachers College,38.8490303,9.0348007,
0,node/10781643838,Kotebe Gebriel,38.8553365,9.0363204,
0,node/10781643839,Kotebe Gebriel,38.8541265,9.0358505,
0,node/10781643840,Wessen Grocery,38.8443436,9.032918,
0,node/10781643841,Kara,38.8648947,9.0407203,
0,node/10781643842,Kara,38.8653607,9.0411416,
0,node/10781844855,Abebe Sook,38.788672,9.0287927,
0,node/10781844856,British Embassy,38.7843424,9.0313214,
0,node/10781844857,5 Kilo St. Mary,38.7623866,9.038677,
0,node/10781844858,6 Kilo University,38.7614003,9.0462129,
0,node/10781844859,6 Kilo University,38.7615945,9.0462072,
0,node/10781844860,6 Kilo (Lion Zoo),38.7615002,9.0430896,
0,node/10781844861,Kenya Embassy (Kebena),38.7826601,9.032679,
0,node/10781844862,Shola (Yeka Court),38.7953847,9.0250431,
0,node/10781844863,Megenagna (Marathon Motors),38.7998471,9.0225097,
0,node/10823916391,Yeka 03,38.8773834,9.0381854,
0,node/10842065101,Sefera Atkilt Tera,38.7341685,8.931276,
0,node/10842065103,kality Maseltegna,38.7646885,8.9358559,
0,node/10842065104,Bulgaria,38.7478806,8.9948043,
0,node/10842129005,Kality Customs,38.7628904,8.9379429,
0,node/10842129006,Germen Square,38.7330813,8.9644696,
0,node/10842129008,Hana Mariam,38.7441345,8.93579,
0,node/10842129009,Gomista,38.7703639,8.9373819,
0,node/10842129010,Nigd bank,38.780123,8.948706,
0,node/10842129011,kality Maseltegna,38.7642814,8.9342123,
0,node/10842129012,Kadisco,38.7585214,8.9310906,
0,node/10842129013,Adey abeba,38.7638648,8.9582797,
0,node/10842129015,Saris abo,38.7690665,8.9457865,
0,node/10842129016,Haile Garment,38.7345583,8.93876,
0,node/10842129017,Saris,38.7635479,8.9546992,
0,node/10842129019,Bole Cargo,38.7819099,8.9834477,
0,node/10842129020,Bulgaria,38.7483448,8.9944221,
0,node/10842129021,Kore,38.7765022,8.9482742,
0,node/10842129022,Saris Abo,38.7691994,8.9444276,
0,node/10842129023,Kality Menaheria,38.7704449,8.8973782,
0,node/10842129024,Sefera Square,38.7340982,8.9254109,
0,node/10842129025,Mexico,38.7463895,9.009032,
0,node/10842129026,Kality Gebriel,38.7644698,8.9092945,
0,node/10842129027,Derartu,38.7821218,8.8869211,
0,node/10842129028,Bole Cargo,38.7818039,8.9836884,
0,node/10842129029,Kality Total,38.7729402,8.8948904,
0,node/10842129030,Noc,38.748144,8.9927142,
0,node/10842129031,Lancha,38.7590821,8.9901397,
0,node/10842129032,Haile Garment,38.7359129,8.9375158,
0,node/10842129033,Agona,38.759633,8.9880834,
0,node/10842129034,kality Maseltegna,38.76464,8.9336783,
0,node/10842129035,Mesqelegna,38.7214531,8.9417644,
0,node/10842129037,Jemo,38.6979529,8.9537651,
0,node/10842129038,Adey abeba,38.7640443,8.9577771,
0,node/10842129040,Saris Abo,38.7661797,8.9448318,
0,node/10842129041,Mebrat hayle,38.7343973,8.9457862,
0,node/10842129042,Kadisco,38.7669226,8.9633984,
0,node/10842129043,Hana Mariam,38.7453864,8.9356798,
0,node/10842129045,Mamo (NFSL),38.7609585,8.9729895,
0,node/10842129046,Medhani alem,38.7785848,8.9490785,
0,node/10842129047,Mosque (Mesged),38.7660661,8.9047633,
0,node/10842129048,Kality Gebriel,38.7645559,8.9093265,
0,node/10842129051,Bole Roundabout,38.7888143,8.9859342,
0,node/10842129052,Wuhalimat,38.7681435,8.9295556,
0,node/10842129053,Hana Mariam,38.7445142,8.9361549,
0,node/10842129054,Bole Mickael,38.7719673,8.9797944,
0,node/10842129055,Sheger building,38.7635639,8.9192813,
0,node/10842129056,Yoseph,38.7668114,8.9705748,
0,node/10842129057,Bulgaria,38.7477478,8.9947898,
0,node/10842129058,Mebrathayil,38.7342346,8.9470316,
0,node/10842129059,Sefera Square,38.7346011,8.9250202,
0,node/10842129060,Tele Garage,38.758701,9.0000494,
0,node/10842129061,Mebrathayil,38.7339445,8.9469179,
0,node/10842129062,Haile garment,38.7335906,8.9376734,
0,node/10842129063,Meshualekia,38.758986,9.0058652,
0,node/10842129066,Adey abada,38.7640108,8.9571801,
0,node/10842129069,Menaheria (Zenebu Werk),38.706617,8.9755358,
0,node/10842129070,Adis sefer,38.767446,8.9602509,
0,node/10842129071,Kadisco,38.758758,8.930883,
0,node/10842129072,Bulgaria,38.7478486,8.993831,
0,node/10842129073,Kadisco,38.7627716,8.9661182,
0,node/10842129074,Bulbula,38.7861393,8.9517202,
0,node/10842129075,Kadisko,38.7629867,8.966096,
0,node/10842129076,Saris abo,38.7700795,8.9444437,
0,node/10842129077,Meshualekya,38.7875287,8.8759809,
0,node/10842129078,Agona,38.7597928,8.9871416,
0,node/10842129079,Gotera chaf,38.7595824,8.9771026,
0,node/10842129080,Saris,38.7633358,8.9528149,
0,node/10842129082,St. Joseph School,38.7593422,9.0106804,
0,node/10842129083,Kotari Condominium,38.7338312,8.9321621,
0,node/10842129084,Mamo,38.7652695,8.9732793,
0,node/10842129085,Saris Abo,38.7664084,8.9448603,
0,node/10842129086,Yosef,38.7665547,8.9705442,
0,node/10842129088,Kality Cheralia,38.7654586,8.9068482,
0,node/10842129089,Kality Cheralia,38.7653555,8.9066965,
0,node/10842129090,Lancha,38.7593009,8.9906489,
0,node/10842129091,Gomista,38.7701062,8.9375024,
0,node/10842129092,Haile Garment,38.7331196,8.9375082,
0,node/10842129093,Tele Garage,38.7584826,9.0001174,
0,node/10842129094,Selam Building,38.7767338,8.8840544,
0,node/10842129095,Medhani alem,38.7769101,8.9453322,
0,node/10842129096,Selam Building,38.7772259,8.8831855,
0,node/10842129097,Meshualekya,38.7872182,8.8759552,
0,node/10842129098,Saris,38.7635911,8.9531876,
0,node/10842129102,Germen adebabay,38.7328242,8.963723,
0,node/10842129103,Mamo (NFSL),38.7607874,8.972508,
0,node/10842129105,Kera,38.7486365,8.9875165,
0,node/10842129106,Agona,38.7599766,8.9867627,
0,node/10842129107,Saris abo,38.7701231,8.9446574,
0,node/10842129108,Kera,38.7483211,8.9860883,
0,node/10842129110,Gelan Condominium,38.7666013,8.8790966,
0,node/10842129111,Temenja yasi,38.7596133,8.9953066,
0,node/10842129112,Riche,38.7588933,9.0041803,
0,node/10842129113,Haile garment,38.7364242,8.9368154,
0,node/10842129114,Bole Mickael,38.7720906,8.9795749,
0,node/10842129116,Ayer Tena,38.6971287,8.9835322,
0,node/10842129117,Jemo,38.6977027,8.9537239,
0,node/10842129118,Land mark,38.7467544,9.0052072,
0,node/10842129119,Meskelegna,38.7218311,8.9411484,
0,node/10842129120,Haile Garment,38.7349153,8.9381771,
0,node/10842129121,Riche,38.7586909,9.0040548,
0,node/10842129122,Kore,38.7841911,8.9476648,
0,node/10842129124,Meshualekya,38.7866845,8.8770606,
0,node/10842129125,Bulbula,38.7863461,8.9518942,
0,node/10842129126,kality Maseltegna,38.7643342,8.9357353,
0,node/10842129129,Saris abo,38.7692278,8.9457601,
0,node/10842129131,Addis sefer,38.7676873,8.9603252,
0,node/10842129132,Hana mariam,38.744852,8.9352291,
0,node/10842129133,Kera,38.7484325,8.9866879,
0,node/10842129134,Gotera chaf,38.7601404,8.9757898,
0,node/10842129135,Akaki Subcity Office (Menaheria),38.770318,8.8972852,
0,node/10842129136,Condominium,38.7717099,8.9411922,
0,node/10842129137,Gelan Condominium,38.7666701,8.8789992,
0,node/10842129139,Wuhalimat,38.7683276,8.9295931,
0,node/10842129140,Mexico,38.7461882,9.0098761,
0,node/10845731573,Grand Anwar Mosque,38.7413343,9.0312472,
0,node/10845731574,Kebele 11,38.7457773,9.0247282,
0,node/10845731575,Guenet hotel,38.7468651,9.0028738,
0,node/10845731576,Lancia,38.7589891,8.9923344,
0,node/10845731577,Pepsi,38.755826,8.9825134,
0,node/10845731578,Lancia,38.7591215,8.9919399,
0,node/10845731579,Tekle Haimanot,38.7438378,9.0279893,
0,node/10845731580,Saris Abo,38.7666459,8.9441872,
0,node/10845731581,Legehar,38.7544517,9.0120319,
0,node/10845731582,Kera,38.7522272,8.9841589,
0,node/10845731583,Kality Customs,38.7631799,8.9380577,
0,node/10845731584,Gojam Berenda,38.7378007,9.0342603,
0,node/10845731585,Gojam Berenda,38.7381021,9.0343553,
0,node/10845731586,Derartu,38.7818893,8.8869148,
0,node/10845731587,Pepsi,38.7557408,8.9824223,
0,node/10845731588,Global Hotel,38.7596457,8.9943898,
0,node/10845731589,Sheger Building,38.7637542,8.9208636,
0,node/10845731590,Autobus Tera,38.734431,9.0343246,
0,node/10845731591,Guenet hotel,38.7469738,9.0027786,
0,node/10845731592,Tekle Haimanot,38.7439714,9.0279685,
0,node/10845731593,Beg Tera,38.7476261,8.9970419,
0,node/10845731594,Global Hotel,38.7598651,8.9943499,
0,node/10845731595,Kality Correctional,38.7641252,8.9223845,
0,node/10845731596,Cheralia Factory,38.7667306,8.9029367,
0,node/10845731597,Kebele 11,38.7457421,9.0246149,
0,node/10845731598,Grand Anwar Mosque,38.7414003,9.0310422,
0,node/10845731599,National Theatre,38.7526758,9.0165472,
0,node/10845731600,Sheger Building,38.7639368,8.9214902,
0,node/10845731601,Saris,38.767986,8.95346,
0,node/10845731602,Beg Tera,38.7475303,8.9968163,
0,node/10845731603,Sengatera,38.7468099,9.014753,
0,node/10845731604,Mexico,38.746301,9.0096228,
0,node/10845749005,Bulgaria,38.7479845,8.9937615,
0,node/10845840895,kality Meneharia,38.7720203,8.8956285,
0,node/10845840896,Ayer Tena,38.6966894,8.9841176,
0,node/10845840897,Germen adebabay,38.7330269,8.9637758,
0,node/10846106471,Kality Total,38.7728316,8.8948231,
0,node/10881147490,Bole Bridge,38.7912092,8.9869946,
0,node/10881147492,Bole Bridge,38.7903563,8.9867302,
0,node/10883106542,Autobus Tera,38.7338003,9.0341009,
0,node/10886135782,Bajaj Tera,38.7415025,8.907041,
0,node/10886135783,Chera,38.7479978,8.904156,
0,node/10886135784,Gelan Condominium,38.7622377,8.8772921,
0,node/10886135785,Total,38.7845626,8.8549158,
0,node/10886135787,Tulu Dimtu,38.8197795,8.8737817,
0,node/10886135789,Tulu Dimtu,38.8202354,8.8738791,
0,node/10886135790,G7,38.820802,8.8709574,
0,node/10886135791,Total,38.7847209,8.8541896,
0,node/10886135793,Gelan Condominium,38.7630121,8.8758233,
0,node/10886281950,Bole Bridge,38.7928534,8.9906055,
0,node/10886281951,Bole Medhanyalem,38.7887705,8.9955183,
0,node/10886281952,Edna Mall Squar,38.7870108,8.9973425,
0,node/10886281953,Adey Ababa Stadium,38.7892817,9.0043569,
0,node/10886281954,22 Mazoria,38.7872566,9.0150262,
0,node/10886281956,22 Mazoria,38.787438,9.0150056,
0,node/10886281958,Freedom,38.7887083,9.0082739,
0,node/10886281997,Werku Building,38.7890587,9.0069454,
0,node/10886281998,Adey Ababa Stadium,38.7893444,9.0042976,
0,node/10886281999,Edna Mall Squar,38.7869491,8.9977034,
0,node/10886282000,Bole Medhanyalem,38.7885714,8.995948,
0,node/10886282001,Bole Bridge,38.7929596,8.9906936,
0,node/10886427067,22 Mazoria,38.7881236,9.0161537,
0,node/10886427068,Lem Hotel,38.7950715,9.017758,
0,node/10886427069,Megenagna,38.8019786,9.0198841,
0,node/10886427070,Gurd Shola,38.8200261,9.0191878,
0,node/10886427071,Civil Servis College,38.8345374,9.0218654,
0,node/10886427072,Yetebaberut,38.8536095,9.0209806,
0,node/10886427073,Ayat,38.8750186,9.0214852,
0,node/10886427074,Civil Servis College,38.8350083,9.0215577,
0,node/10886427075,Ayat,38.8737977,9.0211711,
0,node/10886427076,Meshageria,38.8598848,9.0204163,
0,node/10886427077,Yetebaberut,38.8535182,9.020619,
0,node/10886883544,Bole Bora Amusement,38.7941243,8.9907378,
0,node/10886883546,Megenagna,38.8016982,9.0185543,
0,node/10886883547,Anbessa Garage,38.8034449,9.0078296,
0,node/10886883548,Emperial Hotel,38.8009392,9.0037737,
0,node/10886883549,Hayat Hospital,38.7961015,8.9950343,
0,node/10886883550,Bole Bora Amusement,38.7949793,8.9916604,
0,node/10886991025,Sun shine,38.852562,9.0199832,
0,node/10886991026,Megenagna,38.8042842,9.0200202,
0,node/10886991027,Meshualekia,38.841553,9.021578,
0,node/10886991028,Safari,38.8522797,9.0110042,
0,node/10886991029,Summit,38.8519977,9.004015,
0,node/10886991031,Summit,38.8517386,9.004282,
0,node/10886991032,Safari,38.8519018,9.010941,
0,node/10886991033,Sun shine,38.8520834,9.0199154,
0,node/10886991034,Meshualekia,38.8415391,9.021324,
0,node/10886991035,Michael,38.8392942,9.021353,
0,node/10886991036,Gurd Shola,38.8211275,9.0187135,
0,node/10887120325,Hayat Hospital,38.7956759,8.9948468,
0,node/10887120326,Sport Accadamy,38.798384,9.0001969,
0,node/10887120327,Emperial Hotel,38.8000262,9.0027661,
0,node/10887120328,Mulugeta Building,38.8016319,9.0187177,
0,node/10890083966,93 Mazoria,38.7855121,8.9603848,
0,node/10890083967,Kaldisco,38.7863684,8.9623057,
0,node/10890083968,Key Afer,38.7872114,8.9642046,
0,node/10890083969,Bole Bridge,38.7938035,8.9901774,
0,node/10890083974,Mulugeta Building,38.8025239,9.0169433,
0,node/10890290096,Key Afer,38.7873203,8.9642211,
0,node/10890290097,93 Mazoria,38.785703,8.9604784,
0,node/10890290098,Kebele,38.7875752,8.9581348,
0,node/10893030388,Anbessa Garage,38.8031745,9.0080412,
0,node/10893030389,Jacros,38.8169267,9.0035488,
0,node/10893030390,Alem Ayew Building,38.8210973,8.9993201,
0,node/10893030392,Goro,38.8283586,8.9923039,
0,node/10893030394,Goro,38.8287738,8.9917123,
0,node/10893030395,Goro School,38.8266397,8.9939213,
0,node/10893030396,Alem Ayew Building,38.8210064,8.9992455,
0,node/10893030397,Jacros,38.8166485,9.0035377,
0,node/10893030398,Sport Accadamy,38.7986195,8.9999982,
0,node/10893030400,Bole Bridge,38.7947324,8.9911487,
0,node/10893316186,Figa,38.8336594,9.0122741,
0,node/10893316189,Mesgid,38.8366122,9.0110639,
0,node/10893316190,Figa,38.8335762,9.0121764,
0,node/10898980600,Bole Mickael,38.7731313,8.984658,
0,node/10898980601,Ambasader,38.7551282,9.0162838,
0,node/10898980602,Dembel,38.7662663,9.0069448,
0,node/10898980603,Stadium,38.7586647,9.0123922,
0,node/10898980604,Metrology,38.7466456,9.0192676,
0,node/10898986005,Tikur Anbesa,38.7476072,9.0217285,
0,node/10898986007,Tikur Anbesa,38.7476005,9.0207753,
0,node/10898986008,Metrology,38.7467207,9.0188878,
0,node/10898986009,Ambasader,38.7553118,9.0164136,
0,node/10898986010,Stadium,38.760062,9.011485,
0,node/10898986011,Dembel,38.7686303,9.0038396,
0,node/10898986012,Bole Printing Press,38.7717243,8.9979213,
0,node/10898986014,Bole Mickael,38.7734946,8.9849144,
0,node/10899009892,Cinema Ras,38.7413697,9.0318094,
0,node/10899009893,Cinema Ras,38.7414723,9.0317766,
0,node/10899150564,Rwanda,38.7781683,8.992509,
0,node/10899150565,Shewa Dabo,38.7693116,9.0017627,
0,node/10899150566,St. Estifanos Church,38.7626611,9.0120704,
0,node/10899150567,Piassa Arada,38.7511048,9.0321752,
0,node/10899150568,Piassa Arada,38.7525581,9.0330229,
0,node/10899150569,Tewodros Square,38.7517894,9.0264157,
0,node/10899150570,Tikur Anbesa,38.7522625,9.0210948,
0,node/10899150571,Post Office,38.7529153,9.019064,
0,node/10899150572,Ghion Hotel,38.7576138,9.0138467,
0,node/10899278324,Bole Bridge,38.7897689,8.9885561,
0,node/10899278325,Friendship Building,38.7840796,8.9908062,
0,node/10899278326,Rwanda,38.7798445,8.9923825,
0,node/10899278327,Friendship Building,38.7844715,8.9908613,
0,node/10899278328,Bole Bridge,38.7898626,8.9887169,
0,node/10899524535,Anbessa Garage,38.8038533,9.0084115,
0,node/10899524536,Condominium - Gerji Mebrat hayle,38.8100683,9.0049309,
0,node/10899524537,Gerji Mebrat hayle,38.814209,9.0036683,
0,node/10899524538,Goro,38.8294024,8.9913434,
0,node/10899524539,kilinto Right,38.815561,8.900477,
0,node/10899524540,Tulu Dimtu,38.8197368,8.8753804,
0,node/10899524542,kilinto Right,38.8150743,8.900461,
0,node/10899524543,Goro,38.8292469,8.9912832,
0,node/10899524544,Gerji Mebrat hayle,38.8134376,9.0035919,
0,node/10899524545,Condominium - Gerji Mebrat hayle,38.8095948,9.0050654,
0,node/10899524547,Anbessa Garage,38.8055809,9.0071868,
0,node/10899590290,Mesgid,38.8364067,9.011198,
0,node/10899590291,Saint Georgis,38.8518486,8.994461,
0,node/10899590293,Saint Georgis,38.8515329,8.994389,
0,node/10899652823,Mebrathile,38.7332958,8.9493529,
0,node/10899652824,Gebriel Bridge,38.7324445,8.9556186,
0,node/10899652825,Mickael Bridge,38.7273491,8.965384,
0,node/10899652826,Zenebewerk,38.7121031,8.9727473,
0,node/10899652827,Chaina Camp,38.7055213,8.975714,
0,node/10899652829,Ayer Tena,38.6982059,8.981635,
0,node/10901428140,Haile Garment,38.7348966,8.9385233,
0,node/10901428141,Sefera,38.7353205,8.9201595,
0,node/10901428142,Sefera Atkilt Tera,38.7337094,8.9311784,
0,node/10901428143,Sefera,38.734667,8.9208099,
0,node/10901522017,Mesalemia,38.7519617,8.8870433,
0,node/10901522018,Chera Medhanilem,38.7484085,8.9032086,
0,node/10901522020,Haile Garment,38.7346387,8.935726,
0,node/10901522021,Chera Medhanilem,38.7491293,8.9034769,
0,node/10901522022,Mesalemia,38.7524365,8.8871115,
0,node/10901643508,Saris,38.7629397,8.9530332,
0,node/10901643510,58 Mazoria,38.7540078,8.9431476,
0,node/10901643511,Kidane Mihret Stebel,38.7500946,8.9405222,
0,node/10902267327,Mexico,38.7447143,9.0084289,
0,node/10902267330,Mexico,38.7448728,9.0084377,
0,node/10902267332,AU (Mikael) Rounrdabout,38.7393711,8.9990666,
0,node/10902267333,AU (Mikael) Rounrdabout,38.7395668,8.9990162,
0,node/10902267334,Sar Bet,38.7381301,8.9923567,
0,node/10902267335,Sar Bet,38.7383324,8.9923453,
0,node/10902267336,Abo Mazoria,38.7342938,8.9822679,
0,node/10902267337,Abo Mazoria,38.7344209,8.9823292,
0,node/10902267338,Mekanisa,38.7311351,8.9729293,
0,node/10902267339,Mekanisa,38.7312498,8.9728812,
0,node/10902267340,Gebriel Bridge,38.732719,8.9555964,
0,node/10903393900,58 Mazoria,38.7539257,8.9432326,
0,node/10903398373,Varnelo Squer,38.7267004,8.9487486,
0,node/10903398374,Jemmo 1,38.7117668,8.9594798,
0,node/10903398375,Jemmo 1,38.712128,8.9585188,
0,node/10903398376,Jemmo Medhanialem,38.7161087,8.9524535,
0,node/10903398377,Jemmo Medhanialem,38.7162235,8.9525568,
0,node/10903398378,Kebele,38.7221583,8.9490672,
0,node/10903398379,Kebele,38.7221797,8.9491872,
0,node/10903398380,Varnelo Squer,38.7267159,8.9488837,
0,node/10904734315,Sar Bet,38.7373285,8.9951163,
0,node/10904734316,Austria Embassy,38.7276618,8.9936468,
0,node/10904734318,Total 3 Kuter Mazoria,38.7177291,8.9922476,
0,node/10905160356,Autobus Tera,38.7322404,9.0330017,
0,node/10905160357,Autobus Tera,38.7323851,9.033026,
0,node/10905160358,Sebategna,38.7329553,9.0282768,
0,node/10905160359,Sebategna,38.7331326,9.0283274,
0,node/10905160360,Abenet,38.7333187,9.021201,
0,node/10905160361,Abenet,38.7335682,9.0196344,
0,node/10905160362,Darmar,38.7346366,9.0158211,
0,node/10905160363,Darmar,38.7347971,9.0154497,
0,node/10905160364,Lideta Condominium,38.7343382,9.0133778,
0,node/10905160365,Lideta Condominium,38.7345056,9.0133623,
0,node/10905160366,Dessie Hotel,38.7337879,9.0094187,
0,node/10905160367,Dessie Hotel,38.7339331,9.0093029,
0,node/10905160368,Lideta,38.7337058,9.0046165,
0,node/10905160369,Lideta,38.7338158,9.0041332,
0,node/10905160370,AU (Mikael) Rounrdabout,38.7393722,9.0001611,
0,node/10905160371,AU (Mikael) Rounrdabout,38.7400667,8.9999889,
0,node/10905641592,Kera,38.7518897,8.9839514,
0,node/10905771998,Jemmo 1,38.7123799,8.9606229,
0,node/10905771999,Jemmo Mickael,38.7216431,8.9688439,
0,node/10905772000,Metrology,38.7468034,9.0192423,
0,node/10905772001,karl Square,38.7304143,8.9969985,
0,node/10905772002,Bisrate Gebrael,38.7227062,8.9883364,
0,node/10905772003,Jemmo Mickael,38.7218663,8.9687533,
0,node/10905772004,Jemmo 1,38.7124299,8.9604031,
0,node/10905866700,Noc,38.6701812,8.9493317,
0,node/10905876026,Alem Gena,38.6639521,8.9339514,
0,node/10905876027,Alem Gena,38.6640124,8.933851,
0,node/10905876029,Noc,38.670031,8.9493415,
0,node/10905876030,Jemmo 3 Squer,38.6965362,8.9538566,
0,node/10905876031,Jemmo 3 Squer,38.697557,8.9552123,
0,node/10905982178,Post Office,38.7520387,9.0220649,
0,node/10905982179,Germen Square,38.732839,8.9652918,
0,node/10905982180,Germen Square,38.7325545,8.9664306,
0,node/10906020778,Gofa,38.7418952,8.9717027,
0,node/10906020779,Gofa,38.7419996,8.9716231,
0,node/10906074341,Ayer Tena,38.6979766,8.9816221,
0,node/10906074342,Germen Square,38.7320917,8.9644965,
0,node/10906074343,Germen Square,38.732112,8.9646595,
0,node/10907679395,Mesked,38.6922765,8.9883638,
0,node/10907679396,Kidane Mihret,38.6893136,8.9913917,
0,node/10907679398,Tropical,38.683541,8.9958978,
0,node/10907679399,Alem Bank,38.677926,9.0003808,
0,node/10907679400,Alem Bank,38.6776565,9.0010321,
0,node/10907679401,Tropical,38.6841485,8.9957016,
0,node/10907679402,Kidane Mihret,38.689491,8.9915373,
0,node/10907679403,Mesked,38.6925125,8.9884696,
0,node/10907679404,Chaina Camp,38.7060819,8.9757717,
0,node/10907725405,Zenebewerk,38.7121867,8.9730472,
0,node/10907725406,Mickael Bridge,38.7275949,8.9655559,
0,node/10907781477,Germen Square,38.7333383,8.9648278,
0,node/10907781478,Kera,38.7500865,8.9844811,
0,node/10907781479,Kera,38.750364,8.9842955,
0,node/10907781480,Gofa Gebriel,38.7490157,8.9770976,
0,node/10907781481,Gofa Gebriel,38.7491174,8.9770919,
0,node/10908143594,Mekanisa Abo,38.7343726,8.9832814,
0,node/10908143595,Mekanisa Abo,38.7341531,8.9830621,
0,node/10908143596,Mexico,38.7440188,9.0088673,
0,node/10908143597,Mexico,38.7438,9.0088181,
0,node/10908191497,Tewodros Square,38.7516402,9.0263912,
0,node/10908191498,Mekanisa,38.7321651,8.9739466,
0,node/10908191499,Mekanisa,38.7322539,8.9738507,
0,node/10908191500,Post Office,38.7524753,9.0187971,
0,node/10908661149,Mebrathile,38.7334477,8.9493572,
0,node/10909186645,Coca Cola,38.729496,9.0159317,
0,node/10909186646,Merab Hotel,38.735361,9.0294352,
0,node/10909186647,Abenet,38.7334955,9.0213907,
0,node/10909186648,Merab Hotel,38.7353749,9.0293588,
0,node/10909186649,Kolfe Keranyo,38.7180312,9.016555,
0,node/10909186650,Holand,38.7159578,9.0203575,
0,node/10909186651,Holand,38.7162551,9.0204824,
0,node/10909186652,Kolfe Keranyo,38.7176312,9.017036,
0,node/10909186653,Kolfe Keranyo,38.7179346,9.0171583,
0,node/10909186654,Torhayloch,38.7202541,9.0122446,
0,node/10909186655,Torhayloch,38.7202419,9.0120497,
0,node/10909186657,Keranio Mewcha,38.7097752,9.0134653,
0,node/10909186658,Keranio Mewcha,38.7097861,9.0133225,
0,node/10909186659,Mewcha,38.7049946,9.0140592,
0,node/10909186660,Mewcha,38.7050058,9.0139288,
0,node/10909186661,Mendida,38.6994498,9.0153205,
0,node/10909186662,Mendida,38.6995858,9.0151509,
0,node/10909186663,Betel,38.6937692,9.0037697,
0,node/10909186664,Betel,38.6937746,9.0036921,
0,node/10909186665,Alem Bank,38.6775777,9.0017481,
0,node/10909186666,Alem Bank,38.677633,9.0016995,
0,node/10911198617,Zenebewerk,38.7080844,8.9868549,
0,node/10911198618,Zenebewerk,38.7081829,8.9867824,
0,node/10911198619,Ayer Tena,38.6961361,8.9838366,
0,node/10911242345,Mexico Shebelle Hotel,38.7446969,9.0114518,
0,node/10911242346,Mexico Shebelle Hotel,38.7445773,9.0114526,
0,node/10911242347,Lideta,38.7336365,9.0117415,
0,node/10911242348,Lideta,38.7336469,9.0115482,
0,node/10911242349,Alem Bank,38.6772002,9.001869,
0,node/10911242350,Alem Bank,38.6769434,9.0018954,
0,node/10911695404,Ayer Tena,38.7007283,8.9834957,
0,node/10911717876,Betel,38.6943792,9.0044227,
0,node/10911717877,Betel,38.6942024,9.0043939,
0,node/10911725505,Ayer Tena,38.6982237,8.9831049,
0,node/10912835918,Zenebewerk,38.7080303,8.9879977,
0,node/10912835920,Zenebewerk,38.7079594,8.9880219,
0,node/10913852032,Mebrat Haile,38.714679,9.0295143,
0,node/10913852033,Mebrat Haile,38.7149385,9.0294826,
0,node/10913852034,18 Mazoria,38.7146172,9.0334554,
0,node/10913852035,18 Mazoria,38.714468,9.0334598,
0,node/10913863174,Abenet,38.7327435,9.0196268,
0,node/10913863175,Abenet,38.7327231,9.0194053,
0,node/10913863176,Coca Cola,38.7296372,9.0159095,
0,node/10913863177,Torhayloch,38.7222401,9.0117875,
0,node/10913863178,Torhayloch,38.7208808,9.0096837,
0,node/10913863179,Augusta Bridge,38.7185634,9.0056583,
0,node/10913863180,Augusta Bridge,38.7188581,9.0055925,
0,node/10913863181,Old Airport,38.7188599,9.0000925,
0,node/10913863182,Old Airport,38.7191188,8.9998426,
0,node/10913863183,3 Kutir Mazoriya (Total),38.7170227,8.9932525,
0,node/10913863184,3 Kutir Mazoriya (Total),38.7158494,8.9926315,
0,node/10913974717,Kara Kore,38.6817486,8.9756363,
0,node/10913974718,Kara Kore,38.6814462,8.9754096,
0,node/10913974719,Gerar,38.6894126,8.9813701,
0,node/10913974720,Gerar,38.6894421,8.9813486,
0,node/10913974721,Ayer Tena,38.6982009,8.9829716,
0,node/10914160973,Mexico,38.746198,9.0116587,
0,node/10914160974,Mexico,38.7438026,9.0102476,
0,node/10914160976,Zenebewerk,38.708928,8.987734,
0,node/10914160977,Zenebewerk,38.7049751,8.9849086,
0,node/10914680945,Zenebewerk Meneharia,38.7053463,8.9853381,
0,node/10914680946,Zenebewerk Meneharia,38.7056363,8.9852574,
0,node/10914784456,Atena Tera,38.71237,9.0417169,
0,node/10914784457,Atena Tera,38.7127192,9.0414427,
0,node/10915613002,Tekle Haimanot,38.7426711,9.028352,
0,node/10915613003,Tekle Haimanot,38.742622,9.0281855,
0,node/10915905485,Asko,38.6937551,9.0658063,
0,node/10915905486,Asko,38.6937141,9.065919,
0,node/10915905487,Chereta,38.7010467,9.0612502,
0,node/10915905488,Chereta,38.7011727,9.0612523,
0,node/10915905489,Gulele Fana,38.7069671,9.0575666,
0,node/10915905490,Gulele Fana,38.7070447,9.0576638,
0,node/10915905491,Awolia,38.7114229,9.0572628,
0,node/10915905492,Awolia,38.7116493,9.0576104,
0,node/10915905493,Winget,38.7124522,9.0555179,
0,node/10915905494,Winget,38.7127252,9.0554488,
0,node/10918141989,Kokebe,38.6993091,9.018116,
0,node/10918141990,Kokebe,38.6991634,9.0178995,
0,node/10918141991,Yeshi Debele,38.6969603,9.0188526,
0,node/10918141992,Yeshi Debele,38.6972043,9.0185806,
0,node/10918141993,Keranio Adebabay,38.7017975,9.0177704,
0,node/10918141994,Keranio Adebabay,38.7006617,9.0176839,
0,node/10918141995,Medhanalem,38.7049143,9.0178222,
0,node/10918141996,Medhanalem,38.7047128,9.0175512,
0,node/10918245686,Torhayloch,38.7208703,9.0115804,
0,node/10918245687,Torhayloch,38.720685,9.0099639,
0,node/10918314820,Torhayloch,38.7225031,9.0114229,
0,node/10918339958,Torhayloch,38.7206095,9.0128836,
0,node/10922141942,Legehar,38.7544283,9.0118511,
0,node/10923884107,Zebera,38.7174162,9.0691686,
0,node/10923884109,Addisu Gebeya,38.7350114,9.0630022,
0,node/10923884110,Addisu Gebeya,38.7352489,9.0625854,
0,node/10923884111,Bera Tera,38.725597,9.0670589,
0,node/10923884112,Zebera,38.7174444,9.0689759,
0,node/10923941250,Addisu Gebeya,38.7374564,9.0594889,
0,node/10923941251,Addisu Gebeya,38.7379019,9.059208,
0,node/10923941252,Semen Mazegaga,38.7431266,9.0528165,
0,node/10923941253,Semen Mazegaga,38.7432318,9.0528691,
0,node/10923941254,Shola,38.7461562,9.0483987,
0,node/10923941255,Shola,38.7462522,9.0484505,
0,node/10923941256,Semen Hotel,38.7483104,9.0446634,
0,node/10923941257,Semen Hotel,38.7485012,9.0446029,
0,node/10923941258,Yohanes,38.745274,9.0425995,
0,node/10923941259,Yohanes,38.7453414,9.0425158,
0,node/10923941260,Eritrea Hotel,38.7394065,9.0346843,
0,node/10923941261,Eritrea Hotel,38.7393526,9.0347991,
0,node/10924087993,Medhanalem,38.7517928,9.0552727,
0,node/10924087994,Medhanalem,38.7518851,9.0552441,
0,node/10924087995,Chelote,38.7497489,9.0520868,
0,node/10924087996,Chelote,38.7496604,9.0521299,
0,node/10924087997,Shola,38.746423,9.0479898,
0,node/10924087998,Shola,38.7465175,9.0480732,
0,node/10924088002,St. George Church,38.7516855,9.0385287,
0,node/10924088003,St. George Church,38.7518109,9.0385651,
0,node/10924088004,Piassa,38.7521881,9.0365922,
0,node/10924116805,Piassa,38.7533491,9.0341764,
0,node/10924116806,Kechenie,38.7492165,9.0650022,
0,node/10924116808,Kechenie,38.7497807,9.0652677,
0,node/10924211089,Shegole,38.7268465,9.0639755,
0,node/10924211090,Shegole,38.7269586,9.0640548,
0,node/10924211093,Rufael,38.7274953,9.0590346,
0,node/10924211094,Rufael,38.7274376,9.0590438,
0,node/10924211095,Tureta Deldy,38.7329754,9.0544658,
0,node/10924211096,Tureta Deldy,38.7330307,9.054531,
0,node/10924211097,Enqulal Fabrica,38.7377403,9.0492619,
0,node/10924211098,Enqulal Fabrica,38.7378298,9.0492678,
0,node/10924212637,Ras Desta,38.7440337,9.0444679,
0,node/10924212638,Ras Desta,38.7439161,9.0444022,
0,node/10924212640,Sebara Babur,38.7483682,9.0375917,
0,node/10924212641,Abune Petros,38.749271,9.0358617,
0,node/10924212642,Abune Petros,38.7494119,9.0359205,
0,node/10924212643,Yohanes,38.7458165,9.04258,
0,node/10924212644,Yohanes,38.7459326,9.0426863,
0,node/10924342466,Shola Abyssinia Bank,38.79823,9.0230837,
0,node/10924342467,British Embassy,38.7854804,9.0307347,
0,node/10924342468,Menelik II Hospital,38.7730468,9.0385889,
0,node/10924342469,Menlik Hospital,38.7728666,9.0385052,
0,node/10924342470,6 Kilo,38.761858,9.0437871,
0,node/10924342471,6 Kilo,38.7613161,9.0453786,
0,node/10924981547,Piassa,38.7527884,9.0352542,
0,node/10924981836,Kazanchis,38.7714084,9.0168504,
0,node/10924981837,Kazanchis,38.7712817,9.0167816,
0,node/10924981839,Meneharya,38.767286,9.0199981,
0,node/10924981840,6 Kilo,38.7614317,9.0462061,
0,node/10924981841,6 Kilo,38.7615616,9.046202,
0,node/10925096455,6 Kilo (Lion Zoo),38.7613028,9.0430636,
0,node/10925096457,Medhanalem,38.7621679,9.0509212,
0,node/10925096458,Shiromeda,38.7616364,9.0609308,
0,node/10925096459,Shiromeda,38.7618074,9.0610296,
0,node/10925161777,Abune Petros,38.7493321,9.0350989,
0,node/10925161778,Abune Petros,38.7492809,9.0353615,
0,node/10925161780,St. George Total,38.7526253,9.0385895,
0,node/10925161781,Raguel Church,38.7411822,9.0338335,
0,node/10925161782,Raguel Church,38.7413278,9.0340374,
0,node/10925161783,Piassa,38.7491307,9.0352768,
0,node/10925161784,Piassa,38.749266,9.0350881,
0,node/10925195639,Mexico,38.7462619,9.0115722,
0,node/10925695034,Winget,38.7130281,9.0572967,
0,node/10925695035,Winget,38.7136024,9.0576478,
0,node/10925835130,Shegole,38.7201372,9.0630668,
0,node/10925835131,Shegole,38.7201639,9.0630578,
0,node/10925835153,Medhanalem,38.7226821,9.051016,
0,node/10925835154,Medhanalem,38.7228048,9.0512021,
0,node/10925835155,Pawlos Hospital,38.7275912,9.047368,
0,node/10925835156,Pawlos Hospital,38.7277025,9.0474739,
0,node/10925835157,Pastor,38.7306013,9.0462435,
0,node/10925835158,Pastor,38.7305979,9.0460773,
0,node/10925835159,Michael,38.7324674,9.041653,
0,node/10925835160,Michael,38.732621,9.0418749,
0,node/10925835161,Autobus Tera,38.731876,9.0356953,
0,node/10925835162,Autobus Tera,38.731937,9.0357033,
0,node/10925946103,Summit Condominiums,38.8548285,8.9844426,
0,node/10925946104,Summit Condominiums,38.8525995,8.9909634,
0,node/10925966505,Meshageria,38.8598883,9.0206981,
0,node/10925966506,Derartu Adebabay,38.8751635,9.0212039,
0,node/10925966507,Derartu Adebabay,38.8751433,9.0215357,
0,node/10925966508,Gebreal,38.8773377,9.0403679,
0,node/10925966509,Gebreal,38.8778174,9.0402783,
0,node/10925966510,Aba Kiros,38.8778648,9.0556843,
0,node/10925966511,Aba Kiros,38.8785325,9.0561259,
0,node/10926028111,Bole Arabsa,38.8903446,8.9732139,
0,node/10926028112,Bole Arabsa,38.8904396,8.9726241,
0,node/10926028113,Maseltegna,38.8850892,8.9932453,
0,node/10926028114,Maseltegna,38.8854551,8.9932023,
0,node/10926028115,Sun shine,38.8780839,9.0100814,
0,node/10926028116,Sun shine,38.8779385,9.0100956,
0,node/10926028117,Ayat,38.8770142,9.0215285,
0,node/10926040103,Mariam,38.8848989,8.9875932,
0,node/10926040104,Mariam,38.8852531,8.9875847,
0,node/10926074605,Ayat,38.8767405,9.0212341,
0,node/10926094674,Summit Condominiums,38.8529201,8.9910294,
0,node/10926094675,Megenagna,38.8033659,9.0195894,
0,node/10926817920,Megenagna,38.8038784,9.0203394,
0,node/10926817921,Tafo Square,38.8779123,9.057063,
0,node/10926817922,Tafo Square,38.8780073,9.0566681,
0,node/10926849848,Sun shine,38.8763861,9.0021737,
0,node/10926849849,Summit Chafe,38.8537813,9.0011674,
0,node/10926849850,Summit Chafe,38.8537842,9.0015569,
0,node/10926849851,Goro,38.8299549,8.9918731,
0,node/10926849852,Goro,38.8303339,8.9917492,
0,node/10926896755,Se'alite Mihret,38.8256621,9.0194791,
0,node/10926896756,Se'alite Mihret,38.8254269,9.0198404,
0,node/10926896757,Ayat Chefe Condominium,38.8944977,9.0109362,
0,node/10926896758,Ayat Chefe Condominium,38.8946434,9.0113892,
0,node/10928177661,Ayat,38.8758009,9.0207778,
0,node/10928876312,Summit Condominiums,38.854445,8.9846036,
0,node/10928876313,Summit Condominiums,38.8548242,8.9844416,
0,node/10929299420,Tewodros Square,38.751565,9.0273248,
0,node/10929299421,Tewodros Square,38.7517149,9.0273553,
0,node/10929299422,Tikur Anbesa,38.7480915,9.0209798,
0,node/10929337801,Mexico,38.7449001,9.0105347,
0,node/10929337802,Stadium,38.7559408,9.0119557,
0,node/10929337803,Stadium,38.7559437,9.0121328,
0,node/10929412718,Megenagna,38.8009614,9.0195364,
0,node/10929412719,Megenagna,38.8005907,9.0190569,
0,node/10929412721,22 Mazoria,38.787267,9.0155693,
0,node/10929694820,Lem Hotel,38.7940688,9.0211986,
0,node/10929694821,Lem Hotel,38.7939939,9.0210828,
0,node/10929694822,Signal,38.7815067,9.0235014,
0,node/10929694823,Signal,38.781471,9.0233755,
0,node/10929694824,Abuare Gebeya,38.7718347,9.0280712,
0,node/10929694825,Abuare Gebeya,38.7718123,9.0279894,
0,node/10929694826,Tewodros Square,38.7520638,9.0270034,
0,node/10929694827,Tewodros Square,38.7520149,9.0268625,
0,node/10929694828,Tekle Haimanot,38.744541,9.0285216,
0,node/10929694829,Tekle Haimanot,38.74454,9.0284531,
0,node/10929694830,Megenagna,38.8009431,9.020064,
0,node/10929694831,Megenagna,38.8005994,9.0200336,
0,node/10929752934,Torhayloch,38.7209032,9.0127448,
0,node/10931788261,Megenagna,38.7998465,9.0225048,
0,node/10931788262,Megenagna,38.8010821,9.021325,
0,node/10931809323,Kotebe,38.8385778,9.0303308,
0,node/10931809324,Se'alite Mihret,38.8331547,9.0284671,
0,node/10931809325,Se'alite Mihret,38.833187,9.0283689,
0,node/10931809326,Lamberet,38.8139293,9.0216042,
0,node/10931809327,Lamberet,38.813953,9.0214909,
0,node/10931809328,Kara,38.8642169,9.0404534,
0,node/10931809329,Kara,38.864319,9.0404001,
0,node/10931809330,Megenagna,38.8015712,9.0216983,
0,node/10931850027,Megenagna,38.799743,9.0224128,
0,node/10931850028,Kokebe Tsebah (Kebena),38.7799581,9.0344299,
0,node/10931884718,4 Kilo,38.7628341,9.036142,
0,node/10931884719,Ferensay,38.7769686,9.0571169,
0,node/10931884720,Ferensay,38.7769596,9.0570142,
0,node/10931884721,Mezan,38.7722195,9.0535366,
0,node/10931884722,Mezan,38.7721316,9.0535794,
0,node/10931884723,Jan Meda,38.7690665,9.0470261,
0,node/10931884724,Jan Meda,38.7690208,9.0471196,
0,node/10931937848,Megenagna,38.8021444,9.0180915,
0,node/10931937849,Kadisco,38.766754,8.9633989,
0,node/10931995346,Kebena,38.776629,9.0347501,
0,node/10932040828,6 Kilo,38.7618099,9.0435664,
0,node/10932040829,St. George Total,38.7526555,9.0386325,
0,node/10932040830,St. George Total,38.7527659,9.038614,
0,node/10932115661,Lem Hotel,38.7950974,9.017586,
0,node/10932115662,Lamberet,38.8198719,9.0239221,
0,node/10932115666,Mexico,38.7471612,9.0107374,
0,node/10932115667,Mexico,38.7467607,9.0104411,
0,node/10933668851,Shola Gebeya,38.796095,9.0249902,
0,node/10933668852,Shola Gebeya,38.7963986,9.0253078,
0,node/10933668868,Beg Tera,38.8021516,9.0290044,
0,node/10933668869,Beg Tera,38.802143,9.0289126,
0,node/10933668870,Zebera,38.8093843,9.0315916,
0,node/10933668871,Zebera,38.8094344,9.0314928,
0,node/10933668873,Kidane Mihret,38.818742,9.0355162,
0,node/10933668874,Kidane Mihret,38.8186176,9.0355971,
0,node/10933970678,St. Urael Church,38.7750759,9.0113969,
0,node/10933970679,St. Urael Church,38.7752362,9.0110384,
0,node/10934121405,Atlas,38.7797684,9.004269,
0,node/10934121406,Atlas,38.779678,9.0041884,
0,node/10934121407,St. Urael Church,38.7748368,9.0103387,
0,node/10934121408,St. Urael Church,38.7749361,9.0104642,
0,node/10934142102,Kera,38.7518505,8.9843274,
0,node/10934142103,Kera,38.7515846,8.9840695,
0,node/10934274056,4 Kilo,38.7632997,9.0324426,
0,node/10934274058,St. Estifanos,38.762845,9.012454,
0,node/10934274059,Buna Ena Shay,38.7482685,9.0109591,
0,node/10934274060,Buna Ena Shay,38.748215,9.0106827,
0,node/10936313832,4 Kilo,38.7645933,9.032283,
0,node/10936313833,4 Kilo,38.7648081,9.0323383,
0,node/10936490562,Sebategna,38.7321818,9.0289759,
0,node/10936490563,Sebategna,38.7322093,9.028913,
0,node/10936490564,Amanuel Total,38.7211312,9.0258457,
0,node/10936490565,Amanuel Total,38.721144,9.0258301,
0,node/10936621813,Winget,38.7131944,9.0576027,
0,node/10936724096,Enqulal Fabrica,38.7375414,9.0486146,
0,node/10936724097,Enqulal Fabrica,38.7377157,9.0485559,
0,node/10937101933,karl Square,38.731079,8.9975486,
0,node/10937167108,6 Kilo,38.7610795,9.0442105,
0,node/10937167109,6 Kilo,38.7614376,9.0442026,
0,node/10937209934,Kera,38.7484685,8.9877236,
0,node/10937271651,Kechenie,38.7497785,9.0652788,
0,node/10961301939,Mesalemia,38.7252968,9.033877,
0,node/10961301940,Mesalemia,38.7255313,9.0339779,
0,node/10961301941,Merkato,38.7312096,9.0338527,
0,node/10961301942,Merkato,38.7312282,9.0337645,
0,node/10961408041,Tekle Haimanot,38.7433286,9.028926,
0,node/10961408042,Abuare Roundabout,38.7757907,9.0264526,
0,node/10961408043,Abuare Roundabout,38.7759091,9.0265186,
0,node/10961408397,Keranio Adebabay,38.7007101,9.0178983,
0,node/10961408398,Mendida,38.7004401,9.014972,
0,node/10961408399,Mendida,38.7004576,9.0151204,
0,node/10963292174,Bole Medhanyalem,38.7860616,8.9983425,
0,node/10963292175,Bole Medhanyalem,38.7862416,8.9984526,
0,node/10963817572,Weybla Mariam,38.688451,9.0231558,
0,node/10963817573,Weybla Mariam,38.6882249,9.0233344,
0,node/10963932669,22 Mazoria,38.7889432,9.0159879,
0,node/10964879159,Bisrate Gebrael,38.7226406,8.9884101,
0,node/10970584167,Luwkanda,38.7086432,9.0333084,
0,node/10970584168,Luwkanda,38.7086485,9.0332835,
0,node/10970584169,18 Mazoria,38.7126753,9.0335266,
0,node/10970584170,18 Mazoria,38.7126794,9.0335023,
0,node/10970584171,Abysinia Coffee,38.7164132,9.0372905,
0,node/10970584172,Abysinia Coffee,38.7164416,9.037294,
0,node/10970748190,18 Mazoria,38.7149465,9.0337305,
0,node/10970748192,4 Menta Adebabay,38.7087797,9.0515413,
0,node/10970748193,4 Menta Adebabay,38.7088057,9.0514981,
0,node/10970748194,Tero Mosque,38.7058937,9.0503697,
0,node/10970748195,Tero Mosque,38.7058901,9.0503743,
0,node/10970823802,Sebategna,38.7327781,9.0294218,
0,node/10970823803,Sebategna,38.732906,9.0294686,
0,node/10970829160,Piassa Arada,38.7492677,9.0350955,
0,node/10970912911,Piassa Arada,38.7535518,9.033556,
0,node/10970912912,Rufael,38.6992026,9.0542225,
0,node/10970912913,Rufael,38.6992201,9.0542148,
0,node/10973319411,Selefia Mosque,38.6737826,8.9922493,
0,node/10973319412,Selefia Mosque,38.6737682,8.9922388,
0,node/10973319413,Piassa Arada,38.7498429,9.0343357,
0,node/10973319414,Piassa Arada,38.749831,9.0343492,
0,node/10973319416,Shiromeda,38.7606274,9.0610285,
0,node/10973319417,Shiromeda,38.760666,9.0610076,
0,node/10973446898,Akaki Gebeya,38.7886493,8.8697296,
0,node/10973446899,Akaki Gebeya,38.7886284,8.8697306,
0,node/10973446900,Meshualekya,38.7864676,8.8769296,
0,node/10973631794,Mebrathayil,38.734517,8.9482942,
0,node/10973631795,Mebrathayil,38.7344951,8.9481457,
0,node/10973631797,Lafto,38.7443373,8.9473757,
0,node/10973672014,Yeshi Total,38.798935,8.8667554,
0,node/10973929780,Megenagna,38.8028464,9.0206661,
0,node/10973929781,Biretabret,38.8234705,9.0339313,
0,node/10973929783,Hanna Mariam,38.8316053,9.0375694,
0,node/10973929784,Hanna Mariam,38.8316071,9.037593,
0,node/10973929786,Kotebe Teachers College,38.8388573,9.0374618,
0,node/10973929787,Kotebe Gebriel,38.8505525,9.0390977,
0,node/10973929788,Kotebe Gebriel,38.8505551,9.039072,
0,node/10973960231,Kotebe,38.8279461,9.0357328,
0,node/10973960232,Kotebe,38.8279666,9.035744,
0,node/10973960233,Kebena,38.7769466,9.0343234,
0,node/10974036529,Yeka Abado,38.8735567,9.0637787,
0,node/10974036530,Yeka Abado,38.8734371,9.0638007,
0,node/10989247669,Taxi Tera,38.8092174,8.9948109,
0,node/10989247670,Bole Bridge,38.7945353,8.9888698,
0,node/10989247671,Summit,38.8517594,9.0048732,
0,node/10989247672,Summit,38.8520615,9.0050343,
0,node/10989247673,Medhanalem,38.838022,9.0005807,
0,node/10989247674,Medhanalem,38.8382224,9.0002413,
0,node/10989306740,Bole Mickael,38.7737291,8.9791887,
0,node/10989306742,Bole Mickael,38.7732491,8.979439,
0,node/10989306744,Riventy,38.798111,8.9647488,
0,node/10989306745,Riventy,38.7981165,8.9647649,
0,node/10989322788,Lomi Meda,38.6991226,9.0437261,
0,node/10989322789,Philiphs,38.7046602,9.0423415,
0,node/10989322790,Philiphs,38.7046599,9.0423523,
0,node/10989322793,Atena Tera,38.7116329,9.0417345,
0,node/10989322794,Atena Tera,38.7116327,9.0417198,
0,node/10989352901,Atena Tera,38.7128543,9.0418861,
0,node/10989352903,Atena Tera,38.7136815,9.0419946,
0,node/10989352904,Kolfe,38.7169566,9.037404,
0,node/10989388405,Kolfe,38.7170428,9.0373552,
0,node/10989388406,Chid Tera,38.7213864,9.0376969,
0,node/10989388407,Chid Tera,38.7215618,9.0375624,
0,node/10989495135,Tourist Hotel,38.760933,9.0339795,
0,node/10989495136,Tourist Hotel,38.7627083,9.0331899,
0,node/10989495137,St. George Church,38.7522109,9.0365466,
0,node/10989495138,St. George Church,38.7524292,9.0365649,
0,node/10989606497,Amanuel Church,38.723026,9.0280891,
0,node/10989606498,Amanuel Church,38.7230514,9.0280827,
0,node/10989606501,Mesalemia,38.7246409,9.0330957,
0,node/10989606502,Mesalemia,38.7246228,9.0330994,
0,node/10989606503,Coca Cola,38.729182,9.0170151,
0,node/10989606504,Coca Cola,38.7293902,9.0169029,
0,node/10989700748,Tikur Anbesa,38.7477611,9.0216869,
0,node/10989700750,Tikur Anbesa,38.7476433,9.0214822,
0,node/10989765272,Megenagna,38.8028176,9.0198621,
0,node/10991706244,Tourist Hotel,38.7619614,9.0331305,
0,node/10991706246,Ambasader,38.7538719,9.018399,
0,node/10991706247,Ambasader,38.7539744,9.0182782,
0,node/10991763449,Manen,38.7588533,9.0515112,
0,node/10991763450,Manen,38.7588598,9.0515112,
0,node/10992050085,Selam Building,38.776766,8.883961,
0,node/10992073740,Saris Abo,38.7693473,8.944348,
0,node/10992247910,Selam Building,38.7772664,8.883111,
0,node/10992247911,Gelan Condominium,38.768463,8.8801893,
0,node/10992247913,Gelan Condominium,38.7684764,8.8801651,
0,node/10994789635,Breta bret,38.7887302,8.8738823,
0,node/10994942333,Akaki CBE,38.7888076,8.867782,
0,node/10994942334,Akaki CBE,38.7887141,8.8679415,
0,node/10995013009,Mexico,38.7462885,9.0098456,
0,node/10995013010,Lafto,38.7443751,8.9470636,
0,node/10995013013,Lafto (Mickael),38.7504178,8.9537702,
0,node/10995113524,Woyira Sefer,38.7070388,9.0051854,
0,node/10995113525,Woyira Sefer,38.7068721,9.0050595,
0,node/10996939227,Total 3 Kutir mazoria,38.7170312,8.9932233,
0,node/10997112356,Mebrat,38.7486669,8.9671943,
0,node/10997112357,Mebrat,38.7487468,8.9671522,
0,node/10997112358,Biharetsege,38.7515775,8.9621911,
0,node/10997112359,Biharetsege,38.7515885,8.9622089,
0,node/10997112361,Adey Abeba,38.7631284,8.9576758,
0,node/10997112362,Adey Abeba,38.7631332,8.9576954,
0,node/10997112364,Gofa Gebriel,38.7488713,8.9758799,
0,node/10997112365,Gofa Gebriel,38.7489751,8.9758721,
0,node/10997125769,Abenet,38.7332825,9.0196301,
0,node/10997242295,Weleta,38.6708623,8.963665,
0,node/10997242296,Weleta,38.6708779,8.9636677,
0,node/10997242298,Weleta Tele,38.6731812,8.9666342,
0,node/10997242299,Repi Highschool,38.6774372,8.9764681,
0,node/10997242300,Repi Highschool,38.6774017,8.9765185,
0,node/10997243557,Sara Ampol,38.8741609,9.0576594,
0,node/10997243558,Sara Ampol,38.874351,9.0575648,
0,node/10997243559,Kara Condominium,38.8693718,9.0480764,
0,node/10997243560,Kara Condominium,38.8695015,9.0480356,
0,node/10997360870,Torhayloch,38.7207531,9.0107982,
0,node/10997382833,Mexico,38.7447026,9.0114511,
0,node/10997382834,Mexico,38.7445835,9.0114533,
0,node/10997495133,Mexico,38.7440492,9.01285,
0,node/10997495134,Mexico,38.74405,9.01282,
0,node/10997495135,Darmar,38.7345884,9.0163639,
0,node/10998041498,Piassa Arada,38.7545702,9.0329801,
0,node/10998041499,Piassa Arada,38.7537202,9.0334582,
0,node/10998041503,Shola,38.7949306,9.025295,
0,node/10998041504,Shola,38.7947575,9.0251357,
0,node/11033818190,Kality Meneharia,38.7722516,8.8954024,
0,node/11033818192,Kality Maseltegna,38.7642175,8.9361073,
0,node/11033818193,AU (Mikael) Rounrdabout,38.7406449,8.9994656,
0,node/11033818195,Mexico,38.7438741,9.0089885,
0,node/11033818196,Mexico,38.7440373,9.0089241,
0,node/11033818197,Bulgaria Mazoria,38.7474194,8.9945922,
0,node/11033818199,Autobis Tera,38.7373077,9.0316048,
0,node/11033818200,Autobis Tera,38.7377146,9.0299591,
0,node/11033903482,Kera,38.7483364,8.9864921,
0,node/11034015157,Saris Abo,38.7661144,8.9450004,
0,node/11034015158,Piassa Arada,38.7522899,9.0331054,
0,node/11034015159,Piassa Arada,38.7511155,9.0321742,
0,node/11034031010,Autobis Tera,38.7370369,9.03055,
0,node/11034031011,Shero Meda,38.7612633,9.0626384,
0,node/11034031012,Tsehay Chora (ShiroMeda),38.7598757,9.0583756,
0,node/11034031013,Abune Petros,38.7493262,9.0351037,
0,node/11034054993,Kuskoam,38.7572407,9.0777204,
0,node/11034209866,Arat Kilo,38.7654122,9.0321373,
0,node/11034280233,Kara Kore,38.6806691,8.9753965,
0,node/11034280234,Ayer Tena,38.6960927,8.9825611,
0,node/11034280236,Kara Kore,38.6805349,8.9753861,
0,node/11034427397,Lion Zoo (PEPSI Kiosk),38.7614325,9.0426561,
0,node/11034427398,Abo Mazoriya,38.777181,9.0571131,
0,node/11034427399,Yeha,38.7835816,9.0608545,
0,node/11034427400,Gurara,38.7880233,9.0622785,
0,node/11034427401,Gurara,38.7888027,9.0624066,
0,node/11034511605,Saris,38.7634093,8.9535755,
0,node/11034511606,Saris,38.7636248,8.9535945,
0,node/11034611751,Autobis Tera,38.7371486,9.0296904,
0,node/11034647605,Megenagna,38.8004821,9.0221498,
0,node/11035234709,Torhailoch,38.7220211,9.0115667,
0,node/11035240260,Chid Tera,38.7214866,9.0376857,
0,node/11035502832,Ayer Tena,38.6971291,8.9837379,
0,node/11035502833,Ayer Tena,38.7015659,8.9836981,
0,node/11035532608,Bisrate Gebrael,38.7255627,8.9914198,
0,node/11035607129,Zenebewerk Hotel,38.7682089,9.0191017,
0,node/11035607130,Estifanos,38.7636411,9.0107497,
0,node/11035607131,Lideta Condominium,38.7386025,9.0109263,
0,node/11035662205,Zenebework,38.7080773,8.9882771,
0,node/11035734852,Darmar,38.7377271,9.0165403,
0,node/11035734855,Hana Maryam,38.7418753,8.9270084,
0,node/11035818337,Bercheko Condominium,38.700756,9.058672,
0,node/11035914858,Alem Gena,38.6529741,8.9231915,
0,node/11035914859,Noc,38.6701962,8.9494175,
0,node/11035914860,Noc,38.6699835,8.9490541,
0,node/11035914861,Welete Tele,38.6732105,8.9665643,
0,node/11035914862,Welete,38.6708945,8.9635929,
0,node/11035914863,Weleta,38.6707668,8.9641803,
0,node/11035914864,Weleta Tele,38.6731872,8.9666144,
