stop_name,stop_lat,stop_lon,parent_station,stop_id,location_type
C.M.C,9.0210263001,38.8504558,,way/604046026,0
C.M.C,9.0209365501,38.85044875,,way/604046027,0
Meri,9.0206309001,38.86039005,,way/604046028,0
Meri,9.0205342501,38.86039745,,way/604046029,0
Ayat,9.0212283001,38.8717948,,way/604046052,0
Ayat,9.0211369001,38.87179745,,way/604046053,0
St. Michael,9.0213594001,38.8426211,,way/758915882,0
St. Michael,9.0214511001,38.8426345,,way/758915883,0
Management Institute,9.0208269001,38.8284090499,,way/758919087,0
Management Institute,9.0209051001,38.8283603999,,way/758919088,0
Civil Service College,9.0216842501,38.83479945,,way/758919089,0
Civil Service College,9.0217686501,38.83479775,,way/758919090,0
Bambis,9.0104366001,38.76879995,,way/758922739,0
Bambis,9.0103406001,38.76877485,,way/758922740,0
St. Urael,9.01097965,38.77470915,,way/758922741,0
Hayahulet 2,9.0148301501,38.7832560999,,way/758922742,0
Hayahulet 2,9.0149096001,38.7832141999,,way/758922743,0
ሃያ ሁለት 1,9.0161997001,38.7893457,,way/758922744,0
ሃያ ሁለት 1,9.0162805001,38.7893058,,way/758922745,0
Lem Hotel,9.0178779001,38.7959030499,,way/758922746,0
Lem Hotel,9.0179702501,38.7958714999,,way/758922747,0
Megenagna,9.0196319001,38.8026662,,way/758922751,0
Gurd Sholla 2,9.0201812501,38.81016615,,way/758922752,0
Gurd Sholla 2,9.0202704501,38.8101826,,way/758922753,0
Gurd Sholla 1,9.0190550501,38.8199118,,way/758922754,0
Gurd Sholla 1,9.0191373501,38.8199363,,way/758922755,0
Tor Hailoch,9.0114466001,38.7228792001,,way/758926923,0
Tor Hailoch,9.0113509001,38.7228400001,,way/758926924,0
Cocacola,9.0120608501,38.72927195,,way/758926925,0
Cocacola,9.0119827001,38.7292679,,way/758926926,0
St. Lideta,9.0113260501,38.7358812,,way/758926927,0
St. Lideta,9.0114191001,38.735902,,way/758926928,0
Tegbared,9.0104883001,38.74251165,,way/758926929,0
Tegbared,9.0105720501,38.74252605,,way/758926930,0
Mexico,9.0110042001,38.7486780499,,way/758926931,0
Mexico,9.0111035001,38.7486304499,,way/758926932,0
Leghar,9.0118976001,38.75364485,,way/758926933,0
Leghar,9.0118055501,38.7536616,,way/758926934,0
Stadium,9.0119426001,38.75765945,,way/758926935,0
Stadium,9.0120396501,38.75768125,,way/758926936,0
St. Estifanos,9.0109756501,38.7633918,,way/758926937,0
St. Estifanos,9.0110528501,38.7634133,,way/758926938,0
Gojam Berenda,9.0341520001,38.7383589,,way/759354435,0
Gojam Berenda,9.0342421001,38.73838775,,way/759354436,0
Atikilt Tera,9.0345698501,38.7469346,,way/759354437,0
Atikilt Tera,9.0346634001,38.7469217,,way/759354438,0
Kality,8.938011,38.7631070001,,way/759359409,0
Kality,8.93795435,38.7630034001,,way/759359410,0
Abo Junction,8.94501825,38.7663008501,,way/759359411,0
Abo Junction,8.9449765,38.7662190501,,way/759359412,0
Saris,8.9519971333,38.7634466333,,way/759359413,0
Saris,8.9519912333,38.7633591333,,way/759359414,0
Adey Abeba,8.9567954,38.76388145,,way/759359415,0
Adey Abeba,8.9568021,38.76379965,,way/759359416,0
Lancha,8.9903485,38.75926535,,way/759359417,0
Lancha,8.9903366,38.75916345,,way/759359418,0
Temenja Yazh,8.9952452,38.7598284334,,way/759359419,0
Temenja Yazh,8.9952399,38.7597271667,,way/759359420,0
Riche,9.0005732,38.7587088,,way/759359421,0
Riche,9.00058575,38.7586096,,way/759359422,0
Meshwalekya,9.00485825,38.7588805,,way/759359423,0
Meshwalekya,9.00486215,38.7587524,,way/759359424,0
Darmar,9.0154149,38.73475,,way/759359425,0
Darmar,9.01542485,38.73466315,,way/759359426,0
Abnet,9.0212786,38.73335125,,way/759359427,0
Abnet,9.0212687,38.73341865,,way/759359428,0
Sebategna,9.0283819,38.73298775,,way/759359429,0
Sebategna,9.0284011,38.7330763,,way/759359430,0
Autobus Tera,9.0340910501,38.7329878,,way/759359431,0
Autobus Tera,9.0340079501,38.7329908,,way/759359432,0
Nifas Silk 2,8.9731988,38.7607979501,,way/759365358,0
Nifas Silk 2,8.97316965,38.7606849501,,way/759365359,0
Nifas Silk 1,8.9657149,38.7629963,,way/759365360,0
Nifas Silk 1,8.96571355,38.7628904,,way/759365361,0
Beherawi Theatre,9.0165395,38.7525538,,node/847244293,0
Black Lion,9.0209237,38.7521415,,node/847244423,0
4 Kilo,9.0344007,38.7632408,,node/4832025024,0
Lamberet Terminal (Bus),9.0223057,38.8158571,,node/4884374622,0
Sar Bet (Roundabout),8.9929728,38.738182,,node/5248250425,0
Ambassador,9.0164409,38.7553162,,node/5330678521,0
Stadium,9.0120276,38.7570321,,node/5736089088,0
Mebrathail,9.0295451,38.7146778,,node/6251054285,0
Asko,9.0654733,38.6928185,,node/6307600909,0
Bole Printing Press,8.9976331,38.7718334,,node/6373574986,0
Arada,9.0331479,38.7516761,,node/6728583386,0
Kebede Wessene Rd.,8.9986049,38.8053365,,node/6798927886,0
Mexico,9.0094665,38.7444332,,node/6814022390,0
Mebrat Condominium,8.9644773,38.7438796,,node/6967142984,0
Mebrat,8.9673396,38.7486643,,node/6967165728,0
Gofa Gebriel,8.9771232,38.7491221,,node/6967179322,0
Kera (Gofa Road),8.9825519,38.7498599,,node/6967179323,0
Tewodros Square,9.0277111,38.7516602,,node/6967225474,0
German Square,8.9655968,38.732897,,node/6967234177,0
Friendship Building,8.9899905,38.7859995,,node/6967281153,0
Piassa (Downtown Cafe),9.0319356,38.7512565,,node/6967281241,0
Piassa Arada (2),9.0330123,38.7526242,,node/6967281242,0
Gojo,9.0418236,38.6217166,,node/6967318740,0
Megenagna Terminal,9.0203188,38.8026673,,node/7022361366,0
Bole Millenium,8.9885373,38.7897496,,node/7022397409,0
Bole Millenium,8.9887535,38.789886,,node/7022397410,0
Goro School,8.9937973,38.8267584,,node/7022397411,0
Summit Condominiums,8.9842709,38.8569749,,node/7022397413,0
Summit Condominiums,8.9842404,38.8570885,,node/7022397414,0
Bole Arabsa,8.9720161,38.8906061,,node/7022397416,0
Bole Arabsa,8.9732168,38.8903477,,node/7022397417,0
Aba Kiros Roundabout,9.0561234,38.8785328,,node/7022397418,0
Yeka Abado,9.0689298,38.875565,,node/7022397420,0
Yeka Abado,9.0688377,38.8756232,,node/7022397421,0
Gurara,9.0626023,38.7893816,,node/7037142410,0
Abuare Roundabout,9.026427,38.7757967,,node/7037142414,0
Abuare Roundabout,9.026504,38.7759255,,node/7037142415,0
Marathon Motor (Megenagna),9.0224201,38.8000289,,node/7037142417,0
Yeha,9.060739,38.7836264,,node/7037142419,0
Tena Tabya,9.0608445,38.7839285,,node/7037142420,0
Biret Dildiy (Bono Wuha),9.0598571,38.7811505,,node/7037142421,0
Bret Dildy (Bono Wuha),9.0599927,38.7810894,,node/7037142422,0
Atlas,9.0042786,38.7797667,,node/7037142423,0
Bole Medhanialem,8.9983386,38.7860596,,node/7037142424,0
Bole Medhanialem,8.9984556,38.7862428,,node/7037142426,0
24,9.0098865,38.800549,,node/7037142427,0
Dinberwa Hospital,9.0221273,38.7866932,,node/7037142428,0
Kokebe Tsebah School,9.0345238,38.7802113,,node/7037142430,0
Kokebe Tsebah School,9.034441,38.7799476,,node/7037142431,0
Belgium Embassy,9.031876,38.7839469,,node/7037142433,0
British Embassy,9.0311083,38.784892,,node/7037142434,0
British Embassy,9.0309087,38.7855544,,node/7037142435,0
Abebe Sook,9.0287538,38.7887162,,node/7037142436,0
Shola Gebeya,9.0250779,38.7952986,,node/7037142438,0
Yeka Michael,9.0244101,38.7961373,,node/7037142439,0
Megenagna,9.0180934,38.8021491,,node/7037142441,0
Megenagna,9.0182711,38.8017521,,node/7037142442,0
Derartu,8.8868864,38.7818414,,node/7037142443,0
Gelan Condominium,8.8856808,38.7837651,,node/7037142444,0
08 Adarash,8.8844052,38.785491,,node/7037142445,0
Meshuwalekia Akaki,8.8767985,38.7865253,,node/7037142446,0
Akaki Beretaberet,8.8738843,38.7887478,,node/7037142448,0
G7 (Tulu Dimtu),8.870907,38.8207065,,node/7037142450,0
Tulu Dimtu Unisa,8.8552763,38.8042339,,node/7037142454,0
Tulu Dimtu,8.8556159,38.8041524,,node/7037142455,0
Akaki Korkoro,8.8597556,38.7961539,,node/7037142456,0
Tulu Dimtu (Taf Gas Station),8.8688691,38.8051915,,node/7037142459,0
Arsema,8.8722685,38.8136608,,node/7037142460,0
Selam Sefer (Tapela Gar),8.8722281,38.8140262,,node/7037142461,0
Tulu Dimtu Adebabay,8.8747821,38.8201689,,node/7037142462,0
Project 12 Akababi,8.8658608,38.8218482,,node/7037142464,0
Mahiber Betoch,8.8592154,38.8148895,,node/7037142465,0
Bole Dildiy,8.9869933,38.7912061,,node/7037142466,0
Megenagna / Zefmesh,9.02034,38.8000136,,node/7037142467,0
Megenagna,9.0213214,38.8010735,,node/7037142469,0
Megenagna,9.0217137,38.8015921,,node/7037142470,0
Abysinia Cafe Area,9.0215363,38.8100422,,node/7037142471,0
Abysinia Cafe Area,9.0213396,38.810853,,node/7037142472,0
Century Mall,9.0196778,38.8132781,,node/7037142474,0
Gurd-shola,9.0187352,38.8215105,,node/7037142475,0
Menaheria,9.0239816,38.8192066,,node/7037142476,0
Menaheria,9.0238758,38.8192354,,node/7037142477,0
Gerji Mebrat Haile,9.003632,38.814876,,node/7037142479,0
Gerji Mebrat Haile,9.0037638,38.8132574,,node/7037142483,0
Lamberet,9.0253421,38.8251916,,node/7037142484,0
Lamberet Area,9.0258842,38.8271787,,node/7037183485,0
Lamberet Area,9.0260507,38.8273076,,node/7037183486,0
Lamberet Area,9.0259969,38.8271189,,node/7037183487,0
Yerer Goro,8.9913503,38.8294063,,node/7037183490,0
Yerer Goro,8.9913222,38.8292171,,node/7037183491,0
Se'alite Mihret Church,9.020263,38.8265756,,node/7037183492,0
Management Institute,9.0203852,38.82686,,node/7037183493,0
Sealite Mihret,9.0203048,38.8273219,,node/7037183494,0
Civil Service College,9.0216167,38.8342032,,node/7037183495,0
St. Michael,9.021312,38.8414217,,node/7037183496,0
St. Micheal Church,9.0215489,38.8425033,,node/7037183497,0
Salite Mihret,9.0283709,38.8331954,,node/7037183498,0
Hillside (Ethio-China Mebrathaile),9.0285264,38.8333256,,node/7037183499,0
Wessen Michael,9.030459,38.838592,,node/7037183501,0
Hanna Mariam,9.0375551,38.8316144,,node/7037183502,0
Hanna Mariam,9.0375969,38.8316246,,node/7037183503,0
Wessen,9.0330948,38.8442968,,node/7037183504,0
Wessen,9.033228,38.8445812,,node/7037183505,0
Wessen (Mariam),9.0330982,38.8446898,,node/7037183507,0
Kotebe Teachers College,9.0342084,38.8466963,,node/7037183508,0
Yabem Hotel,9.0357649,38.8533863,,node/7037183509,0
Kotebe Gebriel,9.036101,38.8545188,,node/7037183510,0
Yetebaberut,9.0201901,38.8526027,,node/7037183513,0
Yetebaberut,9.0207031,38.8539074,,node/7037183515,0
Meri,9.0207092,38.8603565,,node/7037183516,0
Meri (Yetebaberut),9.0205124,38.8610727,,node/7037183518,0
Ayat,9.0208331,38.8686047,,node/7037183519,0
Ayat Zone 2,9.0210633,38.8678248,,node/7037183520,0
Kara (Turn),9.0379427,38.8606002,,node/7037183521,0
Medhanalem Church,9.0401552,38.8640163,,node/7037183523,0
Safari,9.0106828,38.852259,,node/7037183525,0
Summit (MOHA),9.0043876,38.8520658,,node/7037183527,0
Saint Georgis,8.9955228,38.8513132,,node/7037183528,0
Tena Tabeya,8.9941038,38.860685,,node/7037183529,0
Gate 2,8.9894728,38.8582866,,node/7037183532,0
Summit Condominiums,8.9846055,38.8544474,,node/7037183533,0
Ayat Train Station,9.0213287,38.8719812,,node/7037183535,0
CMC,9.0211208,38.872594,,node/7037183536,0
Ayat Square,9.0212396,38.8767684,,node/7037183537,0
Feres Bet,9.0216916,38.8862575,,node/7037183538,0
Police Tabia,9.0170704,38.8946069,,node/7037183539,0
Tsebel,9.0222555,38.891209,,node/7037183540,0
Bono Meskid,9.0219034,38.8902931,,node/7037183541,0
Ayat Chefe Condominium,9.0113906,38.8946677,,node/7037183542,0
Ayat Chefe Condominium,9.0109368,38.8944878,,node/7037183543,0
Nebu Mikael,9.0023517,38.8767662,,node/7037183545,0
Ayat Adebabay Hulet (2),8.9965746,38.8851706,,node/7037183546,0
Bole Arabsa (3),8.9963324,38.8855436,,node/7037183547,0
Bole Arabsa (2),8.9841602,38.8851362,,node/7037183548,0
Bole Arabsa,8.9733148,38.8902717,,node/7037183550,0
Yeka Condominium 1,9.0354891,38.877919,,node/7037183552,0
Tafo Gebrael,9.0381306,38.8777819,,node/7037183554,0
Tafo Condominium 1,9.0505157,38.8779667,,node/7037183555,0
Tafo Mebrathail,9.0425957,38.8773973,,node/7037183557,0
Tafo Mebrathail,9.0427743,38.877866,,node/7037183558,0
Tafo Condominium 2,9.0465834,38.8779122,,node/7037183559,0
Kara Condominium,9.0501511,38.8705589,,node/7037183562,0
Yeka Abado,9.0666282,38.8647703,,node/7037183563,0
Sara Ampol (Gedera),9.0571811,38.8737753,,node/7037183565,0
Sara Ampol,9.0580264,38.8742538,,node/7037183567,0
Aba Kiros,9.0606875,38.8812971,,node/7037183569,0
Makefafeya,9.0630654,38.8841651,,node/7037183570,0
Gari Tera,9.0670494,38.8892044,,node/7037183571,0
CCD,9.0707009,38.8938058,,node/7037183572,0
140,9.0718221,38.8952147,,node/7037183573,0
Legedadi Mission,9.0818058,38.9074861,,node/7037183574,0
Legedadi Mission,9.0821737,38.90832,,node/7037183575,0
Selam Building,8.8832831,38.7771574,,node/7041052894,0
Gojo Hotel,8.8910809,38.7768265,,node/7041052895,0
Kality Meneharia,8.8958584,38.7717989,,node/7041052896,0
Cheralia Factory,8.9029458,38.7668359,,node/7041052897,0
Cheralia Factory,8.9029223,38.7667452,,node/7041052898,0
Kality Gebriel,8.9113422,38.7638335,,node/7041052900,0
Kality Prison,8.912466,38.7633399,,node/7041052901,0
Hana Maryam,8.928137,38.7416641,,node/7041052912,0
Tabelew,8.9274906,38.6590102,,node/7041052914,0
Ubedi Academy,8.9244259,38.6548173,,node/7041052915,0
Alem Gena,8.9230001,38.6526472,,node/7041052916,0
Alem Gena,8.9229882,38.652656,,node/7041052917,0
Mama,8.9213858,38.6465912,,node/7041052918,0
Mekanisa (Old Revenues Office),8.9683942,38.73129,,node/7041052927,0
German Square,8.9656974,38.7327236,,node/7041052928,0
Gebriel Bridge,8.9556239,38.7324437,,node/7041052932,0
Gebriel Bridge,8.955596,38.7327233,,node/7041052934,0
Mebrathile (EEPCo),8.9469471,38.7339608,,node/7041052935,0
Mekanisa School,8.9790248,38.7341955,,node/7041052936,0
Abo,8.9785916,38.7339384,,node/7041052937,0
Sheged Hotel,8.973373,38.7246092,,node/7041052938,0
Jemo Michael,8.9673959,38.720836,,node/7041052939,0
Jemo Michael,8.966996,38.7209392,,node/7041052940,0
Jemo YBP (All Mart),8.9614893,38.7152564,,node/7041052942,0
Jemmo 1,8.9606358,38.7123763,,node/7041052944,0
Jemmo 1,8.9604074,38.7124284,,node/7041052945,0
Mestawet Fabrica,8.9595125,38.7084697,,node/7041052946,0
Mestawet Fabrica,8.958513,38.7059934,,node/7041052948,0
Jemo 3,8.9564,38.6992718,,node/7041052949,0
Jemmo 3,8.9556244,38.6985348,,node/7041052950,0
Zenebework,8.9866742,38.7077567,,node/7041052951,0
Welete Maryam,8.9611777,38.6713097,,node/7041052952,0
Mickael Bridge,8.9657858,38.7272059,,node/7041052953,0
Gerar,8.9813447,38.689429,,node/7041052954,0
Repi (Gerar),8.9794179,38.6851955,,node/7041052955,0
Gebre Kirstos,8.9773403,38.7220154,,node/7041052957,0
Bisrate Gebrael,8.9884304,38.7228933,,node/7041052958,0
Gofa Gebriel (2),8.9753751,38.7488548,,node/7041052959,0
Gofa Gebriel,8.9771139,38.7490217,,node/7041052960,0
Bole Mickael,8.9816131,38.7772221,,node/7041052963,0
MOHA (Pepsi Factory),8.9822682,38.7560783,,node/7041052965,0
Gotera (Oilibiya),8.9762662,38.7600125,,node/7041052969,0
Gotera (Oilibiya),8.976182,38.7598239,,node/7041052970,0
St. Joseph Church,8.9697308,38.7620577,,node/7041052975,0
kadisco Building,8.9659447,38.7627885,,node/7041052977,0
kadisco Building,8.965927,38.762999,,node/7041052978,0
Kadisco,8.9637596,38.7630788,,node/7041052979,0
Adey Abeba,8.9583017,38.7640609,,node/7041052980,0
Adey Abeba,8.9582595,38.7638459,,node/7041052982,0
Saris (CBE),8.9528662,38.7635583,,node/7041071286,0
Saris (CBE/Shoa Bakery),8.9527596,38.7633266,,node/7041071287,0
Abo Junction,8.9450003,38.7661044,,node/7041071289,0
Abo Junction,8.9450733,38.7663069,,node/7041071290,0
Customs (Train Station),8.9380959,38.763132,,node/7041071291,0
Kality Maseltegna,8.9323275,38.766627,,node/7041071295,0
Wehalemat,8.9298173,38.7681692,,node/7041071296,0
Bulgaria Mazoria,8.9950292,38.7478244,,node/7041071342,0
Begtera,8.9971703,38.7475059,,node/7041071344,0
AU (Mikael) Rounrdabout,8.9990638,38.7394459,,node/7041071347,0
AU (Mikael) Rounrdabout,8.9990569,38.7395945,,node/7041071348,0
Bulgaria,8.9937942,38.7478465,,node/7041071350,0
Global Hotel,8.9941475,38.7595772,,node/7041071352,0
Global Hotel,8.9941836,38.7598183,,node/7041071353,0
Beklo Bet (Global),8.9953383,38.7596352,,node/7041071354,0
Tele Garage,9.000141,38.7584812,,node/7041071355,0
Riche,9.0043253,38.7586986,,node/7041071356,0
6th (Raddison Blu),9.0166957,38.7669535,,node/7041071359,0
Filweha (Hotsprings),9.017718,38.7572645,,node/7041071360,0
Filweha (Hotsprings),9.0175554,38.7570579,,node/7041071362,0
Ghion Hotel (Enterance),9.0137609,38.7574492,,node/7041071363,0
Ghion Hotel (Enterance),9.0138328,38.7576145,,node/7041071364,0
St. Joseph School,9.0098008,38.7591876,,node/7041071367,0
St. Joseph School,9.0104995,38.7592761,,node/7041071370,0
Admas University College,9.0105316,38.7590434,,node/7041071371,0
Lalibela Hotel,9.0118612,38.7570112,,node/7041071372,0
Stadium,9.0121294,38.7560438,,node/7041071374,0
Legehar,9.011849,38.7545386,,node/7041071376,0
Legehar,9.0117857,38.7539285,,node/7041071377,0
Legehar (Old Train Station),9.0109604,38.7533069,,node/7041071378,0
Mexico,9.0097755,38.7461963,,node/7041071380,0
African Union,9.0031416,38.7414166,,node/7041071382,0
Popolare,9.0053059,38.7423863,,node/7041071383,0
Guenet Hotel,9.0046908,38.7466748,,node/7041071384,0
Guenet Hotel,9.0032786,38.74694,,node/7041071385,0
Abenet,9.0214263,38.7334947,,node/7041071388,0
Lideta Condominium,9.0132791,38.7345522,,node/7041071389,0
Darmar,9.0157856,38.7348248,,node/7041071390,0
Coca Cola,9.0159169,38.7294714,,node/7041071391,0
Austria Embassy,8.9939406,38.7278809,,node/7041071392,0
Mechare Meda,8.9936591,38.727499,,node/7041071393,0
3 Kutir Mazoriya (Total),8.9925902,38.7152417,,node/7041071395,0
Minaye Building,8.995414,38.7184074,,node/7041071397,0
Old Airport (Mobil),8.9998642,38.7191221,,node/7041071399,0
Tor Hailoch,9.0099949,38.7206897,,node/7041071400,0
Keranio Mewcha,9.0133411,38.7100309,,node/7041071401,0
Holand,9.0213057,38.7159484,,node/7041071402,0
Meseret Edget,9.0245409,38.714954,,node/7041071403,0
Teklehaymanot,9.0278226,38.7440603,,node/7041071404,0
Kebele 11,9.0247481,38.7458014,,node/7041071405,0
Tewodros Square,9.0262634,38.75166,,node/7041071406,0
Tewodros Square,9.0263826,38.7517909,,node/7041071407,0
Black Lion,9.0218352,38.7521859,,node/7041071411,0
National Theatre,9.0158768,38.751592,,node/7041071414,0
National Theatre,9.0156938,38.7513097,,node/7041071415,0
A.A. Commercial College,9.0139102,38.7494881,,node/7041071416,0
A.A. Commercial College,9.0138228,38.7495568,,node/7041071418,0
Buna Ena Shay,9.0114261,38.7490599,,node/7041071419,0
Buna Ena Shay,9.0105922,38.7479733,,node/7041071420,0
Mexico Shebelle Hotel,9.0119916,38.7468862,,node/7041071423,0
TVET College (Tegbare'd),9.0105894,38.7429038,,node/7041071425,0
Federal Police (Tegbare'd),9.0103865,38.7426638,,node/7041071429,0
Lideta (Balcha Hospital),9.0109303,38.738603,,node/7041071430,0
Lideta (Balcha Hospital),9.0111161,38.7385604,,node/7041071431,0
Lideta Condominium,9.011233,38.7377815,,node/7041071432,0
Lideta Tsebel,9.0041706,38.733822,,node/7041071433,0
Dessie Hotel,9.0093091,38.7338119,,node/7041071434,0
High Court,9.0108572,38.7342297,,node/7041071435,0
Lideta High Court,9.0115829,38.733431,,node/7041071437,0
Hintsa College,9.0121559,38.7293132,,node/7041071439,0
Coca Cafe,9.0119411,38.7292339,,node/7041071441,0
Mekonenoch (Golf) Club,9.011282,38.7265458,,node/7041071444,0
Tor Hailoch Junction,9.0115616,38.7220202,,node/7041071446,0
Torhailoch,9.0119442,38.7216866,,node/7041071447,0
Tor Hailoch,9.0139112,38.7206478,,node/7041071448,0
Tor Hailoch,9.013939,38.7209168,,node/7041071449,0
Keranio Bridge,9.0194506,38.7089411,,node/7041071450,0
Medhanialem,9.0175679,38.7049748,,node/7041071451,0
Keranio Adebabay,9.0176634,38.7006446,,node/7041071452,0
Kokebe,9.0180779,38.6994971,,node/7041071453,0
Yeshi Debele,9.0195382,38.6954056,,node/7041071454,0
Yeshi Debele,9.0190748,38.6957701,,node/7041071455,0
Mariam,9.0231539,38.6884518,,node/7041071456,0
Anfo Meda,9.021983,38.6742682,,node/7041071458,0
St. Urael Church,9.0110433,38.7752596,,node/7041071459,0
Salcost Apartments (NOC),9.0104908,38.766397,,node/7041071461,0
St. Estifanos Church,9.0118738,38.7626376,,node/7041071462,0
St. Gebriel,9.0199107,38.7675809,,node/7041071464,0
Zenebewerk Hotel,9.0193852,38.7680315,,node/7041071465,0
Meles Zenawi Foundation,9.0206693,38.7715231,,node/7041071466,0
Azmari Bet (Traditional Music Club),9.0194316,38.770643,,node/7041071468,0
Kazanchis (6th),9.0166401,38.7702335,,node/7041071469,0
Hilton Hotel (Apartments),9.0196382,38.7638714,,node/7041071471,0
Women Square,9.0233468,38.7772342,,node/7041071473,0
Women Square,9.0234508,38.7771738,,node/7041071474,0
Aware Bridge,9.0244322,38.7765755,,node/7041071475,0
Arat Kilo,9.0319312,38.7633615,,node/7041071479,0
Arat Kilo,9.0321438,38.7652099,,node/7041071480,0
Bel Air,9.032458,38.7728461,,node/7041071481,0
Addis View Hotel,9.0324918,38.7730493,,node/7041071482,0
Menelik II Hospital,9.0385857,38.7730556,,node/7041071483,0
Menlik Hospital,9.0388201,38.7719268,,node/7041071484,0
Piassa Arada,9.0365871,38.7522029,,node/7041071579,0
Piassa Arada,9.0363947,38.7524445,,node/7041071580,0
Piassa Arada,9.0354239,38.7523326,,node/7041071592,0
Habtegiorgis Bridge,9.0352553,38.7491242,,node/7041071594,0
Kurtu Building,9.0343899,38.7438917,,node/7041071595,0
Kurtu Building,9.0341887,38.7437548,,node/7041071596,0
Pharmacy,9.0343321,38.7434135,,node/7041071597,0
Gojam Berenda,9.0343947,38.737968,,node/7041071598,0
Autobis Tera (3),9.0342308,38.7337775,,node/7041071599,0
Autobus Tera,9.03371,38.7298446,,node/7041071600,0
Darsema Grosery,9.0338533,38.7294433,,node/7041071601,0
Girum Hospital,9.04636,38.7200106,,node/7041071604,0
Woreda 7 TVET,9.0407262,38.7212396,,node/7041071605,0
Sefere Salam,9.0366318,38.7219216,,node/7041071606,0
Kolfe,9.037044,38.7173824,,node/7041071607,0
Abysinia Coffee,9.0373422,38.7164487,,node/7041071608,0
Degu Hotel,9.0338162,38.7151531,,node/7041071609,0
18 Mazoria,9.0335338,38.7130781,,node/7041071610,0
18 Mazoria,9.0335825,38.7135105,,node/7041071612,0
Luwkanda,9.0333303,38.7093322,,node/7041071614,0
Kolfe Secondary School,9.0340139,38.704541,,node/7041071615,0
Realstate,9.0327975,38.6951186,,node/7041071616,0
Police Tabiya,9.034058,38.6888917,,node/7041071619,0
Feli Doro (1),9.0342811,38.6875252,,node/7041071620,0
Feli Doro,9.0353789,38.6853297,,node/7041071622,0
Ras Mekonene Bridge (Seba Dereja),9.0389362,38.7568178,,node/7041071628,0
5 Kilo (History Museum),9.0385989,38.7625491,,node/7041071629,0
5 Kilo University,9.0408311,38.761951,,node/7041071630,0
Lion Zoo (PEPSI Kiosk),9.0427151,38.7615693,,node/7041071633,0
Yekatit 12 Hospital,9.0438891,38.7603878,,node/7041071636,0
Yeatit 12 Hospital,9.0436921,38.7593176,,node/7041071637,0
Red-Cross (St. George Total),9.0386136,38.7527639,,node/7041071638,0
St. George Church (Total),9.0386684,38.7517494,,node/7041071639,0
Semen Hotel,9.0436522,38.7488778,,node/7041071640,0
Semen Hotel,9.0446929,38.7482928,,node/7041071641,0
Kelemwerk,9.0486023,38.7461719,,node/7041071642,0
Kelemwerk,9.0488673,38.7458026,,node/7041071643,0
Tibeb Ediget School,9.0512494,38.7443439,,node/7041071645,0
Semen Mazegaga,9.0523631,38.7433813,,node/7041071646,0
Semen Mazagaja,9.0537306,38.7424925,,node/7041071647,0
Shegole Bank,9.0541015,38.7200104,,node/7041071648,0
Pawlos Hospital,9.0474202,38.7277601,,node/7041071649,0
Finance,9.0514832,38.7221677,,node/7041071650,0
Medhanialem (TOTAL),9.0513651,38.7220512,,node/7041071651,0
Finance,9.0528369,38.7201878,,node/7041071653,0
Finance,9.0531245,38.7199027,,node/7041071654,0
Winget Chaf,9.0544244,38.7149847,,node/7041071655,0
4 Menta Adebabay,9.0520588,38.7088754,,node/7041071657,0
Mikili Land,9.051327,38.6987792,,node/7041071658,0
Winget Adebabay,9.0571703,38.7137033,,node/7041071659,0
Awolia,9.0576087,38.7116367,,node/7041071660,0
Gulele Fana,9.0577975,38.7067279,,node/7041071661,0
Gulele Fana,9.0582376,38.7065488,,node/7041071662,0
Berchiko,9.0593548,38.7034077,,node/7041071663,0
Gebriel (Sansusi),9.0665816,38.69045,,node/7041071665,0
Bono Weha,9.057952,38.7791204,,node/7041071718,0
Mezan,9.053538,38.7722233,,node/7041071719,0
3rd Shaleka,9.0470252,38.7690705,,node/7041071721,0
6 Kilo (University),9.0461753,38.7615547,,node/7041071723,0
Meksaye Hizunan Medhanialem,9.0513004,38.7622054,,node/7041071725,0
Teferi Mekonen,9.052326,38.7622236,,node/7041071726,0
Sebseba Maekel,9.0541533,38.7625698,,node/7041071729,0
Eyesus,9.0649811,38.7715088,,node/7041071737,0
Hamle 19,9.0585516,38.7680987,,node/7041071738,0
Selassie,9.0692162,38.7607205,,node/7041071740,0
Sanba Nekersa-Shiromeda,9.0745256,38.7590628,,node/7041071741,0
Kuskoam,9.0777328,38.7572536,,node/7041071742,0
Dil Ber,9.0710894,38.7374397,,node/7041071749,0
Anbessa Garage (Shegole),9.0638294,38.7204079,,node/7041071753,0
Kebt Beret,9.0691617,38.7182194,,node/7041071754,0
Entoto Kela,9.0843712,38.7230011,,node/7041071755,0
Weserbi Realestate,9.1051152,38.7095299,,node/7041071758,0
Classy Water,9.1095355,38.7147037,,node/7041071759,0
Medret Hotel,9.1100449,38.7158285,,node/7041071760,0
Kburea,9.1176074,38.7300979,,node/7041071761,0
Kenenisa,9.1179357,38.7304557,,node/7041071762,0
Shefunea,9.1273122,38.7395293,,node/7041071763,0
Shefine,9.1277902,38.7397834,,node/7041071764,0
Doro Erbata,9.1339361,38.7522344,,node/7041071772,0
Abo Gabriel,9.1341343,38.7524529,,node/7041071773,0
Tulu Fati,9.1408321,38.7549356,,node/7041071774,0
Ashewa,9.1449015,38.7538733,,node/7041071775,0
Tabya Hotel,9.1560016,38.7542489,,node/7041071776,0
Sar Bet (Roundabout),8.9929589,38.738359,,node/7047495429,0
United Bank (Ashewa Meda),9.0286142,38.6600221,,node/7047495432,0
Sefera,8.9208064,38.7346499,,node/7047495433,0
Lafto,8.9473774,38.744323,,node/7049122264,0
Hana Mariam (2),8.935835,38.7440895,,node/7049122265,0
Haile Garment,8.9387647,38.7345586,,node/7049122266,0
Yekiber Demena Church,9.0304285,38.8779866,,node/7049921444,0
Megenagna Terminal,9.0204726,38.8024339,,node/7049921445,0
Hill Bottom (Recreation),9.0220882,38.8759579,,node/7049921447,0
Zone 8,9.0304125,38.8775474,,node/7049921448,0
Aba Kiros (Tafo) Roundabout,9.0570656,38.8779122,,node/7049921449,0
Tafo Junction,9.0566049,38.8790275,,node/7050234123,0
Megenagna Terminal,9.020626,38.8021323,,node/7050327664,0
6 Kilo,9.0476858,38.7617178,,node/7054842410,0
6 Kilo,9.0476498,38.7617169,,node/7054842414,0
Legehar (Old Train Station),9.0106346,38.7532161,,node/7055060064,0
Kotebe Gebriel,9.0359897,38.8546711,,node/7055598734,0
Ahmed Building,9.0269686,38.8299268,,node/7055598736,0
St. Mary Church,9.0363488,38.7579049,,node/7055598738,0
Piassa Arada,9.0335541,38.7535483,,node/7055598739,0
Piassa Arada,9.0327818,38.7534018,,node/7055598742,0
St. Mary Church,9.0363807,38.7579442,,node/7055598743,0
NOC End,9.0274541,38.8307544,,node/7055598744,0
Kotebe Teachers College,9.0341209,38.8467717,,node/7056754511,0
Meskelegna (Ababdo),9.0630764,38.8732637,,node/7056754514,0
Megenagna,9.020907,38.8022361,,node/7056754516,0
Atlas,9.0041945,38.779674,,node/7057002158,0
Piassa Arada,9.0329242,38.7528717,,node/7057002161,0
Ras Mekonene Bridge (Seba Dereja),9.0389386,38.7568279,,node/7057002162,0
Gibi Gebriel Church,9.0226675,38.7626361,,node/7057002163,0
Brass Clinic (Bole),8.9904207,38.7929906,,node/7057187392,0
Brass Clinic (Bole),8.9903142,38.7932003,,node/7057187393,0
St.Gorgis,9.0379471,38.7519784,,node/7062689844,0
St. George Church (2),9.0358742,38.751629,,node/7062689845,0
Piassa,9.0345896,38.7549398,,node/7062689848,0
Arat Kilo,9.0325203,38.764362,,node/7062689850,0
4 Kilo,9.0344021,38.7630946,,node/7062689851,0
Medhanialem,9.0506154,38.7621098,,node/7062689852,0
Education Bureau (6 Kilo),9.044142,38.7635923,,node/7062689854,0
Jan Meda,9.0471236,38.7690204,,node/7062689855,0
Frensaye Kela,9.0557922,38.7742742,,node/7062689856,0
Frensaye Kela,9.0551762,38.7736282,,node/7062689857,0
Abo Mazoriya,9.0569998,38.7777387,,node/7062689858,0
Gurara,9.0623294,38.7881845,,node/7062689859,0
Mamo (NFSL TVET),8.9730894,38.7608987,,node/7067942461,0
Agona Cinema,8.988213,38.7595747,,node/7067942462,0
Agona Cinema,8.9882665,38.7597959,,node/7067942463,0
Tele Garage,9.0004682,38.7587377,,node/7067942465,0
Meshualekia,9.0057314,38.7589773,,node/7067942466,0
Zerihun Building,9.0145395,38.7824519,,node/7067990019,0
6th (Raddison Blu),9.0166971,38.7669539,,node/7067990020,0
National Palace,9.026432,38.7621456,,node/7070861695,0
SNAP Building,8.9897614,38.7872174,,node/7070861696,0
Friendship,8.9908557,38.7844888,,node/7070861697,0
Heber Restaurant,8.9917592,38.7822311,,node/7070861698,0
RWANDA (Werbek House),8.992295,38.7791533,,node/7070861699,0
Wollo Sefer,8.9946542,38.7740953,,node/7070861700,0
Rwanda,8.9924,38.7798477,,node/7070861701,0
Bole Printing Press,8.9966227,38.7723732,,node/7070861702,0
Bole Printing Press,8.9976714,38.7715908,,node/7070861703,0
Mega Printing Press,8.9993469,38.7708659,,node/7070861704,0
Shewa Dabo,9.001132,38.7697078,,node/7070861705,0
Getu Commercial Center,9.0014126,38.7697673,,node/7070861706,0
Dembel City Center,9.004953,38.7678519,,node/7070861707,0
Flamingo,9.0100482,38.7634195,,node/7070861710,0
Piassa Arada,9.0358386,38.7528459,,node/7070861712,0
Anbessa Garage,9.0074376,38.8054033,,node/7070861713,0
Ayat Roundabout,9.0221276,38.876525,,node/7070861714,0
Gebriel,9.0401288,38.8777949,,node/7070861716,0
Semen Mazegaja | ሰሜን ማዘጋጃ,9.0527134,38.7433527,,node/7074233342,0
Del Ber School,9.0559007,38.7411604,,node/7074233343,0
Adisu Gebeya,9.0592088,38.7379037,,node/7074233344,0
Kelebat,9.061605,38.7355505,,node/7074233345,0
Oilibiya (Dil Ber),9.0679367,38.7347909,,node/7074233346,0
Pastor,9.0463006,38.7301845,,node/7074267433,0
Medhanialem,9.051161,38.7228618,,node/7074267434,0
Winget,9.0554455,38.7138884,,node/7074267435,0
Kela,9.0576131,38.6101592,,node/7074269464,0
Kela,9.0576152,38.6101611,,node/7074269465,0
Semen Hotel,9.0452427,38.7481339,,node/7074275407,0
Kera,8.9866969,38.7484333,,node/7074294627,0
Asko,9.0653014,38.6922669,,node/7074299254,0
Sebategna,9.0286512,38.733098,,node/7074324043,0
Autobis Tera (2),9.0317912,38.7324012,,node/7074324044,0
Autobis Tera,9.0347276,38.7321005,,node/7074324045,0
Mekanisa,8.9733512,38.7315967,,node/7074326525,0
Abo Mazoria,8.9822244,38.7343058,,node/7074326526,0
Gate 2,8.9894962,38.8580841,,node/7074330387,0
Tena Tabeya,8.9942098,38.8605382,,node/7074330389,0
Condminium (Gate),8.9984544,38.8602323,,node/7074330391,0
Gomista,9.0014062,38.8573283,,node/7074330392,0
Summit (MOHA),9.0040839,38.8517162,,node/7074330394,0
Safari,9.0106601,38.8518265,,node/7074330397,0
Alemayehu,8.999474,38.820944,,node/7074330400,0
Alemayehu,9.0005663,38.8196821,,node/7074330401,0
Condominium,9.0050845,38.8095474,,node/7074330403,0
Ethio-china,9.026612,38.8287819,,node/7074330407,0
Kara,9.0403987,38.8643277,,node/7074330409,0
Project 15,8.9654679,38.8850641,,node/7074332290,0
Kela,8.9772657,38.8845811,,node/7074332294,0
Chereta,9.0616842,38.7010211,,node/7074347184,0
Gerar,8.9813585,38.6894082,,node/7074353066,0
Jemo 3,8.9538291,38.6959643,,node/7074374410,0
Furi,8.951847,38.6921288,,node/7074374411,0
Sansusi,9.0714186,38.6891023,,node/7074387585,0
Kersa (2),9.0285405,38.6722328,,node/7074496216,0
Ashewa Meda,9.0326531,38.6653802,,node/7074496217,0
Ashewa Meda,9.0326414,38.6653823,,node/7074496218,0
United Bank (Ashewa Meda),9.0258997,38.6569665,,node/7074496219,0
St. Gebriel,9.027689,38.6515848,,node/7074496221,0
St. Gebriel,9.0276843,38.6515743,,node/7074496222,0
Gojo,9.0417975,38.6216778,,node/7074496225,0
Alem Bank,9.0010346,38.6776598,,node/7074504387,0
Ayer Tena,8.9831093,38.6982193,,node/7074504388,0
Bethel,9.0045877,38.6944335,,node/7074504390,0
Mewcha,9.0139079,38.7053132,,node/7074504391,0
Mendida,9.0149626,38.7004735,,node/7074504392,0
Mebrat Nigist Hotel,8.9700751,38.7486994,,node/7074525370,0
Lideta Kefetega Firdbet,9.0116457,38.7326808,,node/7074541084,0
Sefera Square,8.9249315,38.7341804,,node/7074561389,0
Haile Garment,8.9368661,38.7363202,,node/7074561391,0
Mebrathile (EEPCo),8.9493593,38.7334502,,node/7074561392,0
Hana Mariam,8.9309368,38.7544146,,node/7074561393,0
Hana Mariam (2),8.9361698,38.7444615,,node/7074561394,0
Meskelgna,8.95299,38.7448233,,node/7074561395,0
Piassa Arada,9.0357438,38.7514315,,node/7074585943,0
Arat Kilo,9.0324015,38.7633143,,node/7074585944,0
Beklo Bet (Global),8.9953761,38.759835,,node/7074599697,0
Dembel City Center,9.0055741,38.7672511,,node/7074691520,0
Mexico,9.010735,38.7471393,,node/7074707878,0
ERA Office (Big Mak),9.0127963,38.7478601,,node/7074707880,0
Saint Josphe School,9.0092034,38.7591385,,node/7074707881,0
St. Estifanos Church,9.0124825,38.7628296,,node/7074707883,0
Mamo (NFSL TVET),8.9725713,38.7607684,,node/7074819178,0
Kadisco,8.9310399,38.7585063,,node/7074841187,0
Kality Maseltegna,8.9339802,38.7643672,,node/7074841188,0
Teklehaimanot,9.0291868,38.7442895,,node/7074921333,0
Berbere Tera,9.0266712,38.7406481,,node/7074921334,0
Dildiy Mariam,8.9585362,38.7498569,,node/7075101457,0
Kera (Gofa Stop),8.9837158,38.7497528,,node/7075101459,0
Tor Hailoch,9.009717,38.7208842,,node/7075129253,0
Torhayloch,9.0117428,38.7207996,,node/7075129254,0
Tor Hailoch,9.0117788,38.7222467,,node/7075129255,0
Riche,9.0043941,38.7588986,,node/7076294502,0
Mebrat Condominium,8.9645236,38.7438551,,node/7076294503,0
Kadisco,8.9638868,38.7633289,,node/7076294504,0
Flamingo,9.0089349,38.7646677,,node/7076294505,0
Condminium (Gate),8.9984013,38.8601035,,node/7076294507,0
Sara Ampol (Gedera),9.0571285,38.8738883,,node/7076294508,0
Michael (2),9.0418835,38.7325725,,node/7076294509,0
Shero Meda,9.0622823,38.7612538,,node/7076294510,0
Shero Meda,9.0618175,38.7613619,,node/7076294511,0
Dil Ber,9.0716602,38.7369836,,node/7076294512,0
Shiromeda Selassie,9.0692159,38.7607132,,node/7076294515,0
Shero Meda,9.0618235,38.7613887,,node/7076294516,0
6 Kilo (Akim Genbata),9.0447597,38.7612093,,node/7076310930,0
Shero Meda,9.0626379,38.7612397,,node/7076310931,0
Medhanialem,9.0507372,38.7619991,,node/7077424942,0
Ambassador,9.0163885,38.7551039,,node/7077601626,0
Lamberet,9.0216085,38.8139111,,node/7077785205,0
Kara Condominium,9.0479009,38.8692642,,node/7077785206,0
G-7 (Meskelegna),9.0655587,38.8676583,,node/7077785207,0
Kara Condominium,9.0480304,38.8695121,,node/7077785209,0
Autobis Tera (2),9.031811,38.7325536,,node/7077863009,0
Tropical,8.9960545,38.6833448,,node/7077863010,0
Alem Bank,9.0003767,38.6779208,,node/7077863012,0
Tropical,8.9965876,38.6830207,,node/7077863014,0
Kidane Mihret,8.9923549,38.6892387,,node/7077863015,0
Bethel,9.004479,38.6941906,,node/7077863016,0
Mendida,9.0151128,38.7004836,,node/7077863017,0
Abinet,9.019638,38.7327417,,node/7077863018,0
Sebategna,9.0280905,38.7329768,,node/7077863019,0
Mexico,9.0088714,38.7440208,,node/7078164250,0
Haile Garment,8.9381825,38.7349155,,node/7078164251,0
Mekanisa,8.9729343,38.7311018,,node/7078164254,0
Abo Mazoria,8.9820586,38.7345326,,node/7078164255,0
Mexico,9.0088201,38.7437936,,node/7078164256,0
Autobis Tera (1),9.0330269,38.7323925,,node/7078406225,0
Zenebework,8.9876369,38.7090191,,node/7078406227,0
Ayer Tena,8.9822919,38.6949214,,node/7078406228,0
Kara Kore,8.9755975,38.6817556,,node/7078406231,0
Kara Kore,8.9763865,38.6823873,,node/7078406235,0
Ayer Tena (Gerar-Repi),8.9822452,38.6939258,,node/7078406236,0
Repi (Gerar),8.9795411,38.6853377,,node/7078406237,0
Zenebework (Crossing),8.9852814,38.7051886,,node/7078406238,0
3 Kutir Mazoriya (Total),8.992776,38.715946,,node/7078406239,0
Autobis Tera (1),9.0330007,38.7322299,,node/7078406240,0
Condominium,9.0049451,38.8100534,,node/7080251773,0
Goro School,8.993889,38.8268744,,node/7080251774,0
Anbessa Garage,9.0071789,38.8056204,,node/7080251776,0
Estifanos,9.0110028,38.76366,,node/7080440194,0
BAMBIS,9.0104866,38.7690578,,node/7080440195,0
St. Urael Church,9.0115088,38.7752996,,node/7080440196,0
Lex Plaza,9.0147285,38.7823039,,node/7080440197,0
22 (Haya Hulet),9.0164226,38.7896417,,node/7080440198,0
Megenagna,9.0194097,38.8004816,,node/7080440200,0
Megenagna,9.019032,38.8005914,,node/7080440203,0
Lem Hotel,9.0177169,38.7955696,,node/7080440204,0
22 (Haya Hulet),9.0162149,38.7896635,,node/7080440205,0
BAMBIS,9.0102033,38.7694936,,node/7080440206,0
Mexico,9.0104304,38.7467585,,node/7080440208,0
Mexico,9.0098462,38.7462899,,node/7080527282,0
Kera,8.9863213,38.7487773,,node/7080527284,0
Mebrat,8.96688,38.7487535,,node/7080611085,0
Mexico Shebelle Hotel,9.0120423,38.746773,,node/7080611091,0
Michael,9.0412736,38.7322629,,node/7080893992,0
Autobis Tera,9.034717,38.732023,,node/7080893993,0
Pastor,9.0460782,38.7306587,,node/7080893994,0
Winget,9.0560646,38.713458,,node/7080893995,0
Chereta,9.0613645,38.7009781,,node/7080893996,0
Sansusi,9.0715888,38.6891732,,node/7080894001,0
5 Kilo (History Museum),9.0385658,38.7624277,,node/7081034796,0
Abo Mazoriya,9.0574672,38.7785478,,node/7081034797,0
Education Bureau (6 Kilo),9.0441923,38.7640045,,node/7081034799,0
Total (Dil Ber),9.0648091,38.732915,,node/7084255331,0
Piassa Arada,9.0341775,38.7533521,,node/7084255333,0
Addisu Gebeya,9.0594855,38.7374497,,node/7084255334,0
Tsion Cafe (Addisu Gebeya),9.0638908,38.733166,,node/7084255335,0
Total (Dil Ber),9.0653883,38.7327389,,node/7084255336,0
Ummar School,9.0337517,38.7405402,,node/7084722454,0
Autobis Tera (3),9.0341036,38.7337992,,node/7084722456,0
Gojam Berenda (Tefera Buillding),9.0341305,38.7418327,,node/7084722457,0
Dej. Wube (Ras Abebe School),9.0404538,38.7533374,,node/7084722458,0
Wube Bereha,9.0440672,38.7544994,,node/7084722459,0
Menen,9.0515491,38.7588473,,node/7084722460,0
Tsehay Chora (ShiroMeda),9.0584002,38.7598297,,node/7084722461,0
Sebategna (Taem Bakery),9.0274958,38.7332661,,node/7084873006,0
Mola Maru (Jos Hansen),9.0188835,38.7380924,,node/7084873007,0
Geja Sefer (Darmar),9.0167149,38.7382054,,node/7084873008,0
Kera (Green Market),8.9856954,38.7486804,,node/7084873009,0
Kera (Mexico Stop),8.9841757,38.7518917,,node/7084873010,0
MOHA (Pepsi Factory),8.9824212,38.7560749,,node/7084873011,0
Saris (Shoa Bakery),8.9547202,38.7635412,,node/7084873012,0
Kera (Saris Stop),8.9844206,38.7509324,,node/7084873013,0
Guenet Hotel (Orbis),9.002055,38.7469466,,node/7084873014,0
St. Lideta Church,9.0111972,38.736541,,node/7084873015,0
Abenet (Joshansen),9.0192478,38.733649,,node/7084873016,0
Canada Embassy,8.9951157,38.7373207,,node/7084932737,0
Mechare Meda,8.9973163,38.7311778,,node/7084932738,0
Bisrate Gebrael,8.9892732,38.7239615,,node/7084932739,0
Zenebework (Crossing),8.9850622,38.705264,,node/7084932740,0
Ayer Tena,8.9838449,38.6961239,,node/7084932741,0
Kidane Mihret (Roundabout),8.9917639,38.6887357,,node/7084932742,0
Kidane Mihret (2),8.9910254,38.690106,,node/7084932743,0
Augusta Bridge (Tor Hailoch),9.0056187,38.7185689,,node/7084932745,0
Mexico,9.0114539,38.7445753,,node/7084932747,0
Goro Roundabout,8.9839859,38.8285018,,node/7098810331,0
Kotebe Shet',8.9678887,38.8370059,,node/7098810332,0
Bole Lemi,8.9585287,38.8352869,,node/7098810333,0
Endorro 2,8.9405669,38.8219339,,node/7098810334,0
Kilinto Right (Heniken),8.9007946,38.8152364,,node/7098810335,0
Koye Feche 4,8.8947925,38.8240221,,node/7098810336,0
Koye Feche 3,8.8925887,38.8277372,,node/7098810337,0
Koye Feche 2,8.896302,38.8313712,,node/7098810338,0
Koye Feche,8.9045894,38.8270083,,node/7098810339,0
Goro Roundabout,8.9837967,38.8289328,,node/7098810340,0
Kotebe Shet',8.9678046,38.8374461,,node/7098810341,0
Bole Lemi,8.9573187,38.8354629,,node/7098810342,0
Endorro 2,8.9393928,38.8217947,,node/7098810343,0
Endorro 1,8.9307029,38.820007,,node/7098810344,0
kilinto (Heniken Brewery),8.9005132,38.8155747,,node/7098810345,0
Gurd-shola,9.0192718,38.8196082,,node/7098833728,0
Civil Service College,9.021924,38.8331381,,node/7098833729,0
St. Michael,9.021617,38.8400876,,node/7098833730,0
Sunshine Apartments,9.0193173,38.8524287,,node/7098833731,0
Gomista,9.0019915,38.8575794,,node/7098833732,0
Hasset Photo,8.9918735,38.8588022,,node/7098833735,0
Sunshine Apartments,9.0190988,38.8521013,,node/7098833736,0
CMC (Apartments),9.0208488,38.8504565,,node/7098833737,0
St. Michael,9.0213567,38.8401568,,node/7098833738,0
Merkato,9.0337594,38.7312293,,node/7102193971,0
Mesalemia (Area Police),9.0338552,38.7254909,,node/7102193972,0
Luwkanda,9.0332635,38.7086533,,node/7102193973,0
Comprensive,9.0338494,38.7049566,,node/7102193974,0
Gefersa,9.031909,38.642409,,node/7102193975,0
Gojo (Kela),9.0563274,38.6117467,,node/7102193976,0
Gojo (Kela),9.0560454,38.6120244,,node/7102193977,0
Gefersa (2),9.0375371,38.6265192,,node/7102193978,0
Gefersa,9.0356795,38.6329501,,node/7102193979,0
Ashewa Meda (1),9.0328635,38.6674596,,node/7102193980,0
Kersa (1),9.0286003,38.6760437,,node/7102193981,0
Feli Doro (2),9.0343761,38.687173,,node/7102193982,0
Mesalemia,9.0344498,38.7244946,,node/7102193983,0
Merkato,9.0338637,38.7312074,,node/7102269985,0
Ayer Tena,8.9821491,38.6977085,,node/7103202615,0
German Bridge,8.9647174,38.7316085,,node/7103202616,0
Mebrathile (EEPCo),8.9470109,38.7342372,,node/7103202617,0
Saris Abo,8.9444277,38.7692016,,node/7103202619,0
Saris Abo,8.944353,38.7666082,,node/7103202620,0
Kality Maseltegna,8.9336411,38.7645892,,node/7103202621,0
Hana Mariam (Bridge),8.930547,38.7550031,,node/7103202622,0
Mickael Bridge,8.9653607,38.72738,,node/7103202623,0
Ayer Tena,8.9820533,38.6976219,,node/7103202625,0
Bel Air,9.0323651,38.7729637,,node/7104888674,0
CMC (Apartments),9.0211237,38.8506098,,node/7105158906,0
Tafo Condominium 2,9.0462589,38.8774831,,node/7105158907,0
Tafo Condominium 1,9.0502639,38.8775457,,node/7105158908,0
Mebrat (Lafto),8.9593839,38.7490031,,node/7105268824,0
Dildiy Mariam,8.9587047,38.7497551,,node/7105268825,0
Lafto (Mickael),8.9537745,38.7504407,,node/7105268826,0
Lafto,8.9465504,38.7493803,,node/7105268828,0
Lafto (Primary School),8.9558865,38.7450783,,node/7105268830,0
Post Office (Ambassador),9.0185243,38.7534558,,node/7105398617,0
6 Kilo,9.0462,38.761425,,node/7105398618,0
Teferi Mekonen,9.0522977,38.7623138,,node/7105398619,0
Marathon Motor (Megenagna),9.022269,38.7999868,,node/7105584907,0
Arat Kilo,9.0332665,38.762507,,node/7105584908,0
Piassa Arada,9.0341288,38.7532588,,node/7105584909,0
Arat Kilo,9.0332715,38.7625094,,node/7105584911,0
Abebe Sook,9.0289345,38.7888307,,node/7105584912,0
Abune Petros,9.0358919,38.7492708,,node/7105840324,0
Yohannes,9.0424895,38.745898,,node/7105840325,0
Arbegnoch Primary School,9.0472271,38.7421685,,node/7105840326,0
Enqulal Fabrica,9.0485317,38.7376837,,node/7105840327,0
Yohannes,9.0434044,38.7450108,,node/7105840330,0
Enqulal Fabrica,9.0481067,38.7373533,,node/7105840331,0
Sefera,8.9209077,38.7350358,,node/7107670562,0
Mebrathile (EEPCo),8.94963,38.7332384,,node/7107670563,0
Mekanisa Abo,8.9829863,38.7341183,,node/7107670564,0
Jemmo 2,8.9606298,38.6879228,,node/7107789218,0
Piassa (Downtown Cafe),9.0319297,38.7511477,,node/7107789219,0
Jemmo 2,8.9605732,38.6878636,,node/7107789220,0
Kera,8.9860956,38.7483037,,node/7108224469,0
6th (Raddison Blu),9.0166264,38.7675202,,node/7110438104,0
Kazanchis (6th),9.0171928,38.7701955,,node/7110438105,0
Aware Roundabout,9.0231177,38.7758778,,node/7110438106,0
Signal,9.0234853,38.7815333,,node/7110438107,0
Dinberwa Hospital,9.0221973,38.7867845,,node/7110438108,0
Lem Hotel,9.0212061,38.7940254,,node/7110438109,0
Lamberet (Queens),9.022362,38.8157252,,node/7110438110,0
Kotebe 01,9.0348925,38.8281186,,node/7110438111,0
Kotebe 01,9.0349074,38.8281855,,node/7110438113,0
Shola (United Bank),9.0217059,38.7948696,,node/7110438114,0
Sumeya Mosque,9.021194,38.792498,,node/7110438115,0
Signal,9.023369,38.7815645,,node/7110438116,0
Kality Gebriel,8.9104302,38.7640618,,node/7110725239,0
Addis Sefer (Overpass),8.9572931,38.7673729,,node/7110725240,0
Bole Mickael (2),8.9799499,38.7723221,,node/7110725241,0
Bole Bridge,8.9867261,38.7903601,,node/7110725242,0
MOENCO,8.9948785,38.7957512,,node/7110725243,0
Sport Academy,9.0009401,38.7988652,,node/7110725244,0
Anbessa Garage,9.0077883,38.8030776,,node/7110725245,0
Anbessa Garage,9.0076034,38.8032793,,node/7110725247,0
Emperial Hotel,9.0037859,38.8009424,,node/7110725248,0
Bole (Bora Amusement),8.9910225,38.7947105,,node/7110725250,0
Bole Mickael (2),8.9795995,38.7721474,,node/7110725251,0
Addis Sefer,8.9603711,38.7676814,,node/7110725252,0
Saris Abo,8.945759,38.7692206,,node/7110725253,0
Kality (Correctional Facility),8.9234126,38.7648588,,node/7110725254,0
Kality Meneharia,8.8959395,38.7718808,,node/7110725256,0
Arat Kilo,9.0354591,38.7588358,,node/7111821010,0
Piassa (EPPCO),9.0325113,38.7538404,,node/7111821011,0
Autobis Tera,9.0317457,38.7374552,,node/7111821013,0
Autobis Tera,9.0302352,38.7372851,,node/7111821015,0
Dinberwa Hospital (1),9.0216842,38.7887833,,node/7111821016,0
Chid Tera,9.0374493,38.721592,,node/7112123457,0
Mebrathail,9.0294949,38.7149359,,node/7112123458,0
Kolfe Keranyo,9.0173854,38.7177803,,node/7112123459,0
Keranio Bridge,9.0193846,38.708993,,node/7112123460,0
Kolfe Keranyo,9.0170237,38.7176821,,node/7112123462,0
Abysinia Coffee,9.0370321,38.7163686,,node/7112123463,0
Chid Tera,9.0376714,38.7208971,,node/7112123464,0
Old Airport (Mobil),8.9998854,38.7188624,,node/7112215078,0
Minaye (Shoa Supermarket),9.008471,38.7196192,,node/7112215079,0
Holand,9.0208524,38.7158287,,node/7112215080,0
18 Mazoria (Atena Tera),9.0361682,38.7141478,,node/7112215081,0
Atena Tera,9.0409736,38.7125982,,node/7112215082,0
Winget TVET,9.0491202,38.7116581,,node/7112215083,0
Winget,9.0555289,38.7124575,,node/7112215084,0
Winget,9.0554541,38.7127274,,node/7112280388,0
Winget TVET,9.0494004,38.7117843,,node/7112280389,0
kolfe (Atena Tera),9.0448145,38.7122352,,node/7112280390,0
Atena Tera,9.0414434,38.712721,,node/7112280391,0
18 Mazoria (Atena Tera),9.0362317,38.7143961,,node/7112280392,0
Meseret Edget,9.0244809,38.7152453,,node/7112280393,0
Augusta Bridge (Tor Hailoch),9.0056155,38.7188519,,node/7112280394,0
Mahiber Betoch,8.8596281,38.8146269,,node/7112648156,0
Project 12 Akababi,8.865212,38.8210444,,node/7112648157,0
G7 (Tulu Dimtu),8.8701237,38.8204129,,node/7112648158,0
Belay Ab Moters,8.871336,38.7965426,,node/7112648159,0
Gelan Condominium,8.8797273,38.779459,,node/7112648160,0
Kality Total,8.894811,38.7728422,,node/7112648161,0
Akaki Subcity Office (Menaheria),8.8973286,38.770309,,node/7112648162,0
Kality (Correctional Facility),8.9224149,38.7641522,,node/7112648163,0
Techtra Engineering,8.9281178,38.7676362,,node/7112648164,0
Adey Abeba,8.9572677,38.7637599,,node/7112648165,0
Kality Maseltegna,8.9323914,38.7669427,,node/7112648166,0
Wehalemat,8.9298175,38.768315,,node/7112648167,0
Awash Bank (Akaki Kality),8.8837788,38.7768426,,node/7112648168,0
Gelan Condominium,8.8799589,38.7793211,,node/7112648169,0
Belay Ab Moters,8.8716847,38.7963837,,node/7112648170,0
TAF Oil (Tulu Dimtu),8.8705655,38.8091005,,node/7112648172,0
Teklehaymanot,9.0278217,38.7439418,,node/7112755338,0
Autobis Tera,9.0314996,38.7376384,,node/7112755340,0
Autobis Tera,9.0308454,38.7381207,,node/7112755342,0
Meteorology,9.0194238,38.7468282,,node/7112755343,0
Girum Hospital,9.0462468,38.7199737,,node/7113004009,0
Ras Hailu (Medhanialem),9.0509733,38.7211613,,node/7113004010,0
Awolia,9.0572551,38.7114101,,node/7113004011,0
Bercheko Fabrica (Asko),9.0640587,38.6983516,,node/7113004012,0
Gulele,9.0598807,38.70588,,node/7113004013,0
Ras Hailu (Medhanialem),9.0507813,38.7210939,,node/7113004014,0
Woreda 7 TVET,9.040909,38.7212829,,node/7113004015,0
Chid Tera,9.0380466,38.7213725,,node/7113004016,0
Autobis Tera,9.0312199,38.7365754,,node/7113004018,0
Michael (2),9.0426217,38.73268,,node/7113004020,0
Pawlos Hospital (Saba Mosque),9.0485205,38.7261371,,node/7113004021,0
Anbessa Garage (Shegole),9.0643796,38.7205811,,node/7113004022,0
Shegole (Mender 7),9.0641379,38.7266132,,node/7113004024,0
Shegole (Mender 7),9.0641466,38.726699,,node/7113004026,0
Hassen & Hussein Mosque (Shegole),9.0589167,38.7189551,,node/7113004027,0
Shegole Bank,9.0548351,38.7198445,,node/7113004028,0
Michael,9.0409541,38.7321449,,node/7113004029,0
Eyesus,9.0652655,38.7712666,,node/7113158623,0
Wello Sefer,8.9931107,38.7741153,,node/7122983960,0
Kassech Kitfo,8.9891423,38.7720567,,node/7122983961,0
Ambasel,8.9855755,38.7679985,,node/7122983962,0
WAGGA (Singer Liquior Store),8.9840055,38.7662234,,node/7122983963,0
Wengalawit,8.9814923,38.7635127,,node/7122983964,0
Wengalawit,8.9817105,38.7636059,,node/7122983968,0
MEDCO,8.9857381,38.7680101,,node/7122983969,0
Tebaber Berta,8.98977,38.7723942,,node/7122983970,0
Wello Sefer,8.9930626,38.7739711,,node/7122983972,0
Beshale Area,9.0113972,38.8356151,,node/7123180286,0
Megenagna,9.0185063,38.802106,,node/7123180287,0
Jacros,9.0111777,38.821148,,node/7123180289,0
Safari,9.0100121,38.8526604,,node/7123180290,0
Safari (Summit),9.0116739,38.8657082,,node/7123180291,0
Safari (Summit),9.0115148,38.8657494,,node/7123180293,0
Safari,9.0099646,38.8513684,,node/7123180295,0
Beshale Area,9.011279,38.8356503,,node/7123180296,0
Gurd Shola,9.0189315,38.8201425,,node/7123180297,0
Megenagna,9.0194519,38.803506,,node/7123180298,0
Meskel Flower,8.9882804,38.7650036,,node/7123265052,0
Loza (Adot),8.9911645,38.7659652,,node/7123265053,0
Nazra Hotel,8.9934001,38.7663984,,node/7123265054,0
Yetam Hotel,8.9959487,38.7666123,,node/7123265055,0
Kebele Kibeb,8.9980982,38.7667571,,node/7123265056,0
Mulu Shewa (Gazebo),8.9999844,38.7669271,,node/7123265061,0
Kebele Kibeb,8.9979306,38.7668423,,node/7123265062,0
Yetam Hotel,8.9959132,38.7667132,,node/7123265063,0
Nazra Hotel,8.9937071,38.7665439,,node/7123265064,0
Loza (Adot),8.9910552,38.7660467,,node/7123265065,0
Meskel Flower,8.9885268,38.7652457,,node/7123265066,0
Total 3 Kuter Mazoria,8.9921561,38.7180191,,node/7182111861,0
Kera,8.9865792,38.7468023,,node/7182111862,0
4 Kilo Minilik School,9.0351361,38.7629695,,node/7214490240,0
Kality Menaheriya,8.8967488,38.7708485,,node/7214490241,0
Holeta,9.0675662,38.497947,,node/10672522047,0
Sademo,9.065884,38.53199,,node/10672522056,0
Cheshire Ethiopia,9.0712731,38.5920589,,node/10672522057,0
Delta Fuel Station,8.8504983,38.8085926,,node/10672721751,0
Sidama Awash NOC,8.8412588,38.8243789,,node/10672739809,0
Atlas Resort,8.8314833,38.8396009,,node/10672739811,0
ODDA Fuel Station,8.8447465,38.818065,,node/10672739815,0
3 Kutir (TZNA Area),8.9943894,38.717673,,node/10672961242,0
Lideta High Court,9.0117316,38.7335924,,node/10672961244,0
Ayer Tena,8.9839135,38.7024743,,node/10750378219,0
Sar Bet,8.9925223,38.7394551,,node/10755917239,0
Sar Bet,8.9924619,38.7392871,,node/10755917241,0
Kera,8.9859671,38.7469304,,node/10755917242,0
Kera,8.9900132,38.7418629,,node/10755917243,0
Sar Bet,8.995096,38.7376124,,node/10755917244,0
karl Square,8.9973975,38.7309965,,node/10755917245,0
karl Square,8.9970773,38.7302642,,node/10755917246,0
Bisrate Gebrael,8.9927368,38.7268512,,node/10755917247,0
Bisrate Gebrael,8.9914228,38.7255644,,node/10755917248,0
Bisrate Gebrael,8.9888937,38.7226976,,node/10755917249,0
Total 3 Kuter Mazoria,8.9922875,38.7175917,,node/10755917250,0
kality Meneharia,8.8967652,38.7708737,,node/10766121857,0
kality Maseltegna,8.9319554,38.7669453,,node/10766121859,0
Kadisco Roundabout,8.9632423,38.7668102,,node/10766121860,0
Bole Mickael,8.9816305,38.7761571,,node/10766121861,0
Bole Printing Press,8.9966149,38.7721247,,node/10766121862,0
Flamingo,9.0100526,38.7634141,,node/10766121863,0
St. Estifanos,9.0125659,38.7626278,,node/10766121864,0
4 Kilo (Menlik),9.035146,38.7629874,,node/10766121865,0
4 Kilo (Menlik),9.0352952,38.7631121,,node/10766121866,0
Place Parking (Gibi Gebriel),9.0214342,38.7641345,,node/10766121867,0
Flamingo,9.01014,38.7636218,,node/10766121868,0
Wollo Sefer,8.9944147,38.7743234,,node/10766121869,0
Bole Mikael,8.9812653,38.7761469,,node/10766121871,0
Mamo (Nifas Silk),8.9737518,38.765481,,node/10766121872,0
kality Maseltegna,8.9321192,38.7670877,,node/10766121873,0
kality Meneharia,8.8957067,38.7721261,,node/10766121874,0
Olympia,9.0056744,38.7674734,,node/10766454593,0
Bole Roundabout,8.9867247,38.7908923,,node/10766454594,0
German Square,8.965437,38.7341844,,node/10768858714,0
Gofa Camp,8.97192,38.7420458,,node/10768858715,0
African Union,9.003043,38.7411322,,node/10768858718,0
Autobis Tera,9.0296254,38.7370315,,node/10768858719,0
Guenet Hotel (Orbis),9.0026517,38.7470064,,node/10768858720,0
German Square,8.9651822,38.7340469,,node/10768858723,0
Lamberet Menaheria,9.0239162,38.8198728,,node/10781643820,0
Arat Kilo,9.0322896,38.7650098,,node/10781643821,0
4 kilo (Children Theatre),9.0328365,38.7666152,,node/10781643822,0
Bel Air,9.0325481,38.7736753,,node/10781643823,0
Kebena,9.0344084,38.7768069,,node/10781643824,0
Kokebe Tsebah (Kebena),9.0350794,38.7794124,,node/10781643825,0
Kenya Embassy (Kebena),9.0324942,38.7823515,,node/10781643826,0
British Embassy,9.0309005,38.785575,,node/10781643827,0
Abebe Sook,9.0289673,38.7888226,,node/10781643828,0
Shola (Yeka Court),9.0251295,38.7947497,,node/10781643829,0
Shola Abyssinia Bank,9.0232585,38.7984062,,node/10781643830,0
Megenagna (Marathon Motors),9.0224046,38.7997354,,node/10781643831,0
Megenagna,9.0208971,38.8010368,,node/10781643832,0
Megenagna (Israel Embassy),9.0208722,38.8048559,,node/10781643833,0
Lamberet Menaheria,9.0240444,38.8199227,,node/10781643834,0
Kotebe,9.0297042,38.836729,,node/10781643835,0
Kotebe,9.0304539,38.8385612,,node/10781643836,0
Kotebe Teachers College,9.0348007,38.8490303,,node/10781643837,0
Kotebe Gebriel,9.0363204,38.8553365,,node/10781643838,0
Kotebe Gebriel,9.0358505,38.8541265,,node/10781643839,0
Wessen Grocery,9.032918,38.8443436,,node/10781643840,0
Kara,9.0407203,38.8648947,,node/10781643841,0
Kara,9.0411416,38.8653607,,node/10781643842,0
Abebe Sook,9.0287927,38.788672,,node/10781844855,0
British Embassy,9.0313214,38.7843424,,node/10781844856,0
5 Kilo St. Mary,9.038677,38.7623866,,node/10781844857,0
6 Kilo University,9.0462129,38.7614003,,node/10781844858,0
6 Kilo University,9.0462072,38.7615945,,node/10781844859,0
6 Kilo (Lion Zoo),9.0430896,38.7615002,,node/10781844860,0
Kenya Embassy (Kebena),9.032679,38.7826601,,node/10781844861,0
Shola (Yeka Court),9.0250431,38.7953847,,node/10781844862,0
Megenagna (Marathon Motors),9.0225097,38.7998471,,node/10781844863,0
Yeka 03,9.0381854,38.8773834,,node/10823916391,0
Sefera Atkilt Tera,8.931276,38.7341685,,node/10842065101,0
kality Maseltegna,8.9358559,38.7646885,,node/10842065103,0
Bulgaria,8.9948043,38.7478806,,node/10842065104,0
Kality Customs,8.9379429,38.7628904,,node/10842129005,0
Germen Square,8.9644696,38.7330813,,node/10842129006,0
Hana Mariam,8.93579,38.7441345,,node/10842129008,0
Gomista,8.9373819,38.7703639,,node/10842129009,0
Nigd bank,8.948706,38.780123,,node/10842129010,0
kality Maseltegna,8.9342123,38.7642814,,node/10842129011,0
Kadisco,8.9310906,38.7585214,,node/10842129012,0
Adey abeba,8.9582797,38.7638648,,node/10842129013,0
Saris abo,8.9457865,38.7690665,,node/10842129015,0
Haile Garment,8.93876,38.7345583,,node/10842129016,0
Saris,8.9546992,38.7635479,,node/10842129017,0
Bole Cargo,8.9834477,38.7819099,,node/10842129019,0
Bulgaria,8.9944221,38.7483448,,node/10842129020,0
Kore,8.9482742,38.7765022,,node/10842129021,0
Saris Abo,8.9444276,38.7691994,,node/10842129022,0
Kality Menaheria,8.8973782,38.7704449,,node/10842129023,0
Sefera Square,8.9254109,38.7340982,,node/10842129024,0
Mexico,9.009032,38.7463895,,node/10842129025,0
Kality Gebriel,8.9092945,38.7644698,,node/10842129026,0
Derartu,8.8869211,38.7821218,,node/10842129027,0
Bole Cargo,8.9836884,38.7818039,,node/10842129028,0
Kality Total,8.8948904,38.7729402,,node/10842129029,0
Noc,8.9927142,38.748144,,node/10842129030,0
Lancha,8.9901397,38.7590821,,node/10842129031,0
Haile Garment,8.9375158,38.7359129,,node/10842129032,0
Agona,8.9880834,38.759633,,node/10842129033,0
kality Maseltegna,8.9336783,38.76464,,node/10842129034,0
Mesqelegna,8.9417644,38.7214531,,node/10842129035,0
Jemo,8.9537651,38.6979529,,node/10842129037,0
Adey abeba,8.9577771,38.7640443,,node/10842129038,0
Saris Abo,8.9448318,38.7661797,,node/10842129040,0
Mebrat hayle,8.9457862,38.7343973,,node/10842129041,0
Kadisco,8.9633984,38.7669226,,node/10842129042,0
Hana Mariam,8.9356798,38.7453864,,node/10842129043,0
Mamo (NFSL),8.9729895,38.7609585,,node/10842129045,0
Medhani alem,8.9490785,38.7785848,,node/10842129046,0
Mosque (Mesged),8.9047633,38.7660661,,node/10842129047,0
Kality Gebriel,8.9093265,38.7645559,,node/10842129048,0
Bole Roundabout,8.9859342,38.7888143,,node/10842129051,0
Wuhalimat,8.9295556,38.7681435,,node/10842129052,0
Hana Mariam,8.9361549,38.7445142,,node/10842129053,0
Bole Mickael,8.9797944,38.7719673,,node/10842129054,0
Sheger building,8.9192813,38.7635639,,node/10842129055,0
Yoseph,8.9705748,38.7668114,,node/10842129056,0
Bulgaria,8.9947898,38.7477478,,node/10842129057,0
Mebrathayil,8.9470316,38.7342346,,node/10842129058,0
Sefera Square,8.9250202,38.7346011,,node/10842129059,0
Tele Garage,9.0000494,38.758701,,node/10842129060,0
Mebrathayil,8.9469179,38.7339445,,node/10842129061,0
Haile garment,8.9376734,38.7335906,,node/10842129062,0
Meshualekia,9.0058652,38.758986,,node/10842129063,0
Adey abada,8.9571801,38.7640108,,node/10842129066,0
Menaheria (Zenebu Werk),8.9755358,38.706617,,node/10842129069,0
Adis sefer,8.9602509,38.767446,,node/10842129070,0
Kadisco,8.930883,38.758758,,node/10842129071,0
Bulgaria,8.993831,38.7478486,,node/10842129072,0
Kadisco,8.9661182,38.7627716,,node/10842129073,0
Bulbula,8.9517202,38.7861393,,node/10842129074,0
Kadisko,8.966096,38.7629867,,node/10842129075,0
Saris abo,8.9444437,38.7700795,,node/10842129076,0
Meshualekya,8.8759809,38.7875287,,node/10842129077,0
Agona,8.9871416,38.7597928,,node/10842129078,0
Gotera chaf,8.9771026,38.7595824,,node/10842129079,0
Saris,8.9528149,38.7633358,,node/10842129080,0
St. Joseph School,9.0106804,38.7593422,,node/10842129082,0
Kotari Condominium,8.9321621,38.7338312,,node/10842129083,0
Mamo,8.9732793,38.7652695,,node/10842129084,0
Saris Abo,8.9448603,38.7664084,,node/10842129085,0
Yosef,8.9705442,38.7665547,,node/10842129086,0
Kality Cheralia,8.9068482,38.7654586,,node/10842129088,0
Kality Cheralia,8.9066965,38.7653555,,node/10842129089,0
Lancha,8.9906489,38.7593009,,node/10842129090,0
Gomista,8.9375024,38.7701062,,node/10842129091,0
Haile Garment,8.9375082,38.7331196,,node/10842129092,0
Tele Garage,9.0001174,38.7584826,,node/10842129093,0
Selam Building,8.8840544,38.7767338,,node/10842129094,0
Medhani alem,8.9453322,38.7769101,,node/10842129095,0
Selam Building,8.8831855,38.7772259,,node/10842129096,0
Meshualekya,8.8759552,38.7872182,,node/10842129097,0
Saris,8.9531876,38.7635911,,node/10842129098,0
Germen adebabay,8.963723,38.7328242,,node/10842129102,0
Mamo (NFSL),8.972508,38.7607874,,node/10842129103,0
Kera,8.9875165,38.7486365,,node/10842129105,0
Agona,8.9867627,38.7599766,,node/10842129106,0
Saris abo,8.9446574,38.7701231,,node/10842129107,0
Kera,8.9860883,38.7483211,,node/10842129108,0
Gelan Condominium,8.8790966,38.7666013,,node/10842129110,0
Temenja yasi,8.9953066,38.7596133,,node/10842129111,0
Riche,9.0041803,38.7588933,,node/10842129112,0
Haile garment,8.9368154,38.7364242,,node/10842129113,0
Bole Mickael,8.9795749,38.7720906,,node/10842129114,0
Ayer Tena,8.9835322,38.6971287,,node/10842129116,0
Jemo,8.9537239,38.6977027,,node/10842129117,0
Land mark,9.0052072,38.7467544,,node/10842129118,0
Meskelegna,8.9411484,38.7218311,,node/10842129119,0
Haile Garment,8.9381771,38.7349153,,node/10842129120,0
Riche,9.0040548,38.7586909,,node/10842129121,0
Kore,8.9476648,38.7841911,,node/10842129122,0
Meshualekya,8.8770606,38.7866845,,node/10842129124,0
Bulbula,8.9518942,38.7863461,,node/10842129125,0
kality Maseltegna,8.9357353,38.7643342,,node/10842129126,0
Saris abo,8.9457601,38.7692278,,node/10842129129,0
Addis sefer,8.9603252,38.7676873,,node/10842129131,0
Hana mariam,8.9352291,38.744852,,node/10842129132,0
Kera,8.9866879,38.7484325,,node/10842129133,0
Gotera chaf,8.9757898,38.7601404,,node/10842129134,0
Akaki Subcity Office (Menaheria),8.8972852,38.770318,,node/10842129135,0
Condominium,8.9411922,38.7717099,,node/10842129136,0
Gelan Condominium,8.8789992,38.7666701,,node/10842129137,0
Wuhalimat,8.9295931,38.7683276,,node/10842129139,0
Mexico,9.0098761,38.7461882,,node/10842129140,0
Grand Anwar Mosque,9.0312472,38.7413343,,node/10845731573,0
Kebele 11,9.0247282,38.7457773,,node/10845731574,0
Guenet hotel,9.0028738,38.7468651,,node/10845731575,0
Lancia,8.9923344,38.7589891,,node/10845731576,0
Pepsi,8.9825134,38.755826,,node/10845731577,0
Lancia,8.9919399,38.7591215,,node/10845731578,0
Tekle Haimanot,9.0279893,38.7438378,,node/10845731579,0
Saris Abo,8.9441872,38.7666459,,node/10845731580,0
Legehar,9.0120319,38.7544517,,node/10845731581,0
Kera,8.9841589,38.7522272,,node/10845731582,0
Kality Customs,8.9380577,38.7631799,,node/10845731583,0
Gojam Berenda,9.0342603,38.7378007,,node/10845731584,0
Gojam Berenda,9.0343553,38.7381021,,node/10845731585,0
Derartu,8.8868675,38.7818631,,node/10845731586,0
Pepsi,8.9824223,38.7557408,,node/10845731587,0
Global Hotel,8.9943898,38.7596457,,node/10845731588,0
Sheger Building,8.9208636,38.7637542,,node/10845731589,0
Autobus Tera,9.0343246,38.734431,,node/10845731590,0
Guenet hotel,9.0027786,38.7469738,,node/10845731591,0
Tekle Haimanot,9.0279685,38.7439714,,node/10845731592,0
Beg Tera,8.9970419,38.7476261,,node/10845731593,0
Global Hotel,8.9943499,38.7598651,,node/10845731594,0
Kality Correctional,8.9223845,38.7641252,,node/10845731595,0
Cheralia Factory,8.9029367,38.7667306,,node/10845731596,0
Kebele 11,9.0246149,38.7457421,,node/10845731597,0
Grand Anwar Mosque,9.0310422,38.7414003,,node/10845731598,0
National Theatre,9.0165472,38.7526758,,node/10845731599,0
Sheger Building,8.9214902,38.7639368,,node/10845731600,0
Saris,8.95346,38.767986,,node/10845731601,0
Beg Tera,8.9968163,38.7475303,,node/10845731602,0
Sengatera,9.014753,38.7468099,,node/10845731603,0
Mexico,9.0096228,38.746301,,node/10845731604,0
Bulgaria,8.9937615,38.7479845,,node/10845749005,0
kality Meneharia,8.8956285,38.7720203,,node/10845840895,0
Ayer Tena,8.9841176,38.6966894,,node/10845840896,0
Germen adebabay,8.9637758,38.7330269,,node/10845840897,0
Kality Total,8.8948231,38.7728316,,node/10846106471,0
Bole Bridge,8.9869946,38.7912092,,node/10881147490,0
Bole Bridge,8.9867302,38.7903563,,node/10881147492,0
Autobus Tera,9.0341009,38.7338003,,node/10883106542,0
Bajaj Tera,8.907041,38.7415025,,node/10886135782,0
Chera,8.904156,38.7479978,,node/10886135783,0
Gelan Condominium,8.8772921,38.7622377,,node/10886135784,0
Total,8.8549158,38.7845626,,node/10886135785,0
Tulu Dimtu,8.8737817,38.8197795,,node/10886135787,0
Tulu Dimtu,8.8738791,38.8202354,,node/10886135789,0
G7,8.8709574,38.820802,,node/10886135790,0
Total,8.8541896,38.7847209,,node/10886135791,0
Gelan Condominium,8.8758233,38.7630121,,node/10886135793,0
Bole Bridge,8.9906055,38.7928534,,node/10886281950,0
Bole Medhanyalem,8.9955183,38.7887705,,node/10886281951,0
Edna Mall Squar,8.9973425,38.7870108,,node/10886281952,0
Adey Ababa Stadium,9.0043569,38.7892817,,node/10886281953,0
22 Mazoria,9.0150262,38.7872566,,node/10886281954,0
22 Mazoria,9.0150056,38.787438,,node/10886281956,0
Freedom,9.0082739,38.7887083,,node/10886281958,0
Werku Building,9.0069454,38.7890587,,node/10886281997,0
Adey Ababa Stadium,9.0042976,38.7893444,,node/10886281998,0
Edna Mall Squar,8.9977034,38.7869491,,node/10886281999,0
Bole Medhanyalem,8.995948,38.7885714,,node/10886282000,0
Bole Bridge,8.9906936,38.7929596,,node/10886282001,0
22 Mazoria,9.0161537,38.7881236,,node/10886427067,0
Lem Hotel,9.017758,38.7950715,,node/10886427068,0
Megenagna,9.0198841,38.8019786,,node/10886427069,0
Gurd Shola,9.0191878,38.8200261,,node/10886427070,0
Civil Servis College,9.0218654,38.8345374,,node/10886427071,0
Yetebaberut,9.0209806,38.8536095,,node/10886427072,0
Ayat,9.0214852,38.8750186,,node/10886427073,0
Civil Servis College,9.0215577,38.8350083,,node/10886427074,0
Ayat,9.0211711,38.8737977,,node/10886427075,0
Meshageria,9.0204163,38.8598848,,node/10886427076,0
Yetebaberut,9.020619,38.8535182,,node/10886427077,0
Bole Bora Amusement,8.9907378,38.7941243,,node/10886883544,0
Megenagna,9.0185543,38.8016982,,node/10886883546,0
Anbessa Garage,9.0078296,38.8034449,,node/10886883547,0
Emperial Hotel,9.0037737,38.8009392,,node/10886883548,0
Hayat Hospital,8.9950343,38.7961015,,node/10886883549,0
Bole Bora Amusement,8.9916604,38.7949793,,node/10886883550,0
Sun shine,9.0199832,38.852562,,node/10886991025,0
Megenagna,9.0200202,38.8042842,,node/10886991026,0
Meshualekia,9.021578,38.841553,,node/10886991027,0
Safari,9.0110042,38.8522797,,node/10886991028,0
Summit,9.004015,38.8519977,,node/10886991029,0
Summit,9.004282,38.8517386,,node/10886991031,0
Safari,9.010941,38.8519018,,node/10886991032,0
Sun shine,9.0199154,38.8520834,,node/10886991033,0
Meshualekia,9.021324,38.8415391,,node/10886991034,0
Michael,9.021353,38.8392942,,node/10886991035,0
Gurd Shola,9.0187135,38.8211275,,node/10886991036,0
Hayat Hospital,8.9948468,38.7956759,,node/10887120325,0
Sport Accadamy,9.0001969,38.798384,,node/10887120326,0
Emperial Hotel,9.0027661,38.8000262,,node/10887120327,0
Mulugeta Building,9.0187177,38.8016319,,node/10887120328,0
93 Mazoria,8.9603848,38.7855121,,node/10890083966,0
Kaldisco,8.9623057,38.7863684,,node/10890083967,0
Key Afer,8.9642046,38.7872114,,node/10890083968,0
Bole Bridge,8.9901774,38.7938035,,node/10890083969,0
Mulugeta Building,9.0169433,38.8025239,,node/10890083974,0
Key Afer,8.9642211,38.7873203,,node/10890290096,0
93 Mazoria,8.9604784,38.785703,,node/10890290097,0
Kebele,8.9581348,38.7875752,,node/10890290098,0
Anbessa Garage,9.0080412,38.8031745,,node/10893030388,0
Jacros,9.0035488,38.8169267,,node/10893030389,0
Alem Ayew Building,8.9993201,38.8210973,,node/10893030390,0
Goro,8.9923039,38.8283586,,node/10893030392,0
Goro,8.9917123,38.8287738,,node/10893030394,0
Goro School,8.9939213,38.8266397,,node/10893030395,0
Alem Ayew Building,8.9992455,38.8210064,,node/10893030396,0
Jacros,9.0035377,38.8166485,,node/10893030397,0
Sport Accadamy,8.9999982,38.7986195,,node/10893030398,0
Bole Bridge,8.9911487,38.7947324,,node/10893030400,0
Figa,9.0122741,38.8336594,,node/10893316186,0
Mesgid,9.0110639,38.8366122,,node/10893316189,0
Figa,9.0121764,38.8335762,,node/10893316190,0
Bole Mickael,8.984658,38.7731313,,node/10898980600,0
Ambasader,9.0162838,38.7551282,,node/10898980601,0
Dembel,9.0069448,38.7662663,,node/10898980602,0
Stadium,9.0123922,38.7586647,,node/10898980603,0
Metrology,9.0192676,38.7466456,,node/10898980604,0
Tikur Anbesa,9.0217285,38.7476072,,node/10898986005,0
Tikur Anbesa,9.0207753,38.7476005,,node/10898986007,0
Metrology,9.0188878,38.7467207,,node/10898986008,0
Ambasader,9.0164136,38.7553118,,node/10898986009,0
Stadium,9.011485,38.760062,,node/10898986010,0
Dembel,9.0038396,38.7686303,,node/10898986011,0
Bole Printing Press,8.9979213,38.7717243,,node/10898986012,0
Bole Mickael,8.9849144,38.7734946,,node/10898986014,0
Cinema Ras,9.0318094,38.7413697,,node/10899009892,0
Cinema Ras,9.0317766,38.7414723,,node/10899009893,0
Rwanda,8.992509,38.7781683,,node/10899150564,0
Shewa Dabo,9.0017627,38.7693116,,node/10899150565,0
St. Estifanos Church,9.0120704,38.7626611,,node/10899150566,0
Piassa Arada,9.0321752,38.7511048,,node/10899150567,0
Piassa Arada,9.0330229,38.7525581,,node/10899150568,0
Tewodros Square,9.0264157,38.7517894,,node/10899150569,0
Tikur Anbesa,9.0210948,38.7522625,,node/10899150570,0
Post Office,9.019064,38.7529153,,node/10899150571,0
Ghion Hotel,9.0138467,38.7576138,,node/10899150572,0
Bole Bridge,8.9885561,38.7897689,,node/10899278324,0
Friendship Building,8.9908062,38.7840796,,node/10899278325,0
Rwanda,8.9923825,38.7798445,,node/10899278326,0
Friendship Building,8.9908613,38.7844715,,node/10899278327,0
Bole Bridge,8.9887169,38.7898626,,node/10899278328,0
Anbessa Garage,9.0084115,38.8038533,,node/10899524535,0
Condominium - Gerji Mebrat hayle,9.0049309,38.8100683,,node/10899524536,0
Gerji Mebrat hayle,9.0036683,38.814209,,node/10899524537,0
Goro,8.9913434,38.8294024,,node/10899524538,0
kilinto Right,8.900477,38.815561,,node/10899524539,0
Tulu Dimtu,8.8753804,38.8197368,,node/10899524540,0
kilinto Right,8.900461,38.8150743,,node/10899524542,0
Goro,8.9912832,38.8292469,,node/10899524543,0
Gerji Mebrat hayle,9.0035919,38.8134376,,node/10899524544,0
Condominium - Gerji Mebrat hayle,9.0050654,38.8095948,,node/10899524545,0
Anbessa Garage,9.0071868,38.8055809,,node/10899524547,0
Mesgid,9.011198,38.8364067,,node/10899590290,0
Saint Georgis,8.994461,38.8518486,,node/10899590291,0
Saint Georgis,8.994389,38.8515329,,node/10899590293,0
Mebrathile,8.9493529,38.7332958,,node/10899652823,0
Gebriel Bridge,8.9556186,38.7324445,,node/10899652824,0
Mickael Bridge,8.965384,38.7273491,,node/10899652825,0
Zenebewerk,8.9727473,38.7121031,,node/10899652826,0
Chaina Camp,8.975714,38.7055213,,node/10899652827,0
Ayer Tena,8.981635,38.6982059,,node/10899652829,0
Haile Garment,8.9385233,38.7348966,,node/10901428140,0
Sefera,8.9201595,38.7353205,,node/10901428141,0
Sefera Atkilt Tera,8.9311784,38.7337094,,node/10901428142,0
Sefera,8.9208099,38.734667,,node/10901428143,0
Mesalemia,8.8870433,38.7519617,,node/10901522017,0
Chera Medhanilem,8.9032086,38.7484085,,node/10901522018,0
Haile Garment,8.935726,38.7346387,,node/10901522020,0
Chera Medhanilem,8.9034769,38.7491293,,node/10901522021,0
Mesalemia,8.8871115,38.7524365,,node/10901522022,0
Saris,8.9530332,38.7629397,,node/10901643508,0
58 Mazoria,8.9431476,38.7540078,,node/10901643510,0
Kidane Mihret Stebel,8.9405222,38.7500946,,node/10901643511,0
Mexico,9.0084289,38.7447143,,node/10902267327,0
Mexico,9.0084377,38.7448728,,node/10902267330,0
AU (Mikael) Rounrdabout,8.9990666,38.7393711,,node/10902267332,0
AU (Mikael) Rounrdabout,8.9990162,38.7395668,,node/10902267333,0
Sar Bet,8.9923567,38.7381301,,node/10902267334,0
Sar Bet,8.9923453,38.7383324,,node/10902267335,0
Abo Mazoria,8.9822679,38.7342938,,node/10902267336,0
Abo Mazoria,8.9823292,38.7344209,,node/10902267337,0
Mekanisa,8.9729293,38.7311351,,node/10902267338,0
Mekanisa,8.9728812,38.7312498,,node/10902267339,0
Gebriel Bridge,8.9555964,38.732719,,node/10902267340,0
58 Mazoria,8.9432326,38.7539257,,node/10903393900,0
Varnelo Squer,8.9487486,38.7267004,,node/10903398373,0
Jemmo 1,8.9594798,38.7117668,,node/10903398374,0
Jemmo 1,8.9585188,38.712128,,node/10903398375,0
Jemmo Medhanialem,8.9524535,38.7161087,,node/10903398376,0
Jemmo Medhanialem,8.9525568,38.7162235,,node/10903398377,0
Kebele,8.9490672,38.7221583,,node/10903398378,0
Kebele,8.9491872,38.7221797,,node/10903398379,0
Varnelo Squer,8.9488837,38.7267159,,node/10903398380,0
Sar Bet,8.9951163,38.7373285,,node/10904734315,0
Austria Embassy,8.9936468,38.7276618,,node/10904734316,0
Total 3 Kuter Mazoria,8.9922476,38.7177291,,node/10904734318,0
Autobus Tera,9.0330017,38.7322404,,node/10905160356,0
Autobus Tera,9.033026,38.7323851,,node/10905160357,0
Sebategna,9.0282768,38.7329553,,node/10905160358,0
Sebategna,9.0283274,38.7331326,,node/10905160359,0
Abenet,9.021201,38.7333187,,node/10905160360,0
Abenet,9.0196344,38.7335682,,node/10905160361,0
Darmar,9.0158211,38.7346366,,node/10905160362,0
Darmar,9.0154497,38.7347971,,node/10905160363,0
Lideta Condominium,9.0133778,38.7343382,,node/10905160364,0
Lideta Condominium,9.0133623,38.7345056,,node/10905160365,0
Dessie Hotel,9.0094187,38.7337879,,node/10905160366,0
Dessie Hotel,9.0093029,38.7339331,,node/10905160367,0
Lideta,9.0046165,38.7337058,,node/10905160368,0
Lideta,9.0041332,38.7338158,,node/10905160369,0
AU (Mikael) Rounrdabout,9.0001611,38.7393722,,node/10905160370,0
AU (Mikael) Rounrdabout,8.9999889,38.7400667,,node/10905160371,0
Kera,8.9839514,38.7518897,,node/10905641592,0
Jemmo 1,8.9606229,38.7123799,,node/10905771998,0
Jemmo Mickael,8.9688439,38.7216431,,node/10905771999,0
Metrology,9.0192423,38.7468034,,node/10905772000,0
karl Square,8.9969985,38.7304143,,node/10905772001,0
Bisrate Gebrael,8.9883364,38.7227062,,node/10905772002,0
Jemmo Mickael,8.9687533,38.7218663,,node/10905772003,0
Jemmo 1,8.9604031,38.7124299,,node/10905772004,0
Noc,8.9493317,38.6701812,,node/10905866700,0
Alem Gena,8.9339514,38.6639521,,node/10905876026,0
Alem Gena,8.933851,38.6640124,,node/10905876027,0
Noc,8.9493415,38.670031,,node/10905876029,0
Jemmo 3 Squer,8.9538566,38.6965362,,node/10905876030,0
Jemmo 3 Squer,8.9552123,38.697557,,node/10905876031,0
Post Office,9.0220649,38.7520387,,node/10905982178,0
Germen Square,8.9652918,38.732839,,node/10905982179,0
Germen Square,8.9664306,38.7325545,,node/10905982180,0
Gofa,8.9717027,38.7418952,,node/10906020778,0
Gofa,8.9716231,38.7419996,,node/10906020779,0
Ayer Tena,8.9816221,38.6979766,,node/10906074341,0
Germen Square,8.9644965,38.7320917,,node/10906074342,0
Germen Square,8.9646595,38.732112,,node/10906074343,0
Mesked,8.9883638,38.6922765,,node/10907679395,0
Kidane Mihret,8.9913917,38.6893136,,node/10907679396,0
Tropical,8.9958978,38.683541,,node/10907679398,0
Alem Bank,9.0003808,38.677926,,node/10907679399,0
Alem Bank,9.0010321,38.6776565,,node/10907679400,0
Tropical,8.9957016,38.6841485,,node/10907679401,0
Kidane Mihret,8.9915373,38.689491,,node/10907679402,0
Mesked,8.9884696,38.6925125,,node/10907679403,0
Chaina Camp,8.9757717,38.7060819,,node/10907679404,0
Zenebewerk,8.9730472,38.7121867,,node/10907725405,0
Mickael Bridge,8.9655559,38.7275949,,node/10907725406,0
Germen Square,8.9648278,38.7333383,,node/10907781477,0
Kera,8.9844811,38.7500865,,node/10907781478,0
Kera,8.9842955,38.750364,,node/10907781479,0
Gofa Gebriel,8.9770976,38.7490157,,node/10907781480,0
Gofa Gebriel,8.9770919,38.7491174,,node/10907781481,0
Mekanisa Abo,8.9832814,38.7343726,,node/10908143594,0
Mekanisa Abo,8.9830621,38.7341531,,node/10908143595,0
Mexico,9.0088673,38.7440188,,node/10908143596,0
Mexico,9.0088181,38.7438,,node/10908143597,0
Tewodros Square,9.0263912,38.7516402,,node/10908191497,0
Mekanisa,8.9739466,38.7321651,,node/10908191498,0
Mekanisa,8.9738507,38.7322539,,node/10908191499,0
Post Office,9.0187971,38.7524753,,node/10908191500,0
Mebrathile,8.9493572,38.7334477,,node/10908661149,0
Coca Cola,9.0159317,38.729496,,node/10909186645,0
Merab Hotel,9.0294352,38.735361,,node/10909186646,0
Abenet,9.0213907,38.7334955,,node/10909186647,0
Merab Hotel,9.0293588,38.7353749,,node/10909186648,0
Kolfe Keranyo,9.016555,38.7180312,,node/10909186649,0
Holand,9.0203575,38.7159578,,node/10909186650,0
Holand,9.0204824,38.7162551,,node/10909186651,0
Kolfe Keranyo,9.017036,38.7176312,,node/10909186652,0
Kolfe Keranyo,9.0171583,38.7179346,,node/10909186653,0
Torhayloch,9.0122446,38.7202541,,node/10909186654,0
Torhayloch,9.0120497,38.7202419,,node/10909186655,0
Keranio Mewcha,9.0134653,38.7097752,,node/10909186657,0
Keranio Mewcha,9.0133225,38.7097861,,node/10909186658,0
Mewcha,9.0140592,38.7049946,,node/10909186659,0
Mewcha,9.0139288,38.7050058,,node/10909186660,0
Mendida,9.0153205,38.6994498,,node/10909186661,0
Mendida,9.0151509,38.6995858,,node/10909186662,0
Betel,9.0037697,38.6937692,,node/10909186663,0
Betel,9.0036921,38.6937746,,node/10909186664,0
Alem Bank,9.0017481,38.6775777,,node/10909186665,0
Alem Bank,9.0016995,38.677633,,node/10909186666,0
Zenebewerk,8.9868549,38.7080844,,node/10911198617,0
Zenebewerk,8.9867824,38.7081829,,node/10911198618,0
Ayer Tena,8.9838366,38.6961361,,node/10911198619,0
Mexico Shebelle Hotel,9.0114518,38.7446969,,node/10911242345,0
Mexico Shebelle Hotel,9.0114526,38.7445773,,node/10911242346,0
Lideta,9.0117415,38.7336365,,node/10911242347,0
Lideta,9.0115482,38.7336469,,node/10911242348,0
Alem Bank,9.001869,38.6772002,,node/10911242349,0
Alem Bank,9.0018954,38.6769434,,node/10911242350,0
Ayer Tena,8.9834957,38.7007283,,node/10911695404,0
Betel,9.0044227,38.6943792,,node/10911717876,0
Betel,9.0043939,38.6942024,,node/10911717877,0
Ayer Tena,8.9831049,38.6982237,,node/10911725505,0
Zenebewerk,8.9879977,38.7080303,,node/10912835918,0
Zenebewerk,8.9880219,38.7079594,,node/10912835920,0
Mebrat Haile,9.0295143,38.714679,,node/10913852032,0
Mebrat Haile,9.0294826,38.7149385,,node/10913852033,0
18 Mazoria,9.0334554,38.7146172,,node/10913852034,0
18 Mazoria,9.0334598,38.714468,,node/10913852035,0
Abenet,9.0196268,38.7327435,,node/10913863174,0
Abenet,9.0194053,38.7327231,,node/10913863175,0
Coca Cola,9.0159095,38.7296372,,node/10913863176,0
Torhayloch,9.0117875,38.7222401,,node/10913863177,0
Torhayloch,9.0096837,38.7208808,,node/10913863178,0
Augusta Bridge,9.0056583,38.7185634,,node/10913863179,0
Augusta Bridge,9.0055925,38.7188581,,node/10913863180,0
Old Airport,9.0000925,38.7188599,,node/10913863181,0
Old Airport,8.9998426,38.7191188,,node/10913863182,0
3 Kutir Mazoriya (Total),8.9932525,38.7170227,,node/10913863183,0
3 Kutir Mazoriya (Total),8.9926315,38.7158494,,node/10913863184,0
Kara Kore,8.9756363,38.6817486,,node/10913974717,0
Kara Kore,8.9754096,38.6814462,,node/10913974718,0
Gerar,8.9813701,38.6894126,,node/10913974719,0
Gerar,8.9813486,38.6894421,,node/10913974720,0
Ayer Tena,8.9829716,38.6982009,,node/10913974721,0
Mexico,9.0116587,38.746198,,node/10914160973,0
Mexico,9.0102476,38.7438026,,node/10914160974,0
Zenebewerk,8.987734,38.708928,,node/10914160976,0
Zenebewerk,8.9849086,38.7049751,,node/10914160977,0
Zenebewerk Meneharia,8.9853381,38.7053463,,node/10914680945,0
Zenebewerk Meneharia,8.9852574,38.7056363,,node/10914680946,0
Atena Tera,9.0417169,38.71237,,node/10914784456,0
Atena Tera,9.0414427,38.7127192,,node/10914784457,0
Tekle Haimanot,9.028352,38.7426711,,node/10915613002,0
Tekle Haimanot,9.0281855,38.742622,,node/10915613003,0
Asko,9.0658063,38.6937551,,node/10915905485,0
Asko,9.065919,38.6937141,,node/10915905486,0
Chereta,9.0612502,38.7010467,,node/10915905487,0
Chereta,9.0612523,38.7011727,,node/10915905488,0
Gulele Fana,9.0575666,38.7069671,,node/10915905489,0
Gulele Fana,9.0576638,38.7070447,,node/10915905490,0
Awolia,9.0572628,38.7114229,,node/10915905491,0
Awolia,9.0576104,38.7116493,,node/10915905492,0
Winget,9.0555179,38.7124522,,node/10915905493,0
Winget,9.0554488,38.7127252,,node/10915905494,0
Kokebe,9.018116,38.6993091,,node/10918141989,0
Kokebe,9.0178995,38.6991634,,node/10918141990,0
Yeshi Debele,9.0188526,38.6969603,,node/10918141991,0
Yeshi Debele,9.0185806,38.6972043,,node/10918141992,0
Keranio Adebabay,9.0177704,38.7017975,,node/10918141993,0
Keranio Adebabay,9.0176839,38.7006617,,node/10918141994,0
Medhanalem,9.0178222,38.7049143,,node/10918141995,0
Medhanalem,9.0175512,38.7047128,,node/10918141996,0
Torhayloch,9.0115804,38.7208703,,node/10918245686,0
Torhayloch,9.0099639,38.720685,,node/10918245687,0
Torhayloch,9.0114229,38.7225031,,node/10918314820,0
Torhayloch,9.0128836,38.7206095,,node/10918339958,0
Legehar,9.0118511,38.7544283,,node/10922141942,0
Zebera,9.0691686,38.7174162,,node/10923884107,0
Addisu Gebeya,9.0630022,38.7350114,,node/10923884109,0
Addisu Gebeya,9.0625854,38.7352489,,node/10923884110,0
Bera Tera,9.0670589,38.725597,,node/10923884111,0
Zebera,9.0689759,38.7174444,,node/10923884112,0
Addisu Gebeya,9.0594889,38.7374564,,node/10923941250,0
Addisu Gebeya,9.059208,38.7379019,,node/10923941251,0
Semen Mazegaga,9.0528165,38.7431266,,node/10923941252,0
Semen Mazegaga,9.0528691,38.7432318,,node/10923941253,0
Shola,9.0483987,38.7461562,,node/10923941254,0
Shola,9.0484505,38.7462522,,node/10923941255,0
Semen Hotel,9.0446634,38.7483104,,node/10923941256,0
Semen Hotel,9.0446029,38.7485012,,node/10923941257,0
Yohanes,9.0425995,38.745274,,node/10923941258,0
Yohanes,9.0425158,38.7453414,,node/10923941259,0
Eritrea Hotel,9.0346843,38.7394065,,node/10923941260,0
Eritrea Hotel,9.0347991,38.7393526,,node/10923941261,0
Medhanalem,9.0552727,38.7517928,,node/10924087993,0
Medhanalem,9.0552441,38.7518851,,node/10924087994,0
Chelote,9.0520868,38.7497489,,node/10924087995,0
Chelote,9.0521299,38.7496604,,node/10924087996,0
Shola,9.0479898,38.746423,,node/10924087997,0
Shola,9.0480732,38.7465175,,node/10924087998,0
St. George Church,9.0385287,38.7516855,,node/10924088002,0
St. George Church,9.0385651,38.7518109,,node/10924088003,0
Piassa,9.0365922,38.7521881,,node/10924088004,0
Piassa,9.0341764,38.7533491,,node/10924116805,0
Kechenie,9.0650022,38.7492165,,node/10924116806,0
Kechenie,9.0652677,38.7497807,,node/10924116808,0
Shegole,9.0639755,38.7268465,,node/10924211089,0
Shegole,9.0640548,38.7269586,,node/10924211090,0
Rufael,9.0590346,38.7274953,,node/10924211093,0
Rufael,9.0590438,38.7274376,,node/10924211094,0
Tureta Deldy,9.0544658,38.7329754,,node/10924211095,0
Tureta Deldy,9.054531,38.7330307,,node/10924211096,0
Enqulal Fabrica,9.0492619,38.7377403,,node/10924211097,0
Enqulal Fabrica,9.0492678,38.7378298,,node/10924211098,0
Ras Desta,9.0444679,38.7440337,,node/10924212637,0
Ras Desta,9.0444022,38.7439161,,node/10924212638,0
Sebara Babur,9.0375917,38.7483682,,node/10924212640,0
Abune Petros,9.0358617,38.749271,,node/10924212641,0
Abune Petros,9.0359205,38.7494119,,node/10924212642,0
Yohanes,9.04258,38.7458165,,node/10924212643,0
Yohanes,9.0426863,38.7459326,,node/10924212644,0
Shola Abyssinia Bank,9.0230837,38.79823,,node/10924342466,0
British Embassy,9.0307347,38.7854804,,node/10924342467,0
Menelik II Hospital,9.0385889,38.7730468,,node/10924342468,0
Menlik Hospital,9.0385052,38.7728666,,node/10924342469,0
6 Kilo,9.0437871,38.761858,,node/10924342470,0
6 Kilo,9.0453786,38.7613161,,node/10924342471,0
Piassa,9.0352542,38.7527884,,node/10924981547,0
Kazanchis,9.0168504,38.7714084,,node/10924981836,0
Kazanchis,9.0167816,38.7712817,,node/10924981837,0
Meneharya,9.0199981,38.767286,,node/10924981839,0
6 Kilo,9.0462061,38.7614317,,node/10924981840,0
6 Kilo,9.046202,38.7615616,,node/10924981841,0
6 Kilo (Lion Zoo),9.0430636,38.7613028,,node/10925096455,0
Medhanalem,9.0509212,38.7621679,,node/10925096457,0
Shiromeda,9.0609308,38.7616364,,node/10925096458,0
Shiromeda,9.0610296,38.7618074,,node/10925096459,0
Abune Petros,9.0350989,38.7493321,,node/10925161777,0
Abune Petros,9.0353615,38.7492809,,node/10925161778,0
St. George Total,9.0385895,38.7526253,,node/10925161780,0
Raguel Church,9.0338335,38.7411822,,node/10925161781,0
Raguel Church,9.0340374,38.7413278,,node/10925161782,0
Piassa,9.0352768,38.7491307,,node/10925161783,0
Piassa,9.0350881,38.749266,,node/10925161784,0
Mexico,9.0115722,38.7462619,,node/10925195639,0
Winget,9.0572967,38.7130281,,node/10925695034,0
Winget,9.0576478,38.7136024,,node/10925695035,0
Shegole,9.0630668,38.7201372,,node/10925835130,0
Shegole,9.0630578,38.7201639,,node/10925835131,0
Medhanalem,9.051016,38.7226821,,node/10925835153,0
Medhanalem,9.0512021,38.7228048,,node/10925835154,0
Pawlos Hospital,9.047368,38.7275912,,node/10925835155,0
Pawlos Hospital,9.0474739,38.7277025,,node/10925835156,0
Pastor,9.0462435,38.7306013,,node/10925835157,0
Pastor,9.0460773,38.7305979,,node/10925835158,0
Michael,9.041653,38.7324674,,node/10925835159,0
Michael,9.0418749,38.732621,,node/10925835160,0
Autobus Tera,9.0356953,38.731876,,node/10925835161,0
Autobus Tera,9.0357033,38.731937,,node/10925835162,0
Summit Condominiums,8.9844426,38.8548285,,node/10925946103,0
Summit Condominiums,8.9909634,38.8525995,,node/10925946104,0
Meshageria,9.0206981,38.8598883,,node/10925966505,0
Derartu Adebabay,9.0212039,38.8751635,,node/10925966506,0
Derartu Adebabay,9.0215357,38.8751433,,node/10925966507,0
Gebreal,9.0403679,38.8773377,,node/10925966508,0
Gebreal,9.0402783,38.8778174,,node/10925966509,0
Aba Kiros,9.0556843,38.8778648,,node/10925966510,0
Aba Kiros,9.0561259,38.8785325,,node/10925966511,0
Bole Arabsa,8.9732139,38.8903446,,node/10926028111,0
Bole Arabsa,8.9726305,38.8904415,,node/10926028112,0
Maseltegna,8.9932453,38.8850892,,node/10926028113,0
Maseltegna,8.9932023,38.8854551,,node/10926028114,0
Sun shine,9.0100814,38.8780839,,node/10926028115,0
Sun shine,9.0100956,38.8779385,,node/10926028116,0
Ayat,9.0215285,38.8770142,,node/10926028117,0
Mariam,8.9875932,38.8848989,,node/10926040103,0
Mariam,8.9875847,38.8852531,,node/10926040104,0
Ayat,9.0212341,38.8767405,,node/10926074605,0
Summit Condominiums,8.9910294,38.8529201,,node/10926094674,0
Megenagna,9.0195894,38.8033659,,node/10926094675,0
Megenagna,9.0203394,38.8038784,,node/10926817920,0
Tafo Square,9.057063,38.8779123,,node/10926817921,0
Tafo Square,9.0566681,38.8780073,,node/10926817922,0
Sun shine,9.0021737,38.8763861,,node/10926849848,0
Summit Chafe,9.0011674,38.8537813,,node/10926849849,0
Summit Chafe,9.0015569,38.8537842,,node/10926849850,0
Goro,8.9918731,38.8299549,,node/10926849851,0
Goro,8.9917194,38.8303813,,node/10926849852,0
Se'alite Mihret,9.0194791,38.8256621,,node/10926896755,0
Se'alite Mihret,9.0198404,38.8254269,,node/10926896756,0
Ayat Chefe Condominium,9.0109362,38.8944977,,node/10926896757,0
Ayat Chefe Condominium,9.0113892,38.8946434,,node/10926896758,0
Ayat,9.0207778,38.8758009,,node/10928177661,0
Summit Condominiums,8.9846036,38.854445,,node/10928876312,0
Summit Condominiums,8.9844416,38.8548242,,node/10928876313,0
Tewodros Square,9.0273248,38.751565,,node/10929299420,0
Tewodros Square,9.0273553,38.7517149,,node/10929299421,0
Tikur Anbesa,9.0209798,38.7480915,,node/10929299422,0
Mexico,9.0105347,38.7449001,,node/10929337801,0
Stadium,9.0119557,38.7559408,,node/10929337802,0
Stadium,9.0121328,38.7559437,,node/10929337803,0
Megenagna,9.0195364,38.8009614,,node/10929412718,0
Megenagna,9.0190569,38.8005907,,node/10929412719,0
22 Mazoria,9.0155693,38.787267,,node/10929412721,0
Lem Hotel,9.0211986,38.7940688,,node/10929694820,0
Lem Hotel,9.0210828,38.7939939,,node/10929694821,0
Signal,9.0235014,38.7815067,,node/10929694822,0
Signal,9.0233755,38.781471,,node/10929694823,0
Abuare Gebeya,9.0280712,38.7718347,,node/10929694824,0
Abuare Gebeya,9.0279894,38.7718123,,node/10929694825,0
Tewodros Square,9.0270034,38.7520638,,node/10929694826,0
Tewodros Square,9.0268625,38.7520149,,node/10929694827,0
Tekle Haimanot,9.0285216,38.744541,,node/10929694828,0
Tekle Haimanot,9.0284531,38.74454,,node/10929694829,0
Megenagna,9.020064,38.8009431,,node/10929694830,0
Megenagna,9.0200336,38.8005994,,node/10929694831,0
Torhayloch,9.0127448,38.7209032,,node/10929752934,0
Megenagna,9.0225048,38.7998465,,node/10931788261,0
Megenagna,9.021325,38.8010821,,node/10931788262,0
Kotebe,9.0303308,38.8385778,,node/10931809323,0
Se'alite Mihret,9.0284671,38.8331547,,node/10931809324,0
Se'alite Mihret,9.0283689,38.833187,,node/10931809325,0
Lamberet,9.0216042,38.8139293,,node/10931809326,0
Lamberet,9.0214909,38.813953,,node/10931809327,0
Kara,9.0404534,38.8642169,,node/10931809328,0
Kara,9.0404001,38.864319,,node/10931809329,0
Megenagna,9.0216983,38.8015712,,node/10931809330,0
Megenagna,9.0224128,38.799743,,node/10931850027,0
Kokebe Tsebah (Kebena),9.0344299,38.7799581,,node/10931850028,0
4 Kilo,9.036142,38.7628341,,node/10931884718,0
Ferensay,9.0571169,38.7769686,,node/10931884719,0
Ferensay,9.0570142,38.7769596,,node/10931884720,0
Mezan,9.0535366,38.7722195,,node/10931884721,0
Mezan,9.0535794,38.7721316,,node/10931884722,0
Jan Meda,9.0470261,38.7690665,,node/10931884723,0
Jan Meda,9.0471196,38.7690208,,node/10931884724,0
Megenagna,9.0180915,38.8021444,,node/10931937848,0
Kadisco,8.9633989,38.766754,,node/10931937849,0
Kebena,9.0347501,38.776629,,node/10931995346,0
6 Kilo,9.0435664,38.7618099,,node/10932040828,0
St. George Total,9.0386325,38.7526555,,node/10932040829,0
St. George Total,9.038614,38.7527659,,node/10932040830,0
Lem Hotel,9.017586,38.7950974,,node/10932115661,0
Lamberet,9.0239221,38.8198719,,node/10932115662,0
Mexico,9.0107374,38.7471612,,node/10932115666,0
Mexico,9.0104411,38.7467607,,node/10932115667,0
Shola Gebeya,9.0249902,38.796095,,node/10933668851,0
Shola Gebeya,9.0253078,38.7963986,,node/10933668852,0
Beg Tera,9.0290044,38.8021516,,node/10933668868,0
Beg Tera,9.0289126,38.802143,,node/10933668869,0
Zebera,9.0315916,38.8093843,,node/10933668870,0
Zebera,9.0314928,38.8094344,,node/10933668871,0
Kidane Mihret,9.0355162,38.818742,,node/10933668873,0
Kidane Mihret,9.0355971,38.8186176,,node/10933668874,0
St. Urael Church,9.0113969,38.7750759,,node/10933970678,0
St. Urael Church,9.0110384,38.7752362,,node/10933970679,0
Atlas,9.004269,38.7797684,,node/10934121405,0
Atlas,9.0041884,38.779678,,node/10934121406,0
St. Urael Church,9.0103387,38.7748368,,node/10934121407,0
St. Urael Church,9.0104642,38.7749361,,node/10934121408,0
Kera,8.9843274,38.7518505,,node/10934142102,0
Kera,8.9840695,38.7515846,,node/10934142103,0
4 Kilo,9.0324426,38.7632997,,node/10934274056,0
St. Estifanos,9.012454,38.762845,,node/10934274058,0
Buna Ena Shay,9.0109591,38.7482685,,node/10934274059,0
Buna Ena Shay,9.0106827,38.748215,,node/10934274060,0
4 Kilo,9.032283,38.7645933,,node/10936313832,0
4 Kilo,9.0323383,38.7648081,,node/10936313833,0
Sebategna,9.0289759,38.7321818,,node/10936490562,0
Sebategna,9.028913,38.7322093,,node/10936490563,0
Amanuel Total,9.0258457,38.7211312,,node/10936490564,0
Amanuel Total,9.0258301,38.721144,,node/10936490565,0
Winget,9.0576027,38.7131944,,node/10936621813,0
Enqulal Fabrica,9.0486146,38.7375414,,node/10936724096,0
Enqulal Fabrica,9.0485559,38.7377157,,node/10936724097,0
karl Square,8.9975486,38.731079,,node/10937101933,0
6 Kilo,9.0442105,38.7610795,,node/10937167108,0
6 Kilo,9.0442026,38.7614376,,node/10937167109,0
Kera,8.9877236,38.7484685,,node/10937209934,0
Kechenie,9.0652788,38.7497785,,node/10937271651,0
Mesalemia,9.033877,38.7252968,,node/10961301939,0
Mesalemia,9.0339779,38.7255313,,node/10961301940,0
Merkato,9.0338527,38.7312096,,node/10961301941,0
Merkato,9.0337645,38.7312282,,node/10961301942,0
Tekle Haimanot,9.028926,38.7433286,,node/10961408041,0
Abuare Roundabout,9.0264526,38.7757907,,node/10961408042,0
Abuare Roundabout,9.0265186,38.7759091,,node/10961408043,0
Keranio Adebabay,9.0178983,38.7007101,,node/10961408397,0
Mendida,9.014972,38.7004401,,node/10961408398,0
Mendida,9.0151204,38.7004576,,node/10961408399,0
Bole Medhanyalem,8.9983425,38.7860616,,node/10963292174,0
Bole Medhanyalem,8.9984526,38.7862416,,node/10963292175,0
Weybla Mariam,9.0231558,38.688451,,node/10963817572,0
Weybla Mariam,9.0233344,38.6882249,,node/10963817573,0
22 Mazoria,9.0159879,38.7889432,,node/10963932669,0
Bisrate Gebrael,8.9884101,38.7226406,,node/10964879159,0
Luwkanda,9.0333084,38.7086432,,node/10970584167,0
Luwkanda,9.0332835,38.7086485,,node/10970584168,0
18 Mazoria,9.0335266,38.7126753,,node/10970584169,0
18 Mazoria,9.0335023,38.7126794,,node/10970584170,0
Abysinia Coffee,9.0372905,38.7164132,,node/10970584171,0
Abysinia Coffee,9.037294,38.7164416,,node/10970584172,0
18 Mazoria,9.0337305,38.7149465,,node/10970748190,0
4 Menta Adebabay,9.0515413,38.7087797,,node/10970748192,0
4 Menta Adebabay,9.0514981,38.7088057,,node/10970748193,0
Tero Mosque,9.0503697,38.7058937,,node/10970748194,0
Tero Mosque,9.0503743,38.7058901,,node/10970748195,0
Sebategna,9.0294218,38.7327781,,node/10970823802,0
Sebategna,9.0294686,38.732906,,node/10970823803,0
Piassa Arada,9.0350955,38.7492677,,node/10970829160,0
Piassa Arada,9.033556,38.7535518,,node/10970912911,0
Rufael,9.0542225,38.6992026,,node/10970912912,0
Rufael,9.0542148,38.6992201,,node/10970912913,0
Selefia Mosque,8.9922493,38.6737826,,node/10973319411,0
Selefia Mosque,8.9922388,38.6737682,,node/10973319412,0
Piassa Arada,9.0343357,38.7498429,,node/10973319413,0
Piassa Arada,9.0343492,38.749831,,node/10973319414,0
Shiromeda,9.0610285,38.7606274,,node/10973319416,0
Shiromeda,9.0610076,38.760666,,node/10973319417,0
Akaki Gebeya,8.8697296,38.7886493,,node/10973446898,0
Akaki Gebeya,8.8697306,38.7886284,,node/10973446899,0
Meshualekya,8.8769296,38.7864676,,node/10973446900,0
Mebrathayil,8.9482942,38.734517,,node/10973631794,0
Mebrathayil,8.9481457,38.7344951,,node/10973631795,0
Lafto,8.9473757,38.7443373,,node/10973631797,0
Yeshi Total,8.8667554,38.798935,,node/10973672014,0
Megenagna,9.0206661,38.8028464,,node/10973929780,0
Biretabret,9.0339313,38.8234705,,node/10973929781,0
Hanna Mariam,9.0375694,38.8316053,,node/10973929783,0
Hanna Mariam,9.037593,38.8316071,,node/10973929784,0
Kotebe Teachers College,9.0374618,38.8388573,,node/10973929786,0
Kotebe Gebriel,9.0390977,38.8505525,,node/10973929787,0
Kotebe Gebriel,9.039072,38.8505551,,node/10973929788,0
Kotebe,9.0357328,38.8279461,,node/10973960231,0
Kotebe,9.035744,38.8279666,,node/10973960232,0
Kebena,9.0343234,38.7769466,,node/10973960233,0
Yeka Abado,9.0637787,38.8735567,,node/10974036529,0
Yeka Abado,9.0638007,38.8734371,,node/10974036530,0
Taxi Tera,8.9948109,38.8092174,,node/10989247669,0
Bole Bridge,8.9888698,38.7945353,,node/10989247670,0
Summit,9.0048732,38.8517594,,node/10989247671,0
Summit,9.0050343,38.8520615,,node/10989247672,0
Medhanalem,9.0005807,38.838022,,node/10989247673,0
Medhanalem,9.0002413,38.8382224,,node/10989247674,0
Bole Mickael,8.9791887,38.7737291,,node/10989306740,0
Bole Mickael,8.979439,38.7732491,,node/10989306742,0
Riventy,8.9647488,38.798111,,node/10989306744,0
Riventy,8.9647649,38.7981165,,node/10989306745,0
Lomi Meda,9.0437261,38.6991226,,node/10989322788,0
Philiphs,9.0423415,38.7046602,,node/10989322789,0
Philiphs,9.0423523,38.7046599,,node/10989322790,0
Atena Tera,9.0417345,38.7116329,,node/10989322793,0
Atena Tera,9.0417198,38.7116327,,node/10989322794,0
Atena Tera,9.0418861,38.7128543,,node/10989352901,0
Atena Tera,9.0419946,38.7136815,,node/10989352903,0
Kolfe,9.037404,38.7169566,,node/10989352904,0
Kolfe,9.0373552,38.7170428,,node/10989388405,0
Chid Tera,9.0376969,38.7213864,,node/10989388406,0
Chid Tera,9.0375624,38.7215618,,node/10989388407,0
Tourist Hotel,9.0339795,38.760933,,node/10989495135,0
Tourist Hotel,9.0331899,38.7627083,,node/10989495136,0
St. George Church,9.0365466,38.7522109,,node/10989495137,0
St. George Church,9.0365649,38.7524292,,node/10989495138,0
Amanuel Church,9.0280891,38.723026,,node/10989606497,0
Amanuel Church,9.0280827,38.7230514,,node/10989606498,0
Mesalemia,9.0330957,38.7246409,,node/10989606501,0
Mesalemia,9.0330994,38.7246228,,node/10989606502,0
Coca Cola,9.0170151,38.729182,,node/10989606503,0
Coca Cola,9.0169029,38.7293902,,node/10989606504,0
Tikur Anbesa,9.0216869,38.7477611,,node/10989700748,0
Tikur Anbesa,9.0214822,38.7476433,,node/10989700750,0
Megenagna,9.0198621,38.8028176,,node/10989765272,0
Tourist Hotel,9.0331305,38.7619614,,node/10991706244,0
Ambasader,9.018399,38.7538719,,node/10991706246,0
Ambasader,9.0182782,38.7539744,,node/10991706247,0
Manen,9.0515112,38.7588533,,node/10991763449,0
Manen,9.0515112,38.7588598,,node/10991763450,0
Selam Building,8.883961,38.776766,,node/10992050085,0
Saris Abo,8.944348,38.7693473,,node/10992073740,0
Selam Building,8.883111,38.7772664,,node/10992247910,0
Gelan Condominium,8.8801893,38.768463,,node/10992247911,0
Gelan Condominium,8.8801651,38.7684764,,node/10992247913,0
Breta bret,8.8738823,38.7887302,,node/10994789635,0
Akaki CBE,8.867782,38.7888076,,node/10994942333,0
Akaki CBE,8.8679415,38.7887141,,node/10994942334,0
Mexico,9.0098456,38.7462885,,node/10995013009,0
Lafto,8.9470636,38.7443751,,node/10995013010,0
Lafto (Mickael),8.9537702,38.7504178,,node/10995013013,0
Woyira Sefer,9.0051854,38.7070388,,node/10995113524,0
Woyira Sefer,9.0050595,38.7068721,,node/10995113525,0
Total 3 Kutir mazoria,8.9932233,38.7170312,,node/10996939227,0
Mebrat,8.9671943,38.7486669,,node/10997112356,0
Mebrat,8.9671522,38.7487468,,node/10997112357,0
Biharetsege,8.9621911,38.7515775,,node/10997112358,0
Biharetsege,8.9622089,38.7515885,,node/10997112359,0
Adey Abeba,8.9576758,38.7631284,,node/10997112361,0
Adey Abeba,8.9576954,38.7631332,,node/10997112362,0
Gofa Gebriel,8.9758799,38.7488713,,node/10997112364,0
Gofa Gebriel,8.9758721,38.7489751,,node/10997112365,0
Abenet,9.0196301,38.7332825,,node/10997125769,0
Weleta,8.963665,38.6708623,,node/10997242295,0
Weleta,8.9636677,38.6708779,,node/10997242296,0
Weleta Tele,8.9666342,38.6731812,,node/10997242298,0
Repi Highschool,8.9764681,38.6774372,,node/10997242299,0
Repi Highschool,8.9765185,38.6774017,,node/10997242300,0
Sara Ampol,9.0576594,38.8741609,,node/10997243557,0
Sara Ampol,9.0575648,38.874351,,node/10997243558,0
Kara Condominium,9.0480764,38.8693718,,node/10997243559,0
Kara Condominium,9.0480356,38.8695015,,node/10997243560,0
Torhayloch,9.0107982,38.7207531,,node/10997360870,0
Mexico,9.0114511,38.7447026,,node/10997382833,0
Mexico,9.0114533,38.7445835,,node/10997382834,0
Mexico,9.01285,38.7440492,,node/10997495133,0
Mexico,9.01282,38.74405,,node/10997495134,0
Darmar,9.0163639,38.7345884,,node/10997495135,0
Piassa Arada,9.0329801,38.7545702,,node/10998041498,0
Piassa Arada,9.0334582,38.7537202,,node/10998041499,0
Shola,9.025295,38.7949306,,node/10998041503,0
Shola,9.0251357,38.7947575,,node/10998041504,0
Kality Meneharia,8.8954024,38.7722516,,node/11033818190,0
Kality Maseltegna,8.9361073,38.7642175,,node/11033818192,0
AU (Mikael) Rounrdabout,8.9994656,38.7406449,,node/11033818193,0
Mexico,9.0089885,38.7438741,,node/11033818195,0
Mexico,9.0089241,38.7440373,,node/11033818196,0
Bulgaria Mazoria,8.9945922,38.7474194,,node/11033818197,0
Autobis Tera,9.0316048,38.7373077,,node/11033818199,0
Autobis Tera,9.0299591,38.7377146,,node/11033818200,0
Kera,8.9864921,38.7483364,,node/11033903482,0
Saris Abo,8.9450004,38.7661144,,node/11034015157,0
Piassa Arada,9.0331054,38.7522899,,node/11034015158,0
Piassa Arada,9.0321742,38.7511155,,node/11034015159,0
Autobis Tera,9.03055,38.7370369,,node/11034031010,0
Shero Meda,9.0626384,38.7612633,,node/11034031011,0
Tsehay Chora (ShiroMeda),9.0583756,38.7598757,,node/11034031012,0
Abune Petros,9.0351037,38.7493262,,node/11034031013,0
Kuskoam,9.0777204,38.7572407,,node/11034054993,0
Arat Kilo,9.0321373,38.7654122,,node/11034209866,0
Kara Kore,8.9753965,38.6806691,,node/11034280233,0
Ayer Tena,8.9825611,38.6960927,,node/11034280234,0
Kara Kore,8.9753861,38.6805349,,node/11034280236,0
Lion Zoo (PEPSI Kiosk),9.0426561,38.7614325,,node/11034427397,0
Abo Mazoriya,9.0571131,38.777181,,node/11034427398,0
Yeha,9.0608545,38.7835816,,node/11034427399,0
Gurara,9.0622785,38.7880233,,node/11034427400,0
Gurara,9.0624066,38.7888027,,node/11034427401,0
Saris,8.9535755,38.7634093,,node/11034511605,0
Saris,8.9535945,38.7636248,,node/11034511606,0
Autobis Tera,9.0296904,38.7371486,,node/11034611751,0
Megenagna,9.0221498,38.8004821,,node/11034647605,0
Torhailoch,9.0115667,38.7220211,,node/11035234709,0
Chid Tera,9.0376857,38.7214866,,node/11035240260,0
Ayer Tena,8.9837379,38.6971291,,node/11035502832,0
Ayer Tena,8.9836981,38.7015659,,node/11035502833,0
Bisrate Gebrael,8.9914198,38.7255627,,node/11035532608,0
Zenebewerk Hotel,9.0191017,38.7682089,,node/11035607129,0
Estifanos,9.0107497,38.7636411,,node/11035607130,0
Lideta Condominium,9.0109263,38.7386025,,node/11035607131,0
Zenebework,8.9882771,38.7080773,,node/11035662205,0
Darmar,9.0165403,38.7377271,,node/11035734852,0
Hana Maryam,8.9270084,38.7418753,,node/11035734855,0
Bercheko Condominium,9.058672,38.700756,,node/11035818337,0
Alem Gena,8.9231915,38.6529741,,node/11035914858,0
Noc,8.9494175,38.6701962,,node/11035914859,0
Noc,8.9490541,38.6699835,,node/11035914860,0
Welete Tele,8.9665643,38.6732105,,node/11035914861,0
Welete,8.9635929,38.6708945,,node/11035914862,0
Weleta,8.9641803,38.6707668,,node/11035914863,0
Weleta Tele,8.9666144,38.6731872,,node/11035914864,0
